enable_time_secs=1723545716	enable_time_usecs=637675	siftrver=1.3.0	sysname=FreeBSD	sysver=1401000	ipmode=4
o,1723545716.637942,10.0.2.15,22,10.0.2.2,52266,1073725440,17746,1026,65535,65700,0,0,4,1460,312,0,16777220,230000,33580,172,65700,0,0,0,162661140,63
o,1723545716.638089,10.0.2.15,22,10.0.2.2,52266,1073725440,17746,1026,65535,65700,0,0,4,1460,312,0,16777220,230000,33580,244,65700,0,172,0,162661140,63
i,1723545716.638389,10.0.2.15,22,10.0.2.2,52266,1073725440,17746,1026,65535,65700,0,0,4,1460,312,0,16777220,230000,33580,244,65700,0,244,0,162661140,63
i,1723545716.638404,10.0.2.15,22,10.0.2.2,52266,1073725440,17918,1026,65535,65700,0,0,4,1460,312,0,4,230000,33580,72,65700,0,72,0,162661140,63
i,1723545716.638739,10.0.2.15,22,10.0.2.2,52266,1073725440,17990,1026,65535,65700,0,0,4,1460,312,0,4,230000,33580,0,65700,0,0,0,162661140,63
i,1723545716.638755,10.0.2.15,22,10.0.2.2,52266,1073725440,17990,1026,65535,65700,0,0,4,1460,312,0,4,230000,33580,0,65700,96,0,0,162661140,63
o,1723545716.638777,10.0.2.15,22,10.0.2.2,52266,1073725440,17990,1026,65535,65604,0,0,5,1460,312,0,5,230000,33580,0,65700,96,0,0,162661140,63
o,1723545716.639226,10.0.2.15,22,10.0.2.2,52266,1073725440,17990,1026,65535,65604,0,0,8,1460,312,0,4,230000,33580,0,65700,0,0,0,162661140,63
i,1723545716.639904,10.0.2.15,22,10.0.2.2,52266,1073725440,17990,1026,65535,65604,0,0,8,1460,312,0,67108884,230000,33580,0,65700,0,1,0,162661140,63
i,1723545718.922379,10.0.2.15,22,10.0.2.2,52236,1073725440,14600,0,65535,65700,0,0,4,1460,312,0,16777216,270000,33580,0,65700,0,0,0,69214000,63
o,1723545718.940157,10.0.2.15,22,10.0.2.2,52236,1073725440,14600,1026,65535,65700,0,0,4,1460,312,0,16777216,270000,33580,38,65700,42,0,0,69214000,63
i,1723545718.940664,10.0.2.15,22,10.0.2.2,52236,1073725440,14600,1026,65535,65700,0,0,4,1460,312,0,16777216,270000,33580,38,65700,0,38,0,69214000,63
i,1723545718.941265,10.0.2.15,22,10.0.2.2,52236,1073725440,14638,1026,65535,65700,0,0,4,1460,312,0,0,240000,33580,0,65700,0,0,0,69214000,63
i,1723545718.941282,10.0.2.15,22,10.0.2.2,52236,1073725440,14638,1026,65535,65700,0,0,4,1460,312,0,0,240000,33580,0,65700,1460,0,0,69214000,63
o,1723545718.941298,10.0.2.15,22,10.0.2.2,52236,1073725440,14638,1026,65535,65700,0,0,4,1460,312,0,1,240000,33580,0,65700,1536,0,0,69214000,63
o,1723545718.942126,10.0.2.15,22,10.0.2.2,52236,1073725440,14638,1026,65535,65700,0,0,4,1460,312,0,16777216,240000,33580,1120,65700,1536,0,0,69214000,63
i,1723545718.943187,10.0.2.15,22,10.0.2.2,52236,1073725440,14638,1026,65535,65700,0,0,4,1460,312,0,16777216,240000,33580,1120,65700,0,1120,0,69214000,63
i,1723545718.944116,10.0.2.15,22,10.0.2.2,52236,1073725440,15758,1026,65535,65700,0,0,4,1460,312,0,0,240000,33580,0,65700,0,0,0,69214000,63
o,1723545718.947328,10.0.2.15,22,10.0.2.2,52236,1073725440,15758,1026,65535,65700,0,0,4,1460,312,0,16777216,240000,33580,492,65700,0,0,0,69214000,63
i,1723545718.948054,10.0.2.15,22,10.0.2.2,52236,1073725440,15758,1026,65535,65700,0,0,4,1460,312,0,16777216,240000,33580,492,65700,0,492,0,69214000,63
i,1723545718.952165,10.0.2.15,22,10.0.2.2,52236,1073725440,16250,1026,65535,65700,0,0,4,1460,312,0,0,240000,33580,0,65700,0,0,0,69214000,63
i,1723545718.952230,10.0.2.15,22,10.0.2.2,52236,1073725440,16250,1026,65535,65700,0,0,4,1460,312,0,0,240000,33580,0,65700,16,0,0,69214000,63
o,1723545718.952245,10.0.2.15,22,10.0.2.2,52236,1073725440,16250,1026,65535,65700,0,0,4,1460,312,0,1,240000,33580,0,65700,60,0,0,69214000,63
o,1723545718.952380,10.0.2.15,22,10.0.2.2,52236,1073725440,16250,1026,65535,65700,0,0,4,1460,312,0,16777216,240000,33580,44,65700,0,0,0,69214000,63
i,1723545718.953490,10.0.2.15,22,10.0.2.2,52236,1073725440,16250,1026,65535,65700,0,0,4,1460,312,0,16777216,240000,33580,44,65700,0,44,0,69214000,63
i,1723545718.953506,10.0.2.15,22,10.0.2.2,52236,1073725440,16294,1026,65535,65700,0,0,4,1460,312,0,0,230000,33580,0,65700,0,0,0,69214000,63
o,1723545718.955197,10.0.2.15,22,10.0.2.2,52236,1073725440,16294,1026,65535,65700,0,0,4,1460,312,0,16777216,230000,33580,68,65700,0,0,0,69214000,63
i,1723545718.955678,10.0.2.15,22,10.0.2.2,52236,1073725440,16294,1026,65535,65700,0,0,4,1460,312,0,16777216,230000,33580,68,65700,0,68,0,69214000,63
i,1723545718.956030,10.0.2.15,22,10.0.2.2,52236,1073725440,16362,1026,65535,65700,0,0,4,1460,312,0,0,230000,33580,0,65700,0,0,0,69214000,63
o,1723545718.957107,10.0.2.15,22,10.0.2.2,52236,1073725440,16362,1026,65535,65700,0,0,4,1460,312,0,16777216,230000,33580,332,65700,0,0,0,69214000,63
i,1723545718.959015,10.0.2.15,22,10.0.2.2,52236,1073725440,16362,1026,65535,65700,0,0,4,1460,312,0,16777216,230000,33580,332,65700,0,332,0,69214000,63
i,1723545718.960966,10.0.2.15,22,10.0.2.2,52236,1073725440,16694,1026,65535,65700,0,0,4,1460,312,0,0,230000,33580,0,65700,0,0,0,69214000,63
o,1723545718.978700,10.0.2.15,22,10.0.2.2,52236,1073725440,16694,1026,65535,65700,0,0,4,1460,312,0,16777216,230000,33580,28,65700,0,0,0,69214000,63
i,1723545718.979467,10.0.2.15,22,10.0.2.2,52236,1073725440,16694,1026,65535,65700,0,0,4,1460,312,0,16777216,230000,33580,28,65700,0,28,0,69214000,63
i,1723545718.980026,10.0.2.15,22,10.0.2.2,52236,1073725440,16722,1026,65535,65700,0,0,4,1460,312,0,0,230000,33580,0,65700,0,0,0,69214000,63
o,1723545718.980697,10.0.2.15,22,10.0.2.2,52236,1073725440,16722,1026,65535,65700,0,0,4,1460,312,0,16777216,230000,33580,768,65700,112,0,0,69214000,63
i,1723545718.982117,10.0.2.15,22,10.0.2.2,52236,1073725440,16722,1026,65535,65700,0,0,4,1460,312,0,16777216,230000,33580,908,65700,0,768,0,69214000,63
o,1723545718.982134,10.0.2.15,22,10.0.2.2,52236,1073725440,17490,1026,65535,65700,0,0,4,1460,312,0,16777216,240000,33580,140,65700,0,0,0,69214000,63
i,1723545718.982487,10.0.2.15,22,10.0.2.2,52236,1073725440,17490,1026,65535,65700,0,0,4,1460,312,0,16777216,240000,33580,184,65700,0,140,0,69214000,63
o,1723545718.982527,10.0.2.15,22,10.0.2.2,52236,1073725440,17630,1026,65535,65700,0,0,4,1460,312,0,16777216,240000,33580,44,65700,0,0,0,69214000,63
i,1723545718.983129,10.0.2.15,22,10.0.2.2,52236,1073725440,17630,1026,65535,65700,0,0,4,1460,312,0,16777216,240000,33580,44,65700,0,44,0,69214000,63
i,1723545718.983144,10.0.2.15,22,10.0.2.2,52236,1073725440,17674,1026,65535,65700,0,0,4,1460,312,0,0,230000,33580,0,65700,0,0,0,69214000,63
o,1723545718.983701,10.0.2.15,22,10.0.2.2,52236,1073725440,17674,1026,65535,65700,0,0,4,1460,312,0,16777220,230000,33580,72,65700,0,0,0,69214000,63
i,1723545718.984260,10.0.2.15,22,10.0.2.2,52236,1073725440,17674,1026,65535,65700,0,0,4,1460,312,0,16777220,230000,33580,72,65700,0,72,0,69214000,63
o,1723545718.985896,10.0.2.15,22,10.0.2.2,52236,1073725440,17746,1026,65535,65700,0,0,4,1460,312,0,16777220,230000,33580,104,65700,0,0,0,69214000,63
i,1723545718.986338,10.0.2.15,22,10.0.2.2,52236,1073725440,17746,1026,65535,65700,0,0,4,1460,312,0,16777220,230000,33580,104,65700,0,104,0,69214000,63
o,1723545718.986473,10.0.2.15,22,10.0.2.2,52236,1073725440,17850,1026,65535,65700,0,0,4,1460,312,0,16777220,230000,33580,72,65700,0,0,0,69214000,63
i,1723545718.986800,10.0.2.15,22,10.0.2.2,52236,1073725440,17850,1026,65535,65700,0,0,4,1460,312,0,16777220,230000,33580,72,65700,0,72,0,69214000,63
i,1723545718.987336,10.0.2.15,22,10.0.2.2,52236,1073725440,17922,1026,65535,65700,0,0,4,1460,312,0,4,230000,33580,0,65700,0,0,0,69214000,63
i,1723545718.987351,10.0.2.15,22,10.0.2.2,52236,1073725440,17922,1026,65535,65700,0,0,4,1460,312,0,4,230000,33580,0,65700,96,0,0,69214000,63
o,1723545718.987367,10.0.2.15,22,10.0.2.2,52236,1073725440,17922,1026,65535,65604,0,0,5,1460,312,0,5,230000,33580,0,65700,96,0,0,69214000,63
o,1723545718.988417,10.0.2.15,22,10.0.2.2,52236,1073725440,17922,1026,65535,65604,0,0,8,1460,312,0,4,230000,33580,0,65700,0,0,0,69214000,63
i,1723545718.988777,10.0.2.15,22,10.0.2.2,52236,1073725440,17922,1026,65535,65604,0,0,8,1460,312,0,67108884,230000,33580,0,65700,0,1,0,69214000,63
i,1723545721.125989,10.0.2.15,22,10.0.2.2,52240,1073725440,14600,0,65535,65700,0,0,4,1460,312,0,16777216,270000,33580,0,65700,0,0,0,2457029184,63
o,1723545721.139680,10.0.2.15,22,10.0.2.2,52240,1073725440,14600,1026,65535,65700,0,0,4,1460,312,0,16777216,270000,33580,38,65700,42,0,0,2457029184,63
i,1723545721.139680,10.0.2.15,22,10.0.2.2,52240,1073725440,14600,1026,65535,65700,0,0,4,1460,312,0,16777216,270000,33580,38,65700,0,38,0,2457029184,63
i,1723545721.141127,10.0.2.15,22,10.0.2.2,52240,1073725440,14638,1026,65535,65700,0,0,4,1460,312,0,0,240000,33580,0,65700,0,0,0,2457029184,63
i,1723545721.141145,10.0.2.15,22,10.0.2.2,52240,1073725440,14638,1026,65535,65700,0,0,4,1460,312,0,0,240000,33580,0,65700,1460,0,0,2457029184,63
o,1723545721.141163,10.0.2.15,22,10.0.2.2,52240,1073725440,14638,1026,65535,65700,0,0,4,1460,312,0,1,240000,33580,0,65700,1536,0,0,2457029184,63
o,1723545721.142603,10.0.2.15,22,10.0.2.2,52240,1073725440,14638,1026,65535,65700,0,0,4,1460,312,0,16777216,240000,33580,1120,65700,1536,0,0,2457029184,63
i,1723545721.143403,10.0.2.15,22,10.0.2.2,52240,1073725440,14638,1026,65535,65700,0,0,4,1460,312,0,16777216,240000,33580,1120,65700,0,1120,0,2457029184,63
i,1723545721.144388,10.0.2.15,22,10.0.2.2,52240,1073725440,15758,1026,65535,65700,0,0,4,1460,312,0,0,240000,33580,0,65700,0,0,0,2457029184,63
o,1723545721.147548,10.0.2.15,22,10.0.2.2,52240,1073725440,15758,1026,65535,65700,0,0,4,1460,312,0,16777216,240000,33580,492,65700,0,0,0,2457029184,63
i,1723545721.147932,10.0.2.15,22,10.0.2.2,52240,1073725440,15758,1026,65535,65700,0,0,4,1460,312,0,16777216,240000,33580,492,65700,0,492,0,2457029184,63
i,1723545721.152627,10.0.2.15,22,10.0.2.2,52240,1073725440,16250,1026,65535,65700,0,0,4,1460,312,0,0,240000,33580,0,65700,0,0,0,2457029184,63
i,1723545721.152653,10.0.2.15,22,10.0.2.2,52240,1073725440,16250,1026,65535,65700,0,0,4,1460,312,0,0,240000,33580,0,65700,16,0,0,2457029184,63
o,1723545721.152684,10.0.2.15,22,10.0.2.2,52240,1073725440,16250,1026,65535,65700,0,0,4,1460,312,0,1,240000,33580,0,65700,60,0,0,2457029184,63
o,1723545721.153094,10.0.2.15,22,10.0.2.2,52240,1073725440,16250,1026,65535,65700,0,0,4,1460,312,0,16777216,240000,33580,44,65700,0,0,0,2457029184,63
i,1723545721.153856,10.0.2.15,22,10.0.2.2,52240,1073725440,16250,1026,65535,65700,0,0,4,1460,312,0,16777216,240000,33580,44,65700,0,44,0,2457029184,63
i,1723545721.153898,10.0.2.15,22,10.0.2.2,52240,1073725440,16294,1026,65535,65700,0,0,4,1460,312,0,0,240000,33580,0,65700,0,0,0,2457029184,63
o,1723545721.155894,10.0.2.15,22,10.0.2.2,52240,1073725440,16294,1026,65535,65700,0,0,4,1460,312,0,16777216,240000,33580,68,65700,0,0,0,2457029184,63
i,1723545721.156315,10.0.2.15,22,10.0.2.2,52240,1073725440,16294,1026,65535,65700,0,0,4,1460,312,0,16777216,240000,33580,68,65700,0,68,0,2457029184,63
i,1723545721.156332,10.0.2.15,22,10.0.2.2,52240,1073725440,16362,1026,65535,65700,0,0,4,1460,312,0,0,240000,33580,0,65700,0,0,0,2457029184,63
o,1723545721.157683,10.0.2.15,22,10.0.2.2,52240,1073725440,16362,1026,65535,65700,0,0,4,1460,312,0,16777216,240000,33580,332,65700,0,0,0,2457029184,63
i,1723545721.158428,10.0.2.15,22,10.0.2.2,52240,1073725440,16362,1026,65535,65700,0,0,4,1460,312,0,16777216,240000,33580,332,65700,0,332,0,2457029184,63
i,1723545721.159793,10.0.2.15,22,10.0.2.2,52240,1073725440,16694,1026,65535,65700,0,0,4,1460,312,0,0,240000,33580,0,65700,0,0,0,2457029184,63
o,1723545721.178102,10.0.2.15,22,10.0.2.2,52240,1073725440,16694,1026,65535,65700,0,0,4,1460,312,0,16777216,240000,33580,28,65700,0,0,0,2457029184,63
i,1723545721.178953,10.0.2.15,22,10.0.2.2,52240,1073725440,16694,1026,65535,65700,0,0,4,1460,312,0,16777216,240000,33580,28,65700,0,28,0,2457029184,63
i,1723545721.178973,10.0.2.15,22,10.0.2.2,52240,1073725440,16722,1026,65535,65700,0,0,4,1460,312,0,0,240000,33580,0,65700,0,0,0,2457029184,63
o,1723545721.180659,10.0.2.15,22,10.0.2.2,52240,1073725440,16722,1026,65535,65700,0,0,4,1460,312,0,16777216,240000,33580,768,65700,112,0,0,2457029184,63
i,1723545721.181419,10.0.2.15,22,10.0.2.2,52240,1073725440,16722,1026,65535,65700,0,0,4,1460,312,0,16777216,240000,33580,908,65700,112,768,0,2457029184,63
o,1723545721.181437,10.0.2.15,22,10.0.2.2,52240,1073725440,17490,1026,65535,65700,0,0,4,1460,312,0,16777216,240000,33580,140,65700,112,0,0,2457029184,63
i,1723545721.181791,10.0.2.15,22,10.0.2.2,52240,1073725440,17490,1026,65535,65700,0,0,4,1460,312,0,16777216,240000,33580,140,65700,112,140,0,2457029184,63
o,1723545721.182514,10.0.2.15,22,10.0.2.2,52240,1073725440,17630,1026,65535,65700,0,0,4,1460,312,0,16777216,240000,33580,44,65700,0,0,0,2457029184,63
i,1723545721.183456,10.0.2.15,22,10.0.2.2,52240,1073725440,17630,1026,65535,65700,0,0,4,1460,312,0,16777216,240000,33580,44,65700,0,44,0,2457029184,63
i,1723545721.183472,10.0.2.15,22,10.0.2.2,52240,1073725440,17674,1026,65535,65700,0,0,4,1460,312,0,0,230000,33580,0,65700,0,0,0,2457029184,63
o,1723545721.184277,10.0.2.15,22,10.0.2.2,52240,1073725440,17674,1026,65535,65700,0,0,4,1460,312,0,16777220,230000,33580,72,65700,0,0,0,2457029184,63
i,1723545721.184636,10.0.2.15,22,10.0.2.2,52240,1073725440,17674,1026,65535,65700,0,0,4,1460,312,0,16777220,230000,33580,72,65700,0,72,0,2457029184,63
i,1723545721.184899,10.0.2.15,22,10.0.2.2,52240,1073725440,17746,1026,65535,65700,0,0,4,1460,312,0,4,230000,33580,0,65700,0,0,0,2457029184,63
o,1723545721.276048,10.0.2.15,22,10.0.2.2,52240,1073725440,17746,1026,65535,65700,0,0,4,1460,312,0,5,230000,33580,0,65700,0,0,0,2457029184,63
o,1723545721.316146,172.16.3.2,58023,172.16.1.2,5101,7500,14480,34,65535,65700,6,6,4,1460,185937,1,16778209,590000,33580,0,65700,0,0,0,2443822196,63
o,1723545721.316908,172.16.3.2,58023,172.16.1.2,5101,7500,14480,34,65535,65700,6,6,4,1460,185937,1,16778212,590000,33580,37,65700,0,0,0,2443822196,63
i,1723545721.432343,172.16.3.2,58023,172.16.1.2,5101,7500,14480,34,65535,65700,6,6,4,1460,185937,1,16778212,590000,33580,37,65700,0,37,0,2443822196,63
o,1723545721.432802,172.16.3.2,58023,172.16.1.2,5101,7500,14517,1058,65728,65728,6,6,4,1460,176562,1,16778212,600000,33580,4,65700,0,0,0,2443822196,63
o,1723545721.432898,172.16.3.2,58023,172.16.1.2,5101,7500,14517,1058,65728,65728,6,6,4,1460,176562,1,16778212,600000,33580,130,65700,0,4,0,2443822196,63
i,1723545721.556208,172.16.3.2,58023,172.16.1.2,5101,7500,14517,1058,65728,65728,6,6,4,1460,176562,1,16778212,600000,33580,130,65700,0,130,0,2443822196,63
i,1723545721.556247,172.16.3.2,58023,172.16.1.2,5101,7500,14647,1058,65600,65728,6,6,4,1460,170937,1,996,580000,33580,0,65700,0,0,0,2443822196,63
o,1723545721.614489,172.16.3.2,58023,172.16.1.2,5101,7500,14647,1058,65728,65728,6,6,4,1460,170937,1,997,580000,33580,0,65700,0,0,0,2443822196,63
o,1723545721.659143,172.16.3.2,47412,172.16.1.2,5101,7500,14480,34,65535,65700,6,6,4,1460,180937,1,16778209,620000,33580,0,65700,0,0,0,3786015654,63
o,1723545721.659361,172.16.3.2,47412,172.16.1.2,5101,7500,14480,34,65535,65700,6,6,4,1460,180937,1,16778208,620000,33580,37,65700,0,0,0,3786015654,63
i,1723545721.779234,172.16.3.2,58023,172.16.1.2,5101,7500,14647,1058,65728,65728,6,6,4,1460,170937,1,996,580000,33580,0,65700,0,0,0,2443822196,63
i,1723545721.779326,172.16.3.2,58023,172.16.1.2,5101,7500,14647,1058,65728,65728,6,6,4,1460,170937,1,996,580000,33580,0,65700,1,0,0,2443822196,63
o,1723545721.779348,172.16.3.2,58023,172.16.1.2,5101,7500,14647,1058,65728,65728,6,6,4,1460,170937,1,997,580000,33580,0,65700,2,0,0,2443822196,63
o,1723545721.780060,172.16.3.2,47412,172.16.1.2,5101,7500,14480,38,65535,65700,6,6,4,1460,180937,1,16778208,620000,33580,33580,65700,0,37,0,3786015654,63
i,1723545721.814641,172.16.3.2,47412,172.16.1.2,5101,7500,14480,38,65535,65700,6,6,4,1460,180937,1,16778208,620000,33580,33580,65700,0,13069,0,3786015654,63
o,1723545721.814727,172.16.3.2,47412,172.16.1.2,5101,7500,14517,38,65728,65728,6,6,4,1460,178437,1,16778208,580000,33580,33543,65700,0,13032,0,3786015654,63
i,1723545721.882172,172.16.3.2,47412,172.16.1.2,5101,7500,14517,38,65728,65728,6,6,4,1460,178437,1,16778208,580000,33580,33543,65700,0,14480,0,3786015654,63
o,1723545721.882257,172.16.3.2,47412,172.16.1.2,5101,7500,17413,38,62848,65728,6,6,4,1460,168750,1,16778208,600000,33580,30647,65700,0,11584,0,3786015654,63
i,1723545721.909513,172.16.3.2,47412,172.16.1.2,5101,7500,17413,38,62848,65728,6,6,4,1460,168750,1,16778208,600000,41772,41772,65700,0,17376,0,3786015654,63
o,1723545721.909544,172.16.3.2,47412,172.16.1.2,5101,7500,20309,38,64256,65728,6,6,4,1460,164062,1,16778208,570000,41772,38876,65700,0,14480,0,3786015654,63
i,1723545721.909805,172.16.3.2,47412,172.16.1.2,5101,7500,20309,38,64256,65728,6,6,4,1460,164062,1,16778208,570000,49964,38876,65700,0,20272,0,3786015654,63
o,1723545721.909833,172.16.3.2,47412,172.16.1.2,5101,7500,23205,38,61376,65728,6,6,4,1460,160000,1,16778208,550000,49964,35980,65700,0,17376,0,3786015654,63
i,1723545721.910030,172.16.3.2,47412,172.16.1.2,5101,7500,23205,38,61376,65728,6,6,4,1460,160000,1,16778208,550000,49964,35980,65700,0,23168,0,3786015654,63
o,1723545721.910048,172.16.3.2,47412,172.16.1.2,5101,7500,26101,38,62848,65728,6,6,4,1460,156250,1,16778208,530000,49964,33084,65700,0,20272,0,3786015654,63
i,1723545721.940680,172.16.3.2,47412,172.16.1.2,5101,7500,26101,38,62848,65728,6,6,4,1460,156250,1,16778208,530000,58156,58156,65700,0,26064,0,3786015654,63
o,1723545721.940882,172.16.3.2,47412,172.16.1.2,5101,7500,28997,38,64256,65728,6,6,4,1460,156875,1,16778208,490000,58156,55260,65700,0,23168,0,3786015654,63
o,1723545721.941268,172.16.3.2,47412,172.16.1.2,5101,7500,28997,38,64256,65728,6,6,4,1460,156875,1,16778208,490000,58156,55260,65700,0,24616,0,3786015654,63
i,1723545721.998794,172.16.3.2,47412,172.16.1.2,5101,7500,28997,38,64256,65728,6,6,4,1460,156875,1,16778208,490000,66348,66348,65700,0,28960,0,3786015654,63
o,1723545721.998909,172.16.3.2,47412,172.16.1.2,5101,7500,28997,38,64256,65728,6,6,4,1460,152500,1,16778208,490000,66348,63452,65700,0,26064,0,3786015654,63
i,1723545721.999089,172.16.3.2,47412,172.16.1.2,5101,7500,28997,38,64256,65728,6,6,4,1460,152500,1,16778208,490000,66348,63452,65700,0,28960,0,3786015654,63
o,1723545721.999107,172.16.3.2,47412,172.16.1.2,5101,7500,28997,38,61376,65728,6,6,4,1460,148437,1,16778208,480000,66348,60556,65700,0,26064,0,3786015654,63
i,1723545722.021752,172.16.3.2,47412,172.16.1.2,5101,7500,28997,38,61376,65728,6,6,4,1460,148437,1,16778208,480000,66348,66348,65700,0,28960,0,3786015654,63
o,1723545722.021795,172.16.3.2,47412,172.16.1.2,5101,7500,28997,38,62848,65728,6,6,4,1460,142500,1,16778208,490000,66348,63452,65700,0,26064,0,3786015654,63
i,1723545722.022106,172.16.3.2,47412,172.16.1.2,5101,7500,28997,38,62848,65728,6,6,4,1460,142500,1,16778208,490000,66348,63452,65700,0,28960,0,3786015654,63
o,1723545722.022148,172.16.3.2,47412,172.16.1.2,5101,7500,28997,38,62848,65728,6,6,4,1460,137187,1,16778208,490000,66348,60556,65700,0,26064,0,3786015654,63
i,1723545722.048961,172.16.3.2,47412,172.16.1.2,5101,7500,28997,38,62848,65728,6,6,4,1460,137187,1,16778208,490000,66348,66348,65700,0,28960,0,3786015654,63
o,1723545722.049016,172.16.3.2,47412,172.16.1.2,5101,7500,28997,38,62848,65728,6,6,4,1460,136562,1,16778208,460000,66348,63452,65700,0,26064,0,3786015654,63
i,1723545722.049407,172.16.3.2,47412,172.16.1.2,5101,7500,28997,38,62848,65728,6,6,4,1460,136562,1,16778208,460000,66348,63452,65700,0,28960,0,3786015654,63
o,1723545722.049451,172.16.3.2,47412,172.16.1.2,5101,7500,28997,38,59968,65728,6,6,4,1460,135937,1,16778208,430000,66348,60556,65700,0,26064,0,3786015654,63
i,1723545722.049987,172.16.3.2,47412,172.16.1.2,5101,7500,28997,38,59968,65728,6,6,4,1460,135937,1,16778208,430000,66348,60556,65700,0,28960,0,3786015654,63
o,1723545722.050041,172.16.3.2,47412,172.16.1.2,5101,7500,28997,38,57088,65728,6,6,4,1460,135312,1,16778208,410000,66348,57660,65700,0,26064,0,3786015654,63
i,1723545722.050469,172.16.3.2,47412,172.16.1.2,5101,7500,28997,38,57088,65728,6,6,4,1460,135312,1,16778208,410000,66348,57660,65700,0,28960,0,3786015654,63
o,1723545722.050519,172.16.3.2,47412,172.16.1.2,5101,7500,28997,38,54208,65728,6,6,4,1460,134687,1,16778208,390000,66348,54764,65700,0,26064,0,3786015654,63
i,1723545722.051030,172.16.3.2,47412,172.16.1.2,5101,7500,28997,38,54208,65728,6,6,4,1460,134687,1,16778208,390000,66348,54764,65700,0,28960,0,3786015654,63
o,1723545722.051081,172.16.3.2,47412,172.16.1.2,5101,7500,28997,38,62848,65728,6,6,4,1460,130625,1,16778208,410000,66348,51868,65700,0,26064,0,3786015654,63
o,1723545722.051482,172.16.3.2,47412,172.16.1.2,5101,7500,28997,38,62848,65728,6,6,4,1460,130625,1,16778208,410000,66348,51868,65700,0,27512,0,3786015654,63
i,1723545722.051851,172.16.3.2,47412,172.16.1.2,5101,7500,28997,38,62848,65728,6,6,4,1460,130625,1,16778208,410000,66348,51868,65700,0,28960,0,3786015654,63
o,1723545722.051894,172.16.3.2,47412,172.16.1.2,5101,7500,28997,38,64256,65728,6,6,4,1460,126875,1,16778208,410000,66348,48972,65700,0,26064,0,3786015654,63
i,1723545722.109096,172.16.3.2,47412,172.16.1.2,5101,7500,28997,38,64256,65728,6,6,4,1460,126875,1,16778208,410000,66348,66348,65700,0,28960,0,3786015654,63
o,1723545722.109182,172.16.3.2,47412,172.16.1.2,5101,7500,28997,38,95680,65728,6,6,4,1460,125000,1,16778208,410000,66348,63452,65700,0,26064,0,3786015654,63
i,1723545722.112704,172.16.3.2,47412,172.16.1.2,5101,7500,28997,38,95680,65728,6,6,4,1460,125000,1,16778208,410000,66348,66348,65700,0,28960,0,3786015654,63
o,1723545722.112794,172.16.3.2,47412,172.16.1.2,5101,7500,28997,38,95680,65728,6,6,4,1460,123125,1,16778208,400000,66348,63452,65700,0,26064,0,3786015654,63
i,1723545722.149297,172.16.3.2,47412,172.16.1.2,5101,7500,28997,38,95680,65728,6,6,4,1460,123125,1,16778208,400000,66348,66348,65700,0,28960,0,3786015654,63
o,1723545722.149297,172.16.3.2,47412,172.16.1.2,5101,7500,28997,38,95680,65728,6,6,4,1460,124062,1,16778208,390000,66348,63452,65700,0,26064,0,3786015654,63
i,1723545722.149297,172.16.3.2,47412,172.16.1.2,5101,7500,28997,38,95680,65728,6,6,4,1460,124062,1,16778208,390000,66348,63452,65700,0,28960,0,3786015654,63
o,1723545722.149297,172.16.3.2,47412,172.16.1.2,5101,7500,28997,38,92800,65728,6,6,4,1460,125000,1,16778208,380000,66348,60556,65700,0,26064,0,3786015654,63
i,1723545722.167711,172.16.3.2,47412,172.16.1.2,5101,7500,28997,38,92800,65728,6,6,4,1460,125000,1,16778208,380000,66348,66348,65700,0,28960,0,3786015654,63
o,1723545722.167731,172.16.3.2,47412,172.16.1.2,5101,7500,28997,38,95680,65728,6,6,4,1460,124375,1,16778208,370000,66348,63452,65700,0,26064,0,3786015654,63
i,1723545722.178023,172.16.3.2,47412,172.16.1.2,5101,7500,28997,38,95680,65728,6,6,4,1460,124375,1,16778208,370000,66348,66348,65700,0,28960,0,3786015654,63
o,1723545722.178048,172.16.3.2,47412,172.16.1.2,5101,7500,28997,38,95680,65728,6,6,4,1460,125312,1,16778208,370000,66348,63452,65700,0,26064,0,3786015654,63
i,1723545722.178225,172.16.3.2,47412,172.16.1.2,5101,7500,28997,38,95680,65728,6,6,4,1460,125312,1,16778208,370000,66348,63452,65700,0,28960,0,3786015654,63
o,1723545722.178248,172.16.3.2,47412,172.16.1.2,5101,7500,28997,38,97152,65728,6,6,4,1460,125937,1,16778208,360000,66348,60556,65700,0,26064,0,3786015654,63
i,1723545722.181506,172.16.3.2,47412,172.16.1.2,5101,7500,28997,38,97152,65728,6,6,4,1460,125937,1,16778208,360000,66348,66348,65700,0,28960,0,3786015654,63
o,1723545722.181506,172.16.3.2,47412,172.16.1.2,5101,7500,28997,38,97152,65728,6,6,4,1460,126562,1,16778208,360000,66348,63452,65700,0,26064,0,3786015654,63
i,1723545722.182286,172.16.3.2,47412,172.16.1.2,5101,7500,28997,38,97152,65728,6,6,4,1460,126562,1,16778208,360000,66348,63452,65700,0,28960,0,3786015654,63
o,1723545722.182338,172.16.3.2,47412,172.16.1.2,5101,7500,28997,38,94272,65728,6,6,4,1460,127187,1,16778208,350000,66348,60556,65700,0,26064,0,3786015654,63
o,1723545722.182713,172.16.3.2,47412,172.16.1.2,5101,7500,28997,38,94272,65728,6,6,4,1460,127187,1,16778208,350000,66348,60556,65700,0,27512,0,3786015654,63
i,1723545722.183526,172.16.3.2,47412,172.16.1.2,5101,7500,28997,38,94272,65728,6,6,4,1460,127187,1,16778208,350000,66348,60556,65700,0,28960,0,3786015654,63
o,1723545722.183575,172.16.3.2,47412,172.16.1.2,5101,7500,28997,38,95680,65728,6,6,4,1460,127812,1,16778208,350000,66348,57660,65700,0,26064,0,3786015654,63
i,1723545722.228268,172.16.3.2,47412,172.16.1.2,5101,7500,28997,38,95680,65728,6,6,4,1460,127812,1,16778208,350000,66348,66348,65700,0,28960,0,3786015654,63
o,1723545722.228366,172.16.3.2,47412,172.16.1.2,5101,7500,28997,38,95680,65728,6,6,4,1460,126875,1,16778208,350000,66348,63452,65700,0,26064,0,3786015654,63
i,1723545722.238669,172.16.3.2,47412,172.16.1.2,5101,7500,28997,38,95680,65728,6,6,4,1460,126875,1,16778208,350000,66348,66348,65700,0,28960,0,3786015654,63
o,1723545722.238756,172.16.3.2,47412,172.16.1.2,5101,7500,28997,38,97152,65728,6,6,4,1460,127500,1,16778208,350000,66348,63452,65700,0,26064,0,3786015654,63
i,1723545722.258259,172.16.3.2,47412,172.16.1.2,5101,7500,28997,38,97152,65728,6,6,4,1460,127500,1,16778208,350000,66348,66348,65700,0,28960,0,3786015654,63
o,1723545722.258334,172.16.3.2,47412,172.16.1.2,5101,7500,28997,38,95680,65728,6,6,4,1460,125312,1,16778208,360000,66348,63452,65700,0,26064,0,3786015654,63
i,1723545722.258464,172.16.3.2,47412,172.16.1.2,5101,7500,28997,38,95680,65728,6,6,4,1460,125312,1,16778208,360000,66348,63452,65700,0,28960,0,3786015654,63
o,1723545722.258481,172.16.3.2,47412,172.16.1.2,5101,7500,28997,38,97152,65728,6,6,4,1460,123437,1,16778208,360000,66348,60556,65700,0,26064,0,3786015654,63
i,1723545722.287630,172.16.3.2,47412,172.16.1.2,5101,7500,28997,38,97152,65728,6,6,4,1460,123437,1,16778208,360000,66348,66348,65700,0,28960,0,3786015654,63
o,1723545722.287685,172.16.3.2,47412,172.16.1.2,5101,7500,28997,38,95680,65728,6,6,4,1460,121875,1,16778208,360000,66348,63452,65700,0,26064,0,3786015654,63
i,1723545722.287989,172.16.3.2,47412,172.16.1.2,5101,7500,28997,38,95680,65728,6,6,4,1460,121875,1,16778208,360000,66348,63452,65700,0,28960,0,3786015654,63
o,1723545722.288027,172.16.3.2,47412,172.16.1.2,5101,7500,28997,38,95680,65728,6,6,4,1460,119375,1,16778208,370000,66348,60556,65700,0,26064,0,3786015654,63
i,1723545722.288224,172.16.3.2,47412,172.16.1.2,5101,7500,28997,38,95680,65728,6,6,4,1460,119375,1,16778208,370000,66348,60556,65700,0,28960,0,3786015654,63
o,1723545722.288254,172.16.3.2,47412,172.16.1.2,5101,7500,28997,38,97152,65728,6,6,4,1460,117187,1,16778208,370000,66348,57660,65700,0,26064,0,3786015654,63
i,1723545722.298476,172.16.3.2,47412,172.16.1.2,5101,7500,28997,38,97152,65728,6,6,4,1460,117187,1,16778208,370000,66348,66348,65700,0,28960,0,3786015654,63
o,1723545722.298535,172.16.3.2,47412,172.16.1.2,5101,7500,28997,38,94272,65728,6,6,4,1460,116562,1,16778208,360000,66348,63452,65700,0,26064,0,3786015654,63
i,1723545722.298992,172.16.3.2,47412,172.16.1.2,5101,7500,28997,38,94272,65728,6,6,4,1460,116562,1,16778208,360000,66348,63452,65700,0,28960,0,3786015654,63
o,1723545722.299042,172.16.3.2,47412,172.16.1.2,5101,7500,28997,38,95680,65728,6,6,4,1460,115937,1,16778208,360000,66348,60556,65700,0,26064,0,3786015654,63
o,1723545722.299444,172.16.3.2,47412,172.16.1.2,5101,7500,28997,38,95680,65728,6,6,4,1460,115937,1,16778208,360000,66348,60556,65700,0,27512,0,3786015654,63
i,1723545722.299502,172.16.3.2,47412,172.16.1.2,5101,7500,28997,38,95680,65728,6,6,4,1460,115937,1,16778208,360000,66348,60556,65700,0,28960,0,3786015654,63
o,1723545722.299502,172.16.3.2,47412,172.16.1.2,5101,7500,28997,38,97152,65728,6,6,4,1460,115312,1,16778208,350000,66348,57660,65700,0,26064,0,3786015654,63
i,1723545722.352105,172.16.3.2,47412,172.16.1.2,5101,7500,28997,38,97152,65728,6,6,4,1460,115312,1,16778208,350000,66348,66348,65700,0,28960,0,3786015654,63
o,1723545722.352202,172.16.3.2,47412,172.16.1.2,5101,7500,28997,38,97152,65728,6,6,4,1460,115937,1,16778208,350000,66348,63452,65700,0,26064,0,3786015654,63
i,1723545722.358057,172.16.3.2,47412,172.16.1.2,5101,7500,28997,38,97152,65728,6,6,4,1460,115937,1,16778208,350000,66348,66348,65700,0,28960,0,3786015654,63
o,1723545722.358271,172.16.3.2,47412,172.16.1.2,5101,7500,28997,38,97152,65728,6,6,4,1460,116562,1,16778208,340000,66348,63452,65700,0,26064,0,3786015654,63
i,1723545722.378737,172.16.3.2,47412,172.16.1.2,5101,7500,28997,38,97152,65728,6,6,4,1460,116562,1,16778208,340000,66348,66348,65700,0,28960,0,3786015654,63
o,1723545722.378771,172.16.3.2,47412,172.16.1.2,5101,7500,28997,38,97152,65728,6,6,4,1460,117187,1,16778208,340000,66348,63452,65700,0,26064,0,3786015654,63
i,1723545722.388286,172.16.3.2,47412,172.16.1.2,5101,7500,28997,38,97152,65728,6,6,4,1460,117187,1,16778208,340000,66348,66348,65700,0,28960,0,3786015654,63
o,1723545722.388307,172.16.3.2,47412,172.16.1.2,5101,7500,28997,38,95680,65728,6,6,4,1460,117812,1,16778208,340000,66348,63452,65700,0,26064,0,3786015654,63
i,1723545722.418575,172.16.3.2,47412,172.16.1.2,5101,7500,28997,38,95680,65728,6,6,4,1460,117812,1,16778208,340000,66348,66348,65700,0,28960,0,3786015654,63
o,1723545722.418604,172.16.3.2,47412,172.16.1.2,5101,7500,28997,38,95680,65728,6,6,4,1460,119375,1,16778208,350000,66348,63452,65700,0,26064,0,3786015654,63
i,1723545722.418761,172.16.3.2,47412,172.16.1.2,5101,7500,28997,38,95680,65728,6,6,4,1460,119375,1,16778208,350000,66348,63452,65700,0,28960,0,3786015654,63
o,1723545722.418785,172.16.3.2,47412,172.16.1.2,5101,7500,28997,38,97152,65728,6,6,4,1460,120937,1,16778208,360000,66348,60556,65700,0,26064,0,3786015654,63
i,1723545722.428083,172.16.3.2,47412,172.16.1.2,5101,7500,28997,38,97152,65728,6,6,4,1460,120937,1,16778208,360000,66348,66348,65700,0,28960,0,3786015654,63
o,1723545722.428114,172.16.3.2,47412,172.16.1.2,5101,7500,28997,38,97152,65728,6,6,4,1460,123437,1,16778208,370000,66348,63452,65700,0,26064,0,3786015654,63
i,1723545722.428317,172.16.3.2,47412,172.16.1.2,5101,7500,28997,38,97152,65728,6,6,4,1460,123437,1,16778208,370000,66348,63452,65700,0,28960,0,3786015654,63
o,1723545722.428342,172.16.3.2,47412,172.16.1.2,5101,7500,28997,38,97152,65728,6,6,4,1460,124375,1,16778208,360000,66348,60556,65700,0,26064,0,3786015654,63
i,1723545722.428467,172.16.3.2,47412,172.16.1.2,5101,7500,28997,38,97152,65728,6,6,4,1460,124375,1,16778208,360000,66348,60556,65700,0,28960,0,3786015654,63
o,1723545722.428472,172.16.3.2,47412,172.16.1.2,5101,7500,28997,38,94272,65728,6,6,4,1460,125312,1,16778208,360000,66348,57660,65700,0,26064,0,3786015654,63
o,1723545722.428482,172.16.3.2,47412,172.16.1.2,5101,7500,28997,38,94272,65728,6,6,4,1460,125312,1,16778208,360000,66348,57660,65700,0,27512,0,3786015654,63
i,1723545722.428496,172.16.3.2,47412,172.16.1.2,5101,7500,28997,38,94272,65728,6,6,4,1460,125312,1,16778208,360000,66348,57660,65700,0,28960,0,3786015654,63
o,1723545722.428500,172.16.3.2,47412,172.16.1.2,5101,7500,28997,38,97152,65728,6,6,4,1460,125937,1,16778208,360000,66348,54764,65700,0,26064,0,3786015654,63
i,1723545722.450781,172.16.3.2,47412,172.16.1.2,5101,7500,28997,38,97152,65728,6,6,4,1460,125937,1,16778208,360000,66348,66348,65700,0,28960,0,3786015654,63
o,1723545722.450868,172.16.3.2,47412,172.16.1.2,5101,7500,28997,38,95680,65728,6,6,4,1460,122812,1,16778208,370000,66348,63452,65700,0,26064,0,3786015654,63
i,1723545722.484301,172.16.3.2,47412,172.16.1.2,5101,7500,28997,38,95680,65728,6,6,4,1460,122812,1,16778208,370000,66348,66348,65700,0,28960,0,3786015654,63
o,1723545722.484372,172.16.3.2,47412,172.16.1.2,5101,7500,28997,38,97152,65728,6,6,4,1460,123750,1,16778208,370000,66348,63452,65700,0,26064,0,3786015654,63
i,1723545722.518062,172.16.3.2,47412,172.16.1.2,5101,7500,28997,38,97152,65728,6,6,4,1460,123750,1,16778208,370000,66348,66348,65700,0,28960,0,3786015654,63
o,1723545722.518092,172.16.3.2,47412,172.16.1.2,5101,7500,28997,38,97152,65728,6,6,4,1460,124687,1,16778208,360000,66348,63452,65700,0,26064,0,3786015654,63
i,1723545722.518482,172.16.3.2,47412,172.16.1.2,5101,7500,28997,38,97152,65728,6,6,4,1460,124687,1,16778208,360000,66348,63452,65700,0,28960,0,3786015654,63
o,1723545722.518510,172.16.3.2,47412,172.16.1.2,5101,7500,28997,38,94272,65728,6,6,4,1460,125625,1,16778208,360000,66348,60556,65700,0,26064,0,3786015654,63
i,1723545722.518678,172.16.3.2,47412,172.16.1.2,5101,7500,28997,38,94272,65728,6,6,4,1460,125625,1,16778208,360000,66348,60556,65700,0,28960,0,3786015654,63
o,1723545722.518699,172.16.3.2,47412,172.16.1.2,5101,7500,28997,38,97152,65728,6,6,4,1460,122500,1,16778208,380000,66348,57660,65700,0,26064,0,3786015654,63
i,1723545722.518869,172.16.3.2,47412,172.16.1.2,5101,7500,28997,38,97152,65728,6,6,4,1460,122500,1,16778208,380000,66348,57660,65700,0,28960,0,3786015654,63
o,1723545722.518890,172.16.3.2,47412,172.16.1.2,5101,7500,28997,38,95680,65728,6,6,4,1460,119687,1,16778208,380000,66348,54764,65700,0,26064,0,3786015654,63
i,1723545722.539109,172.16.3.2,47412,172.16.1.2,5101,7500,28997,38,95680,65728,6,6,4,1460,119687,1,16778208,380000,66348,66348,65700,0,28960,0,3786015654,63
o,1723545722.539164,172.16.3.2,47412,172.16.1.2,5101,7500,28997,38,97152,65728,6,6,4,1460,118750,1,16778208,370000,66348,63452,65700,0,26064,0,3786015654,63
i,1723545722.539434,172.16.3.2,47412,172.16.1.2,5101,7500,28997,38,97152,65728,6,6,4,1460,118750,1,16778208,370000,66348,63452,65700,0,28960,0,3786015654,63
o,1723545722.539468,172.16.3.2,47412,172.16.1.2,5101,7500,28997,38,97152,65728,6,6,4,1460,117812,1,16778208,370000,66348,60556,65700,0,26064,0,3786015654,63
i,1723545722.547302,172.16.3.2,47412,172.16.1.2,5101,7500,28997,38,97152,65728,6,6,4,1460,117812,1,16778208,370000,66348,66348,65700,0,28960,0,3786015654,63
o,1723545722.547358,172.16.3.2,47412,172.16.1.2,5101,7500,28997,38,95680,65728,6,6,4,1460,118125,1,16778208,360000,66348,63452,65700,0,26064,0,3786015654,63
o,1723545722.547627,172.16.3.2,47412,172.16.1.2,5101,7500,28997,38,95680,65728,6,6,4,1460,118125,1,16778208,360000,66348,63452,65700,0,27512,0,3786015654,63
i,1723545722.548405,172.16.3.2,47412,172.16.1.2,5101,7500,28997,38,95680,65728,6,6,4,1460,118125,1,16778208,360000,66348,63452,65700,0,28960,0,3786015654,63
o,1723545722.548435,172.16.3.2,47412,172.16.1.2,5101,7500,28997,38,97152,65728,6,6,4,1460,118437,1,16778208,350000,66348,60556,65700,0,26064,0,3786015654,63
i,1723545722.576510,172.16.3.2,47412,172.16.1.2,5101,7500,28997,38,97152,65728,6,6,4,1460,118437,1,16778208,350000,66348,66348,65700,0,28960,0,3786015654,63
o,1723545722.576706,172.16.3.2,47412,172.16.1.2,5101,7500,28997,38,95680,65728,6,6,4,1460,120000,1,16778208,360000,66348,63452,65700,0,26064,0,3786015654,63
i,1723545722.618637,172.16.3.2,47412,172.16.1.2,5101,7500,28997,38,95680,65728,6,6,4,1460,120000,1,16778208,360000,66348,66348,65700,0,28960,0,3786015654,63
o,1723545722.618665,172.16.3.2,47412,172.16.1.2,5101,7500,28997,38,97152,65728,6,6,4,1460,121250,1,16778208,360000,66348,63452,65700,0,26064,0,3786015654,63
i,1723545722.618795,172.16.3.2,47412,172.16.1.2,5101,7500,28997,38,97152,65728,6,6,4,1460,121250,1,16778208,360000,66348,63452,65700,0,28960,0,3786015654,63
o,1723545722.618826,172.16.3.2,47412,172.16.1.2,5101,7500,28997,38,95680,65728,6,6,4,1460,118750,1,16778208,360000,66348,60556,65700,0,26064,0,3786015654,63
i,1723545722.645606,172.16.3.2,47412,172.16.1.2,5101,7500,28997,38,95680,65728,6,6,4,1460,118750,1,16778208,360000,66348,66348,65700,0,28960,0,3786015654,63
o,1723545722.645669,172.16.3.2,47412,172.16.1.2,5101,7500,28997,38,95680,65728,6,6,4,1460,120312,1,16778208,370000,66348,63452,65700,0,26064,0,3786015654,63
i,1723545722.645953,172.16.3.2,47412,172.16.1.2,5101,7500,28997,38,95680,65728,6,6,4,1460,120312,1,16778208,370000,66348,63452,65700,0,28960,0,3786015654,63
o,1723545722.646011,172.16.3.2,47412,172.16.1.2,5101,7500,28997,38,97152,65728,6,6,4,1460,121562,1,16778208,360000,66348,60556,65700,0,26064,0,3786015654,63
i,1723545722.647829,172.16.3.2,47412,172.16.1.2,5101,7500,28997,38,97152,65728,6,6,4,1460,121562,1,16778208,360000,66348,66348,65700,0,28960,0,3786015654,63
o,1723545722.647865,172.16.3.2,47412,172.16.1.2,5101,7500,28997,38,97152,65728,6,6,4,1460,122812,1,16778208,370000,66348,63452,65700,0,26064,0,3786015654,63
i,1723545722.648088,172.16.3.2,47412,172.16.1.2,5101,7500,28997,38,97152,65728,6,6,4,1460,122812,1,16778208,370000,66348,63452,65700,0,28960,0,3786015654,63
o,1723545722.648126,172.16.3.2,47412,172.16.1.2,5101,7500,28997,38,97152,65728,6,6,4,1460,121250,1,16778208,370000,66348,60556,65700,0,26064,0,3786015654,63
i,1723545722.660155,172.16.3.2,47412,172.16.1.2,5101,7500,28997,38,97152,65728,6,6,4,1460,121250,1,16778208,370000,66348,66348,65700,0,28960,0,3786015654,63
o,1723545722.660174,172.16.3.2,47412,172.16.1.2,5101,7500,28997,38,95680,65728,6,6,4,1460,121250,1,16778208,350000,66348,63452,65700,0,26064,0,3786015654,63
i,1723545722.660358,172.16.3.2,47412,172.16.1.2,5101,7500,28997,38,95680,65728,6,6,4,1460,121250,1,16778208,350000,66348,63452,65700,0,28960,0,3786015654,63
o,1723545722.660374,172.16.3.2,47412,172.16.1.2,5101,7500,28997,38,92800,65728,6,6,4,1460,120000,1,16778208,360000,66348,60556,65700,0,26064,0,3786015654,63
o,1723545722.660474,172.16.3.2,47412,172.16.1.2,5101,7500,28997,38,92800,65728,6,6,4,1460,120000,1,16778208,360000,66348,60556,65700,0,27512,0,3786015654,63
i,1723545722.668238,172.16.3.2,47412,172.16.1.2,5101,7500,28997,38,92800,65728,6,6,4,1460,120000,1,16778208,360000,66348,66348,65700,0,28960,0,3786015654,63
o,1723545722.668316,172.16.3.2,47412,172.16.1.2,5101,7500,28997,38,95680,65728,6,6,4,1460,120000,1,16778208,350000,66348,63452,65700,0,26064,0,3786015654,63
i,1723545722.697504,172.16.3.2,47412,172.16.1.2,5101,7500,28997,38,95680,65728,6,6,4,1460,120000,1,16778208,350000,66348,66348,65700,0,28960,0,3786015654,63
o,1723545722.697699,172.16.3.2,47412,172.16.1.2,5101,7500,28997,38,95680,65728,6,6,4,1460,120000,1,16778208,340000,66348,63452,65700,0,26064,0,3786015654,63
i,1723545722.717853,172.16.3.2,47412,172.16.1.2,5101,7500,28997,38,95680,65728,6,6,4,1460,120000,1,16778208,340000,66348,66348,65700,0,28960,0,3786015654,63
o,1723545722.717958,172.16.3.2,47412,172.16.1.2,5101,7500,28997,38,95680,65728,6,6,4,1460,117500,1,16778208,350000,66348,63452,65700,0,26064,0,3786015654,63
i,1723545722.739523,172.16.3.2,47412,172.16.1.2,5101,7500,28997,38,95680,65728,6,6,4,1460,117500,1,16778208,350000,66348,66348,65700,0,28960,0,3786015654,63
o,1723545722.739666,172.16.3.2,47412,172.16.1.2,5101,7500,28997,38,97152,65728,6,6,4,1460,117812,1,16778208,350000,66348,63452,65700,0,26064,0,3786015654,63
i,1723545722.740107,172.16.3.2,47412,172.16.1.2,5101,7500,28997,38,97152,65728,6,6,4,1460,117812,1,16778208,350000,66348,63452,65700,0,28960,0,3786015654,63
o,1723545722.740130,172.16.3.2,47412,172.16.1.2,5101,7500,28997,38,97152,65728,6,6,4,1460,114375,1,16778208,360000,66348,60556,65700,0,26064,0,3786015654,63
i,1723545722.748622,172.16.3.2,47412,172.16.1.2,5101,7500,28997,38,97152,65728,6,6,4,1460,114375,1,16778208,360000,66348,66348,65700,0,28960,0,3786015654,63
o,1723545722.748643,172.16.3.2,47412,172.16.1.2,5101,7500,28997,38,97152,65728,6,6,4,1460,112812,1,16778208,360000,66348,63452,65700,0,26064,0,3786015654,63
i,1723545722.748886,172.16.3.2,47412,172.16.1.2,5101,7500,28997,38,97152,65728,6,6,4,1460,112812,1,16778208,360000,66348,63452,65700,0,28960,0,3786015654,63
o,1723545722.748903,172.16.3.2,47412,172.16.1.2,5101,7500,28997,38,94272,65728,6,6,4,1460,111250,1,16778208,360000,66348,60556,65700,0,26064,0,3786015654,63
i,1723545722.768985,172.16.3.2,47412,172.16.1.2,5101,7500,28997,38,94272,65728,6,6,4,1460,111250,1,16778208,360000,66348,66348,65700,0,28960,0,3786015654,63
o,1723545722.769220,172.16.3.2,47412,172.16.1.2,5101,7500,28997,38,95680,65728,6,6,4,1460,112500,1,16778208,360000,66348,63452,65700,0,26064,0,3786015654,63
i,1723545722.770188,172.16.3.2,47412,172.16.1.2,5101,7500,28997,38,95680,65728,6,6,4,1460,112500,1,16778208,360000,66348,66348,65700,0,28960,0,3786015654,63
o,1723545722.770403,172.16.3.2,47412,172.16.1.2,5101,7500,28997,38,95680,65728,6,6,4,1460,112187,1,16778208,350000,66348,63452,65700,0,26064,0,3786015654,63
i,1723545722.770955,172.16.3.2,47412,172.16.1.2,5101,7500,28997,38,95680,65728,6,6,4,1460,112187,1,16778208,350000,66348,66348,65700,0,28960,0,3786015654,63
o,1723545722.771170,172.16.3.2,47412,172.16.1.2,5101,7500,28997,38,95680,65728,6,6,4,1460,112187,1,16778208,340000,66348,63452,65700,0,26064,0,3786015654,63
o,1723545722.771619,172.16.3.2,47412,172.16.1.2,5101,7500,28997,38,95680,65728,6,6,4,1460,112187,1,16778208,340000,66348,63452,65700,0,27512,0,3786015654,63
i,1723545722.777973,172.16.3.2,47412,172.16.1.2,5101,7500,28997,38,95680,65728,6,6,4,1460,112187,1,16778208,340000,66348,66348,65700,0,28960,0,3786015654,63
o,1723545722.778082,172.16.3.2,47412,172.16.1.2,5101,7500,28997,38,95680,65728,6,6,4,1460,112187,1,16778208,330000,66348,63452,65700,0,26064,0,3786015654,63
i,1723545722.807557,172.16.3.2,47412,172.16.1.2,5101,7500,28997,38,95680,65728,6,6,4,1460,112187,1,16778208,330000,66348,66348,65700,0,28960,0,3786015654,63
o,1723545722.807681,172.16.3.2,47412,172.16.1.2,5101,7500,28997,38,97152,65728,6,6,4,1460,110937,1,16778208,330000,66348,63452,65700,0,26064,0,3786015654,63
i,1723545722.828720,172.16.3.2,47412,172.16.1.2,5101,7500,28997,38,97152,65728,6,6,4,1460,110937,1,16778208,330000,66348,66348,65700,0,28960,0,3786015654,63
o,1723545722.828786,172.16.3.2,47412,172.16.1.2,5101,7500,28997,38,95680,65728,6,6,4,1460,110937,1,16778208,330000,66348,63452,65700,0,26064,0,3786015654,63
i,1723545722.866124,172.16.3.2,47412,172.16.1.2,5101,7500,28997,38,95680,65728,6,6,4,1460,110937,1,16778208,330000,66348,66348,65700,0,28960,0,3786015654,63
o,1723545722.866153,172.16.3.2,47412,172.16.1.2,5101,7500,28997,38,95680,65728,6,6,4,1460,112187,1,16778208,330000,66348,63452,65700,0,26064,0,3786015654,63
i,1723545722.866365,172.16.3.2,47412,172.16.1.2,5101,7500,28997,38,95680,65728,6,6,4,1460,112187,1,16778208,330000,66348,63452,65700,0,28960,0,3786015654,63
o,1723545722.866383,172.16.3.2,47412,172.16.1.2,5101,7500,28997,38,97152,65728,6,6,4,1460,113437,1,16778208,340000,66348,60556,65700,0,26064,0,3786015654,63
i,1723545722.878684,172.16.3.2,47412,172.16.1.2,5101,7500,28997,38,97152,65728,6,6,4,1460,113437,1,16778208,340000,66348,66348,65700,0,28960,0,3786015654,63
o,1723545722.878703,172.16.3.2,47412,172.16.1.2,5101,7500,28997,38,97152,65728,6,6,4,1460,115625,1,16778208,350000,66348,63452,65700,0,26064,0,3786015654,63
i,1723545722.878842,172.16.3.2,47412,172.16.1.2,5101,7500,28997,38,97152,65728,6,6,4,1460,115625,1,16778208,350000,66348,63452,65700,0,28960,0,3786015654,63
o,1723545722.878859,172.16.3.2,47412,172.16.1.2,5101,7500,28997,38,94272,65728,6,6,4,1460,117500,1,16778208,360000,66348,60556,65700,0,26064,0,3786015654,63
i,1723545722.882006,172.16.3.2,47412,172.16.1.2,5101,7500,28997,38,94272,65728,6,6,4,1460,117500,1,16778208,360000,66348,66348,65700,0,28960,0,3786015654,63
o,1723545722.882105,172.16.3.2,47412,172.16.1.2,5101,7500,28997,38,95680,65728,6,6,4,1460,115312,1,16778208,370000,66348,63452,65700,0,26064,0,3786015654,63
i,1723545722.886879,172.16.3.2,47412,172.16.1.2,5101,7500,28997,38,95680,65728,6,6,4,1460,115312,1,16778208,370000,66348,66348,65700,0,28960,0,3786015654,63
o,1723545722.886899,172.16.3.2,47412,172.16.1.2,5101,7500,28997,38,95680,65728,6,6,4,1460,114687,1,16778208,360000,66348,63452,65700,0,26064,0,3786015654,63
i,1723545722.897154,172.16.3.2,47412,172.16.1.2,5101,7500,28997,38,95680,65728,6,6,4,1460,114687,1,16778208,360000,66348,66348,65700,0,28960,0,3786015654,63
o,1723545722.897174,172.16.3.2,47412,172.16.1.2,5101,7500,28997,38,92800,65728,6,6,4,1460,115625,1,16778208,360000,66348,63452,65700,0,26064,0,3786015654,63
o,1723545722.897316,172.16.3.2,47412,172.16.1.2,5101,7500,28997,38,92800,65728,6,6,4,1460,115625,1,16778208,360000,66348,63452,65700,0,27512,0,3786015654,63
i,1723545722.908301,172.16.3.2,47412,172.16.1.2,5101,7500,28997,38,92800,65728,6,6,4,1460,115625,1,16778208,360000,66348,66348,65700,0,28960,0,3786015654,63
o,1723545722.908330,172.16.3.2,47412,172.16.1.2,5101,7500,28997,38,95680,65728,6,6,4,1460,117500,1,16778208,360000,66348,63452,65700,0,26064,0,3786015654,63
i,1723545722.917341,172.16.3.2,47412,172.16.1.2,5101,7500,28997,38,95680,65728,6,6,4,1460,117500,1,16778208,360000,66348,66348,65700,0,28960,0,3786015654,63
o,1723545722.917413,172.16.3.2,47412,172.16.1.2,5101,7500,28997,38,95680,65728,6,6,4,1460,115312,1,16778208,370000,66348,63452,65700,0,26064,0,3786015654,63
i,1723545722.949897,172.16.3.2,47412,172.16.1.2,5101,7500,28997,38,95680,65728,6,6,4,1460,115312,1,16778208,370000,66348,66348,65700,0,28960,0,3786015654,63
o,1723545722.949977,172.16.3.2,47412,172.16.1.2,5101,7500,28997,38,95680,65728,6,6,4,1460,115937,1,16778208,360000,66348,63452,65700,0,26064,0,3786015654,63
i,1723545722.978489,172.16.3.2,47412,172.16.1.2,5101,7500,28997,38,95680,65728,6,6,4,1460,115937,1,16778208,360000,66348,66348,65700,0,28960,0,3786015654,63
o,1723545722.978510,172.16.3.2,47412,172.16.1.2,5101,7500,28997,38,95680,65728,6,6,4,1460,115312,1,16778208,350000,66348,63452,65700,0,26064,0,3786015654,63
i,1723545722.978682,172.16.3.2,47412,172.16.1.2,5101,7500,28997,38,95680,65728,6,6,4,1460,115312,1,16778208,350000,66348,63452,65700,0,28960,0,3786015654,63
o,1723545722.978699,172.16.3.2,47412,172.16.1.2,5101,7500,28997,38,95680,65728,6,6,4,1460,114687,1,16778208,350000,66348,60556,65700,0,26064,0,3786015654,63
i,1723545722.988021,172.16.3.2,47412,172.16.1.2,5101,7500,28997,38,95680,65728,6,6,4,1460,114687,1,16778208,350000,66348,66348,65700,0,28960,0,3786015654,63
o,1723545722.988043,172.16.3.2,47412,172.16.1.2,5101,7500,28997,38,97152,65728,6,6,4,1460,114375,1,16778208,340000,66348,63452,65700,0,26064,0,3786015654,63
i,1723545722.988230,172.16.3.2,47412,172.16.1.2,5101,7500,28997,38,97152,65728,6,6,4,1460,114375,1,16778208,340000,66348,63452,65700,0,28960,0,3786015654,63
o,1723545722.988246,172.16.3.2,47412,172.16.1.2,5101,7500,28997,38,94272,65728,6,6,4,1460,114062,1,16778208,340000,66348,60556,65700,0,26064,0,3786015654,63
i,1723545722.988415,172.16.3.2,47412,172.16.1.2,5101,7500,28997,38,94272,65728,6,6,4,1460,114062,1,16778208,340000,66348,60556,65700,0,28960,0,3786015654,63
o,1723545722.988431,172.16.3.2,47412,172.16.1.2,5101,7500,28997,38,97152,65728,6,6,4,1460,113750,1,16778208,330000,66348,57660,65700,0,26064,0,3786015654,63
i,1723545723.010270,172.16.3.2,47412,172.16.1.2,5101,7500,28997,38,97152,65728,6,6,4,1460,113750,1,16778208,330000,66348,66348,65700,0,28960,0,3786015654,63
o,1723545723.010319,172.16.3.2,47412,172.16.1.2,5101,7500,28997,38,95680,65728,6,6,4,1460,114687,1,16778208,340000,66348,63452,65700,0,26064,0,3786015654,63
i,1723545723.010595,172.16.3.2,47412,172.16.1.2,5101,7500,28997,38,95680,65728,6,6,4,1460,114687,1,16778208,340000,66348,63452,65700,0,28960,0,3786015654,63
o,1723545723.010636,172.16.3.2,47412,172.16.1.2,5101,7500,28997,38,92800,65728,6,6,4,1460,114375,1,16778208,330000,66348,60556,65700,0,26064,0,3786015654,63
o,1723545723.010862,172.16.3.2,47412,172.16.1.2,5101,7500,28997,38,92800,65728,6,6,4,1460,114375,1,16778208,330000,66348,60556,65700,0,27512,0,3786015654,63
i,1723545723.018212,172.16.3.2,47412,172.16.1.2,5101,7500,28997,38,92800,65728,6,6,4,1460,114375,1,16778208,330000,66348,66348,65700,0,28960,0,3786015654,63
o,1723545723.018294,172.16.3.2,47412,172.16.1.2,5101,7500,28997,38,95680,65728,6,6,4,1460,112812,1,16778208,340000,66348,63452,65700,0,26064,0,3786015654,63
i,1723545723.037380,172.16.3.2,47412,172.16.1.2,5101,7500,28997,38,95680,65728,6,6,4,1460,112812,1,16778208,340000,66348,66348,65700,0,28960,0,3786015654,63
o,1723545723.037400,172.16.3.2,47412,172.16.1.2,5101,7500,28997,38,97152,65728,6,6,4,1460,113750,1,16778208,340000,66348,63452,65700,0,26064,0,3786015654,63
i,1723545723.059212,172.16.3.2,47412,172.16.1.2,5101,7500,28997,38,97152,65728,6,6,4,1460,113750,1,16778208,340000,66348,66348,65700,0,28960,0,3786015654,63
o,1723545723.059265,172.16.3.2,47412,172.16.1.2,5101,7500,28997,38,95680,65728,6,6,4,1460,113437,1,16778208,340000,66348,63452,65700,0,26064,0,3786015654,63
i,1723545723.115587,172.16.3.2,47412,172.16.1.2,5101,7500,28997,38,95680,65728,6,6,4,1460,113437,1,16778208,340000,66348,66348,65700,0,28960,0,3786015654,63
o,1723545723.115625,172.16.3.2,47412,172.16.1.2,5101,7500,28997,38,95680,65728,6,6,4,1460,116875,1,16778208,360000,66348,63452,65700,0,26064,0,3786015654,63
i,1723545723.115706,172.16.3.2,47412,172.16.1.2,5101,7500,28997,38,95680,65728,6,6,4,1460,116875,1,16778208,360000,66348,63452,65700,0,28960,0,3786015654,63
o,1723545723.115719,172.16.3.2,47412,172.16.1.2,5101,7500,28997,38,95680,65728,6,6,4,1460,120000,1,16778208,380000,66348,60556,65700,0,26064,0,3786015654,63
i,1723545723.116488,172.16.3.2,47412,172.16.1.2,5101,7500,28997,38,95680,65728,6,6,4,1460,120000,1,16778208,380000,66348,60556,65700,0,28960,0,3786015654,63
o,1723545723.116506,172.16.3.2,47412,172.16.1.2,5101,7500,28997,38,97152,65728,6,6,4,1460,121250,1,16778208,370000,66348,57660,65700,0,26064,0,3786015654,63
i,1723545723.116653,172.16.3.2,47412,172.16.1.2,5101,7500,28997,38,97152,65728,6,6,4,1460,121250,1,16778208,370000,66348,57660,65700,0,28960,0,3786015654,63
o,1723545723.116668,172.16.3.2,47412,172.16.1.2,5101,7500,28997,38,94272,65728,6,6,4,1460,122500,1,16778208,370000,66348,54764,65700,0,26064,0,3786015654,63
i,1723545723.116790,172.16.3.2,47412,172.16.1.2,5101,7500,28997,38,94272,65728,6,6,4,1460,122500,1,16778208,370000,66348,54764,65700,0,28960,0,3786015654,63
o,1723545723.116807,172.16.3.2,47412,172.16.1.2,5101,7500,28997,38,91392,65728,6,6,4,1460,123437,1,16778208,370000,66348,51868,65700,0,26064,0,3786015654,63
i,1723545723.128030,172.16.3.2,47412,172.16.1.2,5101,7500,28997,38,91392,65728,6,6,4,1460,123437,1,16778208,370000,66348,66348,65700,0,28960,0,3786015654,63
o,1723545723.128105,172.16.3.2,47412,172.16.1.2,5101,7500,28997,38,95680,65728,6,6,4,1460,123125,1,16778208,360000,66348,63452,65700,0,26064,0,3786015654,63
i,1723545723.137424,172.16.3.2,47412,172.16.1.2,5101,7500,28997,38,95680,65728,6,6,4,1460,123125,1,16778208,360000,66348,66348,65700,0,28960,0,3786015654,63
o,1723545723.137492,172.16.3.2,47412,172.16.1.2,5101,7500,28997,38,97152,65728,6,6,4,1460,124062,1,16778208,360000,66348,63452,65700,0,26064,0,3786015654,63
o,1723545723.137616,172.16.3.2,47412,172.16.1.2,5101,7500,28997,38,97152,65728,6,6,4,1460,124062,1,16778208,360000,66348,63452,65700,0,27512,0,3786015654,63
i,1723545723.147749,172.16.3.2,47412,172.16.1.2,5101,7500,28997,38,97152,65728,6,6,4,1460,124062,1,16778208,360000,66348,66348,65700,0,28960,0,3786015654,63
o,1723545723.147812,172.16.3.2,47412,172.16.1.2,5101,7500,28997,38,95680,65728,6,6,4,1460,125000,1,16778208,360000,66348,63452,65700,0,26064,0,3786015654,63
i,1723545723.167849,172.16.3.2,47412,172.16.1.2,5101,7500,28997,38,95680,65728,6,6,4,1460,125000,1,16778208,360000,66348,66348,65700,0,28960,0,3786015654,63
o,1723545723.167939,172.16.3.2,47412,172.16.1.2,5101,7500,28997,38,97152,65728,6,6,4,1460,125625,1,16778208,360000,66348,63452,65700,0,26064,0,3786015654,63
i,1723545723.168148,172.16.3.2,47412,172.16.1.2,5101,7500,28997,38,97152,65728,6,6,4,1460,125625,1,16778208,360000,66348,63452,65700,0,28960,0,3786015654,63
o,1723545723.168185,172.16.3.2,47412,172.16.1.2,5101,7500,28997,38,97152,65728,6,6,4,1460,123750,1,16778208,360000,66348,60556,65700,0,26064,0,3786015654,63
i,1723545723.227630,172.16.3.2,47412,172.16.1.2,5101,7500,28997,38,97152,65728,6,6,4,1460,123750,1,16778208,360000,66348,66348,65700,0,28960,0,3786015654,63
o,1723545723.227663,172.16.3.2,47412,172.16.1.2,5101,7500,28997,38,95680,65728,6,6,4,1460,120937,1,16778208,370000,66348,63452,65700,0,26064,0,3786015654,63
i,1723545723.227820,172.16.3.2,47412,172.16.1.2,5101,7500,28997,38,95680,65728,6,6,4,1460,120937,1,16778208,370000,66348,63452,65700,0,28960,0,3786015654,63
o,1723545723.227837,172.16.3.2,47412,172.16.1.2,5101,7500,28997,38,97152,65728,6,6,4,1460,118437,1,16778208,380000,66348,60556,65700,0,26064,0,3786015654,63
i,1723545723.229180,172.16.3.2,47412,172.16.1.2,5101,7500,28997,38,97152,65728,6,6,4,1460,118437,1,16778208,380000,66348,66348,65700,0,28960,0,3786015654,63
o,1723545723.229200,172.16.3.2,47412,172.16.1.2,5101,7500,28997,38,97152,65728,6,6,4,1460,116250,1,16778208,380000,66348,63452,65700,0,26064,0,3786015654,63
i,1723545723.229343,172.16.3.2,47412,172.16.1.2,5101,7500,28997,38,97152,65728,6,6,4,1460,116250,1,16778208,380000,66348,63452,65700,0,28960,0,3786015654,63
o,1723545723.229361,172.16.3.2,47412,172.16.1.2,5101,7500,28997,38,97152,65728,6,6,4,1460,114375,1,16778208,370000,66348,60556,65700,0,26064,0,3786015654,63
i,1723545723.237414,172.16.3.2,47412,172.16.1.2,5101,7500,28997,38,97152,65728,6,6,4,1460,114375,1,16778208,370000,66348,66348,65700,0,28960,0,3786015654,63
o,1723545723.237434,172.16.3.2,47412,172.16.1.2,5101,7500,28997,38,97152,65728,6,6,4,1460,115312,1,16778208,370000,66348,63452,65700,0,26064,0,3786015654,63
i,1723545723.237561,172.16.3.2,47412,172.16.1.2,5101,7500,28997,38,97152,65728,6,6,4,1460,115312,1,16778208,370000,66348,63452,65700,0,28960,0,3786015654,63
o,1723545723.237578,172.16.3.2,47412,172.16.1.2,5101,7500,28997,38,94272,65728,6,6,4,1460,114687,1,16778208,360000,66348,60556,65700,0,26064,0,3786015654,63
i,1723545723.257708,172.16.3.2,47412,172.16.1.2,5101,7500,28997,38,94272,65728,6,6,4,1460,114687,1,16778208,360000,66348,65968,65700,0,28960,0,3786015654,63
o,1723545723.257730,172.16.3.2,47412,172.16.1.2,5101,7500,28997,38,95680,65728,6,6,4,1460,115625,1,16778208,360000,66348,63072,65700,0,26064,0,3786015654,63
o,1723545723.257846,172.16.3.2,47412,172.16.1.2,5101,7500,28997,38,95680,65728,6,6,4,1460,115625,1,16778208,360000,66348,63072,65700,0,27512,0,3786015654,63
i,1723545723.258019,172.16.3.2,47412,172.16.1.2,5101,7500,28997,38,95680,65728,6,6,4,1460,115625,1,16778208,360000,66348,63072,65700,0,28960,0,3786015654,63
o,1723545723.258034,172.16.3.2,47412,172.16.1.2,5101,7500,28997,38,97152,65728,6,6,4,1460,115000,1,16778208,350000,66348,60176,65700,0,26064,0,3786015654,63
i,1723545723.288115,172.16.3.2,47412,172.16.1.2,5101,7500,28997,38,97152,65728,6,6,4,1460,115000,1,16778208,350000,66348,66348,65700,0,28960,0,3786015654,63
o,1723545723.288115,172.16.3.2,47412,172.16.1.2,5101,7500,28997,38,95680,65728,6,6,4,1460,115625,1,16778208,350000,66348,63452,65700,0,26064,0,3786015654,63
i,1723545723.288115,172.16.3.2,47412,172.16.1.2,5101,7500,28997,38,95680,65728,6,6,4,1460,115625,1,16778208,350000,66348,63452,65700,0,28960,0,3786015654,63
o,1723545723.288115,172.16.3.2,47412,172.16.1.2,5101,7500,28997,38,92800,65728,6,6,4,1460,116250,1,16778208,340000,66348,60556,65700,0,26064,0,3786015654,63
i,1723545723.364861,172.16.3.2,47412,172.16.1.2,5101,7500,28997,38,92800,65728,6,6,4,1460,116250,1,16778208,340000,66348,66348,65700,0,28960,0,3786015654,63
o,1723545723.364905,172.16.3.2,47412,172.16.1.2,5101,7500,28997,38,97152,65728,6,6,4,1460,119375,1,16778208,360000,66348,63452,65700,0,26064,0,3786015654,63
i,1723545723.365107,172.16.3.2,47412,172.16.1.2,5101,7500,28997,38,97152,65728,6,6,4,1460,119375,1,16778208,360000,66348,63452,65700,0,28960,0,3786015654,63
o,1723545723.365143,172.16.3.2,47412,172.16.1.2,5101,7500,28997,38,95680,65728,6,6,4,1460,122187,1,16778208,380000,66348,60556,65700,0,26064,0,3786015654,63
i,1723545723.365327,172.16.3.2,47412,172.16.1.2,5101,7500,28997,38,95680,65728,6,6,4,1460,122187,1,16778208,380000,66348,60556,65700,0,28960,0,3786015654,63
o,1723545723.365343,172.16.3.2,47412,172.16.1.2,5101,7500,28997,38,97152,65728,6,6,4,1460,124687,1,16778208,380000,66348,57660,65700,0,26064,0,3786015654,63
i,1723545723.365471,172.16.3.2,47412,172.16.1.2,5101,7500,28997,38,97152,65728,6,6,4,1460,124687,1,16778208,380000,66348,57660,65700,0,28960,0,3786015654,63
o,1723545723.365487,172.16.3.2,47412,172.16.1.2,5101,7500,28997,38,97152,65728,6,6,4,1460,126875,1,16778208,390000,66348,54764,65700,0,26064,0,3786015654,63
i,1723545723.366374,172.16.3.2,47412,172.16.1.2,5101,7500,28997,38,97152,65728,6,6,4,1460,126875,1,16778208,390000,66348,66348,65700,0,28960,0,3786015654,63
o,1723545723.366448,172.16.3.2,47412,172.16.1.2,5101,7500,28997,38,94272,65728,6,6,4,1460,126250,1,16778208,380000,66348,63452,65700,0,26064,0,3786015654,63
i,1723545723.366595,172.16.3.2,47412,172.16.1.2,5101,7500,28997,38,94272,65728,6,6,4,1460,126250,1,16778208,380000,66348,63452,65700,0,28960,0,3786015654,63
o,1723545723.366614,172.16.3.2,47412,172.16.1.2,5101,7500,28997,38,97152,65728,6,6,4,1460,125625,1,16778208,370000,66348,60556,65700,0,26064,0,3786015654,63
i,1723545723.377020,172.16.3.2,47412,172.16.1.2,5101,7500,28997,38,97152,65728,6,6,4,1460,125625,1,16778208,370000,66348,66348,65700,0,28960,0,3786015654,63
o,1723545723.377049,172.16.3.2,47412,172.16.1.2,5101,7500,28997,38,95680,65728,6,6,4,1460,123750,1,16778208,370000,66348,63452,65700,0,26064,0,3786015654,63
o,1723545723.377240,172.16.3.2,47412,172.16.1.2,5101,7500,28997,38,95680,65728,6,6,4,1460,123750,1,16778208,370000,66348,63452,65700,0,27512,0,3786015654,63
i,1723545723.377421,172.16.3.2,47412,172.16.1.2,5101,7500,28997,38,95680,65728,6,6,4,1460,123750,1,16778208,370000,66348,63452,65700,0,28960,0,3786015654,63
o,1723545723.377441,172.16.3.2,47412,172.16.1.2,5101,7500,28997,38,95680,65728,6,6,4,1460,122187,1,16778208,370000,66348,60556,65700,0,26064,0,3786015654,63
i,1723545723.418204,172.16.3.2,47412,172.16.1.2,5101,7500,28997,38,95680,65728,6,6,4,1460,122187,1,16778208,370000,66348,66348,65700,0,28960,0,3786015654,63
o,1723545723.418247,172.16.3.2,47412,172.16.1.2,5101,7500,28997,38,95680,65728,6,6,4,1460,123437,1,16778208,370000,66348,63452,65700,0,26064,0,3786015654,63
i,1723545723.418449,172.16.3.2,47412,172.16.1.2,5101,7500,28997,38,95680,65728,6,6,4,1460,123437,1,16778208,370000,66348,63452,65700,0,28960,0,3786015654,63
o,1723545723.418468,172.16.3.2,47412,172.16.1.2,5101,7500,28997,38,95680,65728,6,6,4,1460,124375,1,16778208,360000,66348,60556,65700,0,26064,0,3786015654,63
i,1723545723.487989,172.16.3.2,47412,172.16.1.2,5101,7500,28997,38,95680,65728,6,6,4,1460,124375,1,16778208,360000,66348,66348,65700,0,28960,0,3786015654,63
o,1723545723.488022,172.16.3.2,47412,172.16.1.2,5101,7500,28997,38,95680,65728,6,6,4,1460,124062,1,16778208,360000,66348,63452,65700,0,26064,0,3786015654,63
i,1723545723.488187,172.16.3.2,47412,172.16.1.2,5101,7500,28997,38,95680,65728,6,6,4,1460,124062,1,16778208,360000,66348,63452,65700,0,28960,0,3786015654,63
o,1723545723.488205,172.16.3.2,47412,172.16.1.2,5101,7500,28997,38,92800,65728,6,6,4,1460,123750,1,16778208,350000,66348,60556,65700,0,26064,0,3786015654,63
i,1723545723.488402,172.16.3.2,47412,172.16.1.2,5101,7500,28997,38,92800,65728,6,6,4,1460,123750,1,16778208,350000,66348,60556,65700,0,28960,0,3786015654,63
o,1723545723.488418,172.16.3.2,47412,172.16.1.2,5101,7500,28997,38,95680,65728,6,6,4,1460,123437,1,16778208,350000,66348,57660,65700,0,26064,0,3786015654,63
i,1723545723.497295,172.16.3.2,47412,172.16.1.2,5101,7500,28997,38,95680,65728,6,6,4,1460,123437,1,16778208,350000,66348,66348,65700,0,28960,0,3786015654,63
o,1723545723.497325,172.16.3.2,47412,172.16.1.2,5101,7500,28997,38,95680,65728,6,6,4,1460,124375,1,16778208,350000,66348,63452,65700,0,26064,0,3786015654,63
i,1723545723.497485,172.16.3.2,47412,172.16.1.2,5101,7500,28997,38,95680,65728,6,6,4,1460,124375,1,16778208,350000,66348,63452,65700,0,28960,0,3786015654,63
o,1723545723.497508,172.16.3.2,47412,172.16.1.2,5101,7500,28997,38,92800,65728,6,6,4,1460,125312,1,16778208,350000,66348,60556,65700,0,26064,0,3786015654,63
i,1723545723.497765,172.16.3.2,47412,172.16.1.2,5101,7500,28997,38,92800,65728,6,6,4,1460,125312,1,16778208,350000,66348,60556,65700,0,28960,0,3786015654,63
o,1723545723.497785,172.16.3.2,47412,172.16.1.2,5101,7500,28997,38,95680,65728,6,6,4,1460,125937,1,16778208,350000,66348,57660,65700,0,26064,0,3786015654,63
i,1723545723.499284,172.16.3.2,47412,172.16.1.2,5101,7500,28997,38,95680,65728,6,6,4,1460,125937,1,16778208,350000,66348,66348,65700,0,28960,0,3786015654,63
o,1723545723.499313,172.16.3.2,47412,172.16.1.2,5101,7500,28997,38,97152,65728,6,6,4,1460,125312,1,16778208,350000,66348,63452,65700,0,26064,0,3786015654,63
