enable_time_secs=1723545542	enable_time_usecs=389777	siftrver=1.3.0	sysname=FreeBSD	sysver=1401000	ipmode=4
o,1723545542.390155,10.0.2.15,22,10.0.2.2,52292,1073725440,17746,1026,65535,65700,0,0,4,1460,312,0,16777220,240000,33580,172,65700,0,0,0,2862440660,63
o,1723545542.390691,10.0.2.15,22,10.0.2.2,52292,1073725440,17746,1026,65535,65700,0,0,4,1460,312,0,16777220,240000,33580,244,65700,0,172,0,2862440660,63
i,1723545542.392078,10.0.2.15,22,10.0.2.2,52292,1073725440,17746,1026,65535,65700,0,0,4,1460,312,0,16777220,240000,33580,244,65700,0,244,0,2862440660,63
i,1723545542.392096,10.0.2.15,22,10.0.2.2,52292,1073725440,17918,1026,65535,65700,0,0,4,1460,312,0,4,240000,33580,72,65700,0,72,0,2862440660,63
i,1723545542.392159,10.0.2.15,22,10.0.2.2,52292,1073725440,17990,1026,65535,65700,0,0,4,1460,312,0,4,240000,33580,0,65700,0,0,0,2862440660,63
i,1723545542.392250,10.0.2.15,22,10.0.2.2,52292,1073725440,17990,1026,65535,65700,0,0,4,1460,312,0,4,240000,33580,0,65700,96,0,0,2862440660,63
o,1723545542.392281,10.0.2.15,22,10.0.2.2,52292,1073725440,17990,1026,65535,65604,0,0,5,1460,312,0,5,240000,33580,0,65700,96,0,0,2862440660,63
o,1723545542.393409,10.0.2.15,22,10.0.2.2,52292,1073725440,17990,1026,65535,65604,0,0,8,1460,312,0,4,240000,33580,0,65700,0,0,0,2862440660,63
i,1723545542.394321,10.0.2.15,22,10.0.2.2,52292,1073725440,17990,1026,65535,65604,0,0,8,1460,312,0,67108884,240000,33580,0,65700,0,1,0,2862440660,63
i,1723545544.716477,10.0.2.15,22,10.0.2.2,52300,1073725440,14600,0,65535,65700,0,0,4,1460,312,0,16777216,270000,33580,0,65700,0,0,0,2124896303,63
o,1723545544.727153,10.0.2.15,22,10.0.2.2,52300,1073725440,14600,1026,65535,65700,0,0,4,1460,312,0,16777216,270000,33580,38,65700,42,0,0,2124896303,63
i,1723545544.727944,10.0.2.15,22,10.0.2.2,52300,1073725440,14600,1026,65535,65700,0,0,4,1460,312,0,16777216,270000,33580,38,65700,0,38,0,2124896303,63
i,1723545544.728024,10.0.2.15,22,10.0.2.2,52300,1073725440,14638,1026,65535,65700,0,0,4,1460,312,0,0,240000,33580,0,65700,0,0,0,2124896303,63
i,1723545544.728089,10.0.2.15,22,10.0.2.2,52300,1073725440,14638,1026,65535,65700,0,0,4,1460,312,0,0,240000,33580,0,65700,1460,0,0,2124896303,63
o,1723545544.728107,10.0.2.15,22,10.0.2.2,52300,1073725440,14638,1026,65535,65700,0,0,4,1460,312,0,1,240000,33580,0,65700,1536,0,0,2124896303,63
o,1723545544.729904,10.0.2.15,22,10.0.2.2,52300,1073725440,14638,1026,65535,65700,0,0,4,1460,312,0,16777216,240000,33580,1120,65700,1536,0,0,2124896303,63
i,1723545544.733123,10.0.2.15,22,10.0.2.2,52300,1073725440,14638,1026,65535,65700,0,0,4,1460,312,0,16777216,240000,33580,1120,65700,0,1120,0,2124896303,63
i,1723545544.733919,10.0.2.15,22,10.0.2.2,52300,1073725440,15758,1026,65535,65700,0,0,4,1460,312,0,0,230000,33580,0,65700,0,0,0,2124896303,63
o,1723545544.737577,10.0.2.15,22,10.0.2.2,52300,1073725440,15758,1026,65535,65700,0,0,4,1460,312,0,16777216,230000,33580,492,65700,0,0,0,2124896303,63
i,1723545544.738795,10.0.2.15,22,10.0.2.2,52300,1073725440,15758,1026,65535,65700,0,0,4,1460,312,0,16777216,230000,33580,492,65700,0,492,0,2124896303,63
i,1723545544.742529,10.0.2.15,22,10.0.2.2,52300,1073725440,16250,1026,65535,65700,0,0,4,1460,312,0,0,230000,33580,0,65700,0,0,0,2124896303,63
i,1723545544.742529,10.0.2.15,22,10.0.2.2,52300,1073725440,16250,1026,65535,65700,0,0,4,1460,312,0,0,230000,33580,0,65700,16,0,0,2124896303,63
o,1723545544.742529,10.0.2.15,22,10.0.2.2,52300,1073725440,16250,1026,65535,65700,0,0,4,1460,312,0,1,230000,33580,0,65700,60,0,0,2124896303,63
o,1723545544.742529,10.0.2.15,22,10.0.2.2,52300,1073725440,16250,1026,65535,65700,0,0,4,1460,312,0,16777216,230000,33580,44,65700,0,0,0,2124896303,63
i,1723545544.743908,10.0.2.15,22,10.0.2.2,52300,1073725440,16250,1026,65535,65700,0,0,4,1460,312,0,16777216,230000,33580,44,65700,0,44,0,2124896303,63
i,1723545544.743925,10.0.2.15,22,10.0.2.2,52300,1073725440,16294,1026,65535,65700,0,0,4,1460,312,0,0,230000,33580,0,65700,0,0,0,2124896303,63
o,1723545544.745658,10.0.2.15,22,10.0.2.2,52300,1073725440,16294,1026,65535,65700,0,0,4,1460,312,0,16777216,230000,33580,68,65700,0,0,0,2124896303,63
i,1723545544.746266,10.0.2.15,22,10.0.2.2,52300,1073725440,16294,1026,65535,65700,0,0,4,1460,312,0,16777216,230000,33580,68,65700,0,68,0,2124896303,63
i,1723545544.746294,10.0.2.15,22,10.0.2.2,52300,1073725440,16362,1026,65535,65700,0,0,4,1460,312,0,0,230000,33580,0,65700,0,0,0,2124896303,63
o,1723545544.747827,10.0.2.15,22,10.0.2.2,52300,1073725440,16362,1026,65535,65700,0,0,4,1460,312,0,16777216,230000,33580,332,65700,0,0,0,2124896303,63
i,1723545544.748692,10.0.2.15,22,10.0.2.2,52300,1073725440,16362,1026,65535,65700,0,0,4,1460,312,0,16777216,230000,33580,332,65700,0,332,0,2124896303,63
i,1723545544.750148,10.0.2.15,22,10.0.2.2,52300,1073725440,16694,1026,65535,65700,0,0,4,1460,312,0,0,230000,33580,0,65700,0,0,0,2124896303,63
o,1723545544.768029,10.0.2.15,22,10.0.2.2,52300,1073725440,16694,1026,65535,65700,0,0,4,1460,312,0,16777216,230000,33580,28,65700,0,0,0,2124896303,63
i,1723545544.769012,10.0.2.15,22,10.0.2.2,52300,1073725440,16694,1026,65535,65700,0,0,4,1460,312,0,16777216,230000,33580,28,65700,0,28,0,2124896303,63
i,1723545544.769113,10.0.2.15,22,10.0.2.2,52300,1073725440,16722,1026,65535,65700,0,0,4,1460,312,0,0,230000,33580,0,65700,0,0,0,2124896303,63
o,1723545544.771256,10.0.2.15,22,10.0.2.2,52300,1073725440,16722,1026,65535,65700,0,0,4,1460,312,0,16777216,230000,33580,768,65700,112,0,0,2124896303,63
i,1723545544.772203,10.0.2.15,22,10.0.2.2,52300,1073725440,16722,1026,65535,65700,0,0,4,1460,312,0,16777216,230000,33580,908,65700,112,768,0,2124896303,63
o,1723545544.772229,10.0.2.15,22,10.0.2.2,52300,1073725440,17490,1026,65535,65700,0,0,4,1460,312,0,16777216,230000,33580,140,65700,112,0,0,2124896303,63
i,1723545544.773229,10.0.2.15,22,10.0.2.2,52300,1073725440,17490,1026,65535,65700,0,0,4,1460,312,0,16777216,230000,33580,140,65700,112,140,0,2124896303,63
o,1723545544.773916,10.0.2.15,22,10.0.2.2,52300,1073725440,17630,1026,65535,65700,0,0,4,1460,312,0,16777216,230000,33580,44,65700,0,0,0,2124896303,63
i,1723545544.775409,10.0.2.15,22,10.0.2.2,52300,1073725440,17630,1026,65535,65700,0,0,4,1460,312,0,16777216,230000,33580,44,65700,0,44,0,2124896303,63
i,1723545544.775429,10.0.2.15,22,10.0.2.2,52300,1073725440,17674,1026,65535,65700,0,0,4,1460,312,0,0,230000,33580,0,65700,0,0,0,2124896303,63
o,1723545544.776114,10.0.2.15,22,10.0.2.2,52300,1073725440,17674,1026,65535,65700,0,0,4,1460,312,0,16777220,230000,33580,72,65700,0,0,0,2124896303,63
i,1723545544.776648,10.0.2.15,22,10.0.2.2,52300,1073725440,17674,1026,65535,65700,0,0,4,1460,312,0,16777220,230000,33580,72,65700,0,72,0,2124896303,63
o,1723545544.783451,10.0.2.15,22,10.0.2.2,52300,1073725440,17746,1026,65535,65700,0,0,4,1460,312,0,16777220,230000,33580,104,65700,0,0,0,2124896303,63
i,1723545544.784168,10.0.2.15,22,10.0.2.2,52300,1073725440,17746,1026,65535,65700,0,0,4,1460,312,0,16777220,230000,33580,104,65700,0,104,0,2124896303,63
o,1723545544.784521,10.0.2.15,22,10.0.2.2,52300,1073725440,17850,1026,65535,65700,0,0,4,1460,312,0,16777220,230000,33580,72,65700,0,0,0,2124896303,63
i,1723545544.785025,10.0.2.15,22,10.0.2.2,52300,1073725440,17850,1026,65535,65700,0,0,4,1460,312,0,16777220,230000,33580,72,65700,0,72,0,2124896303,63
i,1723545544.785051,10.0.2.15,22,10.0.2.2,52300,1073725440,17922,1026,65535,65700,0,0,4,1460,312,0,4,240000,33580,0,65700,0,0,0,2124896303,63
i,1723545544.785504,10.0.2.15,22,10.0.2.2,52300,1073725440,17922,1026,65535,65700,0,0,4,1460,312,0,4,240000,33580,0,65700,96,0,0,2124896303,63
o,1723545544.785525,10.0.2.15,22,10.0.2.2,52300,1073725440,17922,1026,65535,65604,0,0,5,1460,312,0,5,240000,33580,0,65700,96,0,0,2124896303,63
o,1723545544.786448,10.0.2.15,22,10.0.2.2,52300,1073725440,17922,1026,65535,65604,0,0,8,1460,312,0,4,240000,33580,0,65700,0,0,0,2124896303,63
i,1723545544.787142,10.0.2.15,22,10.0.2.2,52300,1073725440,17922,1026,65535,65604,0,0,8,1460,312,0,67108884,240000,33580,0,65700,0,1,0,2124896303,63
i,1723545546.931658,10.0.2.15,22,10.0.2.2,52314,1073725440,14600,0,65535,65700,0,0,4,1460,312,0,16777216,270000,33580,0,65700,0,0,0,1814484552,63
o,1723545546.948574,10.0.2.15,22,10.0.2.2,52314,1073725440,14600,1026,65535,65700,0,0,4,1460,312,0,16777216,270000,33580,38,65700,42,0,0,1814484552,63
i,1723545546.949100,10.0.2.15,22,10.0.2.2,52314,1073725440,14600,1026,65535,65700,0,0,4,1460,312,0,16777216,270000,33580,38,65700,0,38,0,1814484552,63
i,1723545546.949576,10.0.2.15,22,10.0.2.2,52314,1073725440,14638,1026,65535,65700,0,0,4,1460,312,0,0,240000,33580,0,65700,0,0,0,1814484552,63
i,1723545546.949592,10.0.2.15,22,10.0.2.2,52314,1073725440,14638,1026,65535,65700,0,0,4,1460,312,0,0,240000,33580,0,65700,1460,0,0,1814484552,63
o,1723545546.949610,10.0.2.15,22,10.0.2.2,52314,1073725440,14638,1026,65535,65700,0,0,4,1460,312,0,1,240000,33580,0,65700,1536,0,0,1814484552,63
o,1723545546.950637,10.0.2.15,22,10.0.2.2,52314,1073725440,14638,1026,65535,65700,0,0,4,1460,312,0,16777216,240000,33580,1120,65700,1536,0,0,1814484552,63
i,1723545546.951757,10.0.2.15,22,10.0.2.2,52314,1073725440,14638,1026,65535,65700,0,0,4,1460,312,0,16777216,240000,33580,1120,65700,0,1120,0,1814484552,63
i,1723545546.953360,10.0.2.15,22,10.0.2.2,52314,1073725440,15758,1026,65535,65700,0,0,4,1460,312,0,0,240000,33580,0,65700,0,0,0,1814484552,63
o,1723545546.957592,10.0.2.15,22,10.0.2.2,52314,1073725440,15758,1026,65535,65700,0,0,4,1460,312,0,16777216,240000,33580,492,65700,0,0,0,1814484552,63
i,1723545546.958118,10.0.2.15,22,10.0.2.2,52314,1073725440,15758,1026,65535,65700,0,0,4,1460,312,0,16777216,240000,33580,492,65700,0,492,0,1814484552,63
i,1723545546.961507,10.0.2.15,22,10.0.2.2,52314,1073725440,16250,1026,65535,65700,0,0,4,1460,312,0,0,240000,33580,0,65700,0,0,0,1814484552,63
i,1723545546.961573,10.0.2.15,22,10.0.2.2,52314,1073725440,16250,1026,65535,65700,0,0,4,1460,312,0,0,240000,33580,0,65700,16,0,0,1814484552,63
o,1723545546.961652,10.0.2.15,22,10.0.2.2,52314,1073725440,16250,1026,65535,65700,0,0,4,1460,312,0,1,240000,33580,0,65700,60,0,0,1814484552,63
o,1723545546.961980,10.0.2.15,22,10.0.2.2,52314,1073725440,16250,1026,65535,65700,0,0,4,1460,312,0,16777216,240000,33580,44,65700,0,0,0,1814484552,63
i,1723545546.963166,10.0.2.15,22,10.0.2.2,52314,1073725440,16250,1026,65535,65700,0,0,4,1460,312,0,16777216,240000,33580,44,65700,0,44,0,1814484552,63
i,1723545546.963206,10.0.2.15,22,10.0.2.2,52314,1073725440,16294,1026,65535,65700,0,0,4,1460,312,0,0,230000,33580,0,65700,0,0,0,1814484552,63
o,1723545546.965155,10.0.2.15,22,10.0.2.2,52314,1073725440,16294,1026,65535,65700,0,0,4,1460,312,0,16777216,230000,33580,68,65700,0,0,0,1814484552,63
i,1723545546.965691,10.0.2.15,22,10.0.2.2,52314,1073725440,16294,1026,65535,65700,0,0,4,1460,312,0,16777216,230000,33580,68,65700,0,68,0,1814484552,63
i,1723545546.965726,10.0.2.15,22,10.0.2.2,52314,1073725440,16362,1026,65535,65700,0,0,4,1460,312,0,0,230000,33580,0,65700,0,0,0,1814484552,63
o,1723545546.967891,10.0.2.15,22,10.0.2.2,52314,1073725440,16362,1026,65535,65700,0,0,4,1460,312,0,16777216,230000,33580,332,65700,0,0,0,1814484552,63
i,1723545546.968704,10.0.2.15,22,10.0.2.2,52314,1073725440,16362,1026,65535,65700,0,0,4,1460,312,0,16777216,230000,33580,332,65700,0,332,0,1814484552,63
i,1723545546.970072,10.0.2.15,22,10.0.2.2,52314,1073725440,16694,1026,65535,65700,0,0,4,1460,312,0,0,230000,33580,0,65700,0,0,0,1814484552,63
o,1723545546.986868,10.0.2.15,22,10.0.2.2,52314,1073725440,16694,1026,65535,65700,0,0,4,1460,312,0,16777216,230000,33580,28,65700,0,0,0,1814484552,63
i,1723545546.988560,10.0.2.15,22,10.0.2.2,52314,1073725440,16694,1026,65535,65700,0,0,4,1460,312,0,16777216,230000,33580,28,65700,0,28,0,1814484552,63
i,1723545546.989139,10.0.2.15,22,10.0.2.2,52314,1073725440,16722,1026,65535,65700,0,0,4,1460,312,0,0,230000,33580,0,65700,0,0,0,1814484552,63
o,1723545546.990817,10.0.2.15,22,10.0.2.2,52314,1073725440,16722,1026,65535,65700,0,0,4,1460,312,0,16777216,230000,33580,768,65700,112,0,0,1814484552,63
i,1723545546.991624,10.0.2.15,22,10.0.2.2,52314,1073725440,16722,1026,65535,65700,0,0,4,1460,312,0,16777216,230000,33580,908,65700,112,768,0,1814484552,63
o,1723545546.991651,10.0.2.15,22,10.0.2.2,52314,1073725440,17490,1026,65535,65700,0,0,4,1460,312,0,16777216,240000,33580,140,65700,112,0,0,1814484552,63
i,1723545546.992054,10.0.2.15,22,10.0.2.2,52314,1073725440,17490,1026,65535,65700,0,0,4,1460,312,0,16777216,240000,33580,140,65700,112,140,0,1814484552,63
o,1723545546.992795,10.0.2.15,22,10.0.2.2,52314,1073725440,17630,1026,65535,65700,0,0,4,1460,312,0,16777216,240000,33580,44,65700,0,0,0,1814484552,63
i,1723545546.993255,10.0.2.15,22,10.0.2.2,52314,1073725440,17630,1026,65535,65700,0,0,4,1460,312,0,16777216,240000,33580,44,65700,0,44,0,1814484552,63
i,1723545546.993271,10.0.2.15,22,10.0.2.2,52314,1073725440,17674,1026,65535,65700,0,0,4,1460,312,0,0,230000,33580,0,65700,0,0,0,1814484552,63
o,1723545546.994917,10.0.2.15,22,10.0.2.2,52314,1073725440,17674,1026,65535,65700,0,0,4,1460,312,0,16777220,230000,33580,72,65700,0,0,0,1814484552,63
i,1723545546.995487,10.0.2.15,22,10.0.2.2,52314,1073725440,17674,1026,65535,65700,0,0,4,1460,312,0,16777220,230000,33580,72,65700,0,72,0,1814484552,63
i,1723545546.995504,10.0.2.15,22,10.0.2.2,52314,1073725440,17746,1026,65535,65700,0,0,4,1460,312,0,4,230000,33580,0,65700,0,0,0,1814484552,63
o,1723545547.034848,10.0.2.15,22,10.0.2.2,52314,1073725440,17746,1026,65535,65700,0,0,4,1460,312,0,5,230000,33580,0,65700,0,0,0,1814484552,63
o,1723545547.176962,172.16.3.2,19486,172.16.1.2,5101,1073725440,14480,34,65535,65700,6,6,4,1460,170000,1,16778209,710000,33580,0,65700,0,0,0,2488834347,63
o,1723545547.177837,172.16.3.2,19486,172.16.1.2,5101,1073725440,14480,34,65535,65700,6,6,4,1460,170000,1,16778212,710000,33580,37,65700,0,0,0,2488834347,63
i,1723545547.305442,172.16.3.2,19486,172.16.1.2,5101,1073725440,14480,34,65535,65700,6,6,4,1460,170000,1,16778212,710000,33580,37,65700,0,37,0,2488834347,63
o,1723545547.305673,172.16.3.2,19486,172.16.1.2,5101,1073725440,14517,1058,65728,65728,6,6,4,1460,163750,1,16778212,660000,33580,4,65700,0,0,0,2488834347,63
o,1723545547.305936,172.16.3.2,19486,172.16.1.2,5101,1073725440,14517,1058,65728,65728,6,6,4,1460,163750,1,16778212,660000,33580,130,65700,0,4,0,2488834347,63
i,1723545547.419873,172.16.3.2,19486,172.16.1.2,5101,1073725440,14517,1058,65728,65728,6,6,4,1460,163750,1,16778212,660000,33580,130,65700,0,130,0,2488834347,63
i,1723545547.419925,172.16.3.2,19486,172.16.1.2,5101,1073725440,14647,1058,65600,65728,6,6,4,1460,157187,1,996,630000,33580,0,65700,0,0,0,2488834347,63
o,1723545547.455158,172.16.3.2,19486,172.16.1.2,5101,1073725440,14647,1058,65728,65728,6,6,4,1460,157187,1,997,630000,33580,0,65700,0,0,0,2488834347,63
o,1723545547.539520,172.16.3.2,33156,172.16.1.2,5101,1073725440,14480,34,65535,65700,6,6,4,1460,130000,1,16778209,590000,33580,0,65700,0,0,0,1004916541,63
o,1723545547.539755,172.16.3.2,33156,172.16.1.2,5101,1073725440,14480,34,65535,65700,6,6,4,1460,130000,1,16778208,590000,33580,37,65700,0,0,0,1004916541,63
i,1723545547.658570,172.16.3.2,19486,172.16.1.2,5101,1073725440,14647,1058,65728,65728,6,6,4,1460,157187,1,996,630000,33580,0,65700,0,0,0,2488834347,63
i,1723545547.658643,172.16.3.2,19486,172.16.1.2,5101,1073725440,14647,1058,65728,65728,6,6,4,1460,157187,1,996,630000,33580,0,65700,1,0,0,2488834347,63
o,1723545547.658675,172.16.3.2,19486,172.16.1.2,5101,1073725440,14647,1058,65728,65728,6,6,4,1460,157187,1,997,630000,33580,0,65700,2,0,0,2488834347,63
o,1723545547.659258,172.16.3.2,33156,172.16.1.2,5101,1073725440,14480,38,65535,65700,6,6,4,1460,130000,1,16778208,590000,33580,33580,65700,0,37,0,1004916541,63
i,1723545547.688707,172.16.3.2,33156,172.16.1.2,5101,1073725440,14480,38,65535,65700,6,6,4,1460,130000,1,16778208,590000,33580,33580,65700,0,13069,0,1004916541,63
o,1723545547.688791,172.16.3.2,33156,172.16.1.2,5101,1073725440,14517,38,65728,65728,6,6,4,1460,132500,1,16778208,540000,33580,33543,65700,0,13032,0,1004916541,63
i,1723545548.018900,172.16.3.2,33156,172.16.1.2,5101,1073725440,14517,38,65728,65728,6,6,4,1460,132500,1,16778208,540000,33580,33543,65700,0,14480,0,1004916541,63
o,1723545548.018965,172.16.3.2,33156,172.16.1.2,5101,7258,14480,38,64256,65728,6,6,4,1460,160937,1,553649120,750000,33580,30647,65700,0,11584,0,1004916541,63
i,1723545548.067460,172.16.3.2,33156,172.16.1.2,5101,7258,14480,38,64256,65728,6,6,4,1460,160937,1,553649120,750000,33580,33580,65700,0,14480,0,1004916541,63
o,1723545548.067582,172.16.3.2,33156,172.16.1.2,5101,7258,13032,34,64256,65728,6,6,4,1460,192187,1,553649120,930000,33580,30684,65700,0,11584,0,1004916541,63
i,1723545548.117162,172.16.3.2,33156,172.16.1.2,5101,7258,13032,34,64256,65728,6,6,4,1460,192187,1,553649120,930000,33580,33580,65700,0,13032,0,1004916541,63
o,1723545548.117269,172.16.3.2,33156,172.16.1.2,5101,7258,11584,34,64256,65728,6,6,4,1460,224687,1,553649120,1090000,33580,30684,65700,0,10136,0,1004916541,63
i,1723545548.168636,172.16.3.2,33156,172.16.1.2,5101,7258,11584,34,64256,65728,6,6,4,1460,224687,1,553649120,1090000,33580,33580,65700,0,11584,0,1004916541,63
o,1723545548.168715,172.16.3.2,33156,172.16.1.2,5101,7258,10136,34,64256,65728,6,6,4,1460,260625,1,553649120,1250000,33580,30684,65700,0,8688,0,1004916541,63
i,1723545548.219831,172.16.3.2,33156,172.16.1.2,5101,7258,10136,34,64256,65728,6,6,4,1460,260625,1,553649120,1250000,33580,33580,65700,0,10136,0,1004916541,63
o,1723545548.219910,172.16.3.2,33156,172.16.1.2,5101,7258,8688,34,64256,65728,6,6,4,1460,298125,1,553649120,1390000,33580,30684,65700,0,7240,0,1004916541,63
i,1723545548.368120,172.16.3.2,33156,172.16.1.2,5101,7258,8688,34,64256,65728,6,6,4,1460,298125,1,553649120,1390000,33580,33580,65700,0,8688,0,1004916541,63
i,1723545548.397059,172.16.3.2,33156,172.16.1.2,5101,5149,7240,98,65728,65728,6,6,4,1460,303437,1,553649120,1210000,33580,32132,65700,0,7240,0,1004916541,63
i,1723545548.467597,172.16.3.2,33156,172.16.1.2,5101,5149,5792,98,65728,65728,6,6,4,1460,311875,1,553649120,1110000,33580,33580,65700,0,5792,0,1004916541,63
i,1723545548.518666,172.16.3.2,33156,172.16.1.2,5101,5149,2896,98,64256,65728,6,6,4,1460,323125,1,553649120,1060000,33580,33580,65700,0,2896,0,1004916541,63
o,1723545548.518692,172.16.3.2,33156,172.16.1.2,5101,5149,1448,34,64256,65728,6,6,4,1460,326562,1,553649120,960000,33580,30684,65700,0,0,0,1004916541,63
i,1723545548.668214,172.16.3.2,33156,172.16.1.2,5101,5149,1448,34,64256,65728,6,6,4,1460,326562,1,553649120,960000,33580,33580,65700,0,1448,0,1004916541,63
o,1723545548.668298,172.16.3.2,33156,172.16.1.2,5101,5149,1448,34,65728,65728,6,6,4,1460,303437,1,16778208,1010000,33580,32132,65700,0,0,0,1004916541,63
i,1723545548.865006,172.16.3.2,33156,172.16.1.2,5101,5149,1448,34,65728,65728,6,6,4,1460,303437,1,16778208,1010000,33580,32132,65700,0,1448,0,1004916541,63
o,1723545548.865166,172.16.3.2,33156,172.16.1.2,5101,5149,2896,38,65728,65728,6,6,4,1460,290625,1,16778208,970000,33580,30684,65700,0,0,0,1004916541,63
o,1723545548.865425,172.16.3.2,33156,172.16.1.2,5101,5149,2896,34,65728,65728,6,6,4,1460,290625,1,16778208,970000,33580,30684,65700,0,1448,0,1004916541,63
i,1723545549.039109,172.16.3.2,33156,172.16.1.2,5101,5149,2896,34,65728,65728,6,6,4,1460,290625,1,16778208,970000,33580,33580,65700,0,2896,0,1004916541,63
o,1723545549.039229,172.16.3.2,33156,172.16.1.2,5101,5149,5792,38,64256,65728,6,6,4,1460,275625,1,16778208,960000,33580,30684,65700,0,0,0,1004916541,63
o,1723545549.039396,172.16.3.2,33156,172.16.1.2,5101,5149,5792,38,64256,65728,6,6,4,1460,275625,1,16778208,960000,33580,30684,65700,0,1448,0,1004916541,63
i,1723545549.257276,172.16.3.2,33156,172.16.1.2,5101,5149,5792,38,64256,65728,6,6,4,1460,275625,1,16778208,960000,33580,33580,65700,0,5792,0,1004916541,63
o,1723545549.257309,172.16.3.2,33156,172.16.1.2,5101,5149,5904,38,64256,65728,6,6,4,1460,267500,1,16778208,900000,33580,30684,65700,0,2896,0,1004916541,63
o,1723545549.257453,172.16.3.2,33156,172.16.1.2,5101,5149,5904,38,64256,65728,6,6,4,1460,267500,1,16778208,900000,33580,30684,65700,0,4344,0,1004916541,63
i,1723545549.325487,172.16.3.2,33156,172.16.1.2,5101,5149,5904,38,64256,65728,6,6,4,1460,267500,1,16778208,900000,33580,33580,65700,0,5792,0,1004916541,63
o,1723545549.325594,172.16.3.2,33156,172.16.1.2,5101,5149,5904,38,64256,65728,6,6,4,1460,269062,1,16778208,800000,33580,30684,65700,0,2896,0,1004916541,63
i,1723545549.430316,172.16.3.2,33156,172.16.1.2,5101,5149,5904,38,64256,65728,6,6,4,1460,269062,1,16778208,800000,33580,33580,65700,0,5792,0,1004916541,63
o,1723545549.430414,172.16.3.2,33156,172.16.1.2,5101,5149,5904,38,64256,65728,6,6,4,1460,256875,1,16778208,800000,33580,30684,65700,0,2896,0,1004916541,63
o,1723545549.430602,172.16.3.2,33156,172.16.1.2,5101,5149,5904,38,64256,65728,6,6,4,1460,256875,1,16778208,800000,33580,30684,65700,0,4344,0,1004916541,63
i,1723545549.514207,172.16.3.2,33156,172.16.1.2,5101,5149,5904,38,64256,65728,6,6,4,1460,256875,1,16778208,800000,33580,33580,65700,0,5792,0,1004916541,63
o,1723545549.514293,172.16.3.2,33156,172.16.1.2,5101,5149,5904,38,64256,65728,6,6,4,1460,248750,1,16778208,770000,33580,30684,65700,0,2896,0,1004916541,63
i,1723545549.607217,172.16.3.2,33156,172.16.1.2,5101,5149,5904,38,64256,65728,6,6,4,1460,248750,1,16778208,770000,33580,33580,65700,0,5792,0,1004916541,63
o,1723545549.607327,172.16.3.2,33156,172.16.1.2,5101,5149,6014,38,64256,65728,6,6,4,1460,240312,1,16778208,750000,33580,30684,65700,0,2896,0,1004916541,63
o,1723545549.607495,172.16.3.2,33156,172.16.1.2,5101,5149,6014,38,64256,65728,6,6,4,1460,240312,1,16778208,750000,33580,30684,65700,0,4344,0,1004916541,63
i,1723545549.697528,172.16.3.2,33156,172.16.1.2,5101,5149,6014,38,64256,65728,6,6,4,1460,240312,1,16778208,750000,33580,33580,65700,0,5792,0,1004916541,63
o,1723545549.697562,172.16.3.2,33156,172.16.1.2,5101,5149,6236,38,64256,65728,6,6,4,1460,232812,1,16778208,730000,33580,30684,65700,0,2896,0,1004916541,63
i,1723545549.807945,172.16.3.2,33156,172.16.1.2,5101,5149,6236,38,64256,65728,6,6,4,1460,232812,1,16778208,730000,33580,33580,65700,0,5792,0,1004916541,63
o,1723545549.807988,172.16.3.2,33156,172.16.1.2,5101,5149,6508,38,64256,65728,6,6,4,1460,228750,1,16778208,680000,33580,30684,65700,0,2896,0,1004916541,63
o,1723545549.808357,172.16.3.2,33156,172.16.1.2,5101,5149,6508,38,64256,65728,6,6,4,1460,228750,1,16778208,680000,33580,30684,65700,0,4344,0,1004916541,63
i,1723545549.918580,172.16.3.2,33156,172.16.1.2,5101,5149,6508,38,64256,65728,6,6,4,1460,228750,1,16778208,680000,33580,33580,65700,0,5792,0,1004916541,63
o,1723545549.918660,172.16.3.2,33156,172.16.1.2,5101,5149,6780,38,64256,65728,6,6,4,1460,227812,1,16778208,630000,33580,30684,65700,0,2896,0,1004916541,63
i,1723545549.997791,172.16.3.2,33156,172.16.1.2,5101,5149,6780,38,64256,65728,6,6,4,1460,227812,1,16778208,630000,33580,33580,65700,0,5792,0,1004916541,63
o,1723545549.997871,172.16.3.2,33156,172.16.1.2,5101,5149,6978,38,64256,65728,6,6,4,1460,223125,1,16778208,610000,33580,30684,65700,0,2896,0,1004916541,63
o,1723545549.997984,172.16.3.2,33156,172.16.1.2,5101,5149,6978,38,64256,65728,6,6,4,1460,223125,1,16778208,610000,33580,30684,65700,0,4344,0,1004916541,63
i,1723545550.106102,172.16.3.2,33156,172.16.1.2,5101,5149,6978,38,64256,65728,6,6,4,1460,223125,1,16778208,610000,33580,33580,65700,0,5792,0,1004916541,63
o,1723545550.106186,172.16.3.2,33156,172.16.1.2,5101,5149,7249,38,64256,65728,6,6,4,1460,217812,1,16778208,600000,33580,30684,65700,0,2896,0,1004916541,63
i,1723545550.187069,172.16.3.2,33156,172.16.1.2,5101,5149,7249,38,64256,65728,6,6,4,1460,217812,1,16778208,600000,33580,33580,65700,0,7240,0,1004916541,63
o,1723545550.187511,172.16.3.2,33156,172.16.1.2,5101,5149,7447,38,64256,65728,6,6,4,1460,214375,1,16778208,580000,33580,30684,65700,0,4344,0,1004916541,63
o,1723545550.188859,172.16.3.2,33156,172.16.1.2,5101,5149,7447,38,64256,65728,6,6,4,1460,214375,1,16778208,580000,33580,30684,65700,0,5792,0,1004916541,63
i,1723545550.325059,172.16.3.2,33156,172.16.1.2,5101,5149,7447,38,64256,65728,6,6,4,1460,214375,1,16778208,580000,33580,33580,65700,0,7240,0,1004916541,63
o,1723545550.325145,172.16.3.2,33156,172.16.1.2,5101,5149,7793,38,64256,65728,6,6,4,1460,215312,1,16778208,550000,33580,30684,65700,0,4344,0,1004916541,63
i,1723545550.428975,172.16.3.2,33156,172.16.1.2,5101,5149,7793,38,64256,65728,6,6,4,1460,215312,1,16778208,550000,33580,33580,65700,0,7240,0,1004916541,63
o,1723545550.429097,172.16.3.2,33156,172.16.1.2,5101,5149,8040,38,64256,65728,6,6,4,1460,228437,1,16778208,630000,33580,30684,65700,0,4344,0,1004916541,63
o,1723545550.429329,172.16.3.2,33156,172.16.1.2,5101,5149,8040,38,64256,65728,6,6,4,1460,228437,1,16778208,630000,33580,30684,65700,0,5792,0,1004916541,63
i,1723545550.491177,172.16.3.2,33156,172.16.1.2,5101,5149,8040,38,64256,65728,6,6,4,1460,228437,1,16778208,630000,33580,33580,65700,0,7240,0,1004916541,63
o,1723545550.491317,172.16.3.2,33156,172.16.1.2,5101,5149,8189,38,65728,65728,6,6,4,1460,237500,1,16778208,660000,33580,32132,65700,0,5792,0,1004916541,63
i,1723545550.539280,172.16.3.2,33156,172.16.1.2,5101,5149,8189,38,65728,65728,6,6,4,1460,237500,1,16778208,660000,33580,32132,65700,0,7240,0,1004916541,63
o,1723545550.539418,172.16.3.2,33156,172.16.1.2,5101,5149,8312,38,64256,65728,6,6,4,1460,232812,1,16778208,640000,33580,29236,65700,0,4344,0,1004916541,63
i,1723545550.656895,172.16.3.2,33156,172.16.1.2,5101,5149,8312,38,64256,65728,6,6,4,1460,232812,1,16778208,640000,33580,33580,65700,0,7240,0,1004916541,63
o,1723545550.657143,172.16.3.2,33156,172.16.1.2,5101,5149,8609,38,65728,65728,6,6,4,1460,232500,1,16778208,590000,33580,32132,65700,0,5792,0,1004916541,63
i,1723545550.699569,172.16.3.2,33156,172.16.1.2,5101,5149,8609,38,65728,65728,6,6,4,1460,232500,1,16778208,590000,33580,32132,65700,0,7240,0,1004916541,63
o,1723545550.699648,172.16.3.2,33156,172.16.1.2,5101,5149,8708,38,65728,65728,6,6,4,1460,237187,1,16778208,590000,33580,30684,65700,0,5792,0,1004916541,63
i,1723545550.757614,172.16.3.2,33156,172.16.1.2,5101,5149,8708,38,65728,65728,6,6,4,1460,237187,1,16778208,590000,33580,33580,65700,0,8688,0,1004916541,63
o,1723545550.757690,172.16.3.2,33156,172.16.1.2,5101,5149,8856,38,64256,65728,6,6,4,1460,240312,1,16778208,580000,33580,30684,65700,0,5792,0,1004916541,63
i,1723545550.808122,172.16.3.2,33156,172.16.1.2,5101,5149,8856,38,64256,65728,6,6,4,1460,240312,1,16778208,580000,33580,33580,65700,0,8688,0,1004916541,63
o,1723545550.808221,172.16.3.2,33156,172.16.1.2,5101,5149,8980,38,65728,65728,6,6,4,1460,244062,1,16778208,580000,33580,32132,65700,0,7240,0,1004916541,63
i,1723545550.918756,172.16.3.2,33156,172.16.1.2,5101,5149,8980,38,65728,65728,6,6,4,1460,244062,1,16778208,580000,33580,32132,65700,0,8688,0,1004916541,63
o,1723545550.918764,172.16.3.2,33156,172.16.1.2,5101,5149,9251,38,65728,65728,6,6,4,1460,245000,1,16778208,550000,33580,30684,65700,0,7240,0,1004916541,63
i,1723545550.979664,172.16.3.2,33156,172.16.1.2,5101,5149,9251,38,65728,65728,6,6,4,1460,245000,1,16778208,550000,33580,33580,65700,0,8688,0,1004916541,63
o,1723545550.979747,172.16.3.2,33156,172.16.1.2,5101,5149,9400,38,64256,65728,6,6,4,1460,249375,1,16778208,560000,33580,30684,65700,0,5792,0,1004916541,63
i,1723545551.052259,172.16.3.2,33156,172.16.1.2,5101,5149,9400,38,64256,65728,6,6,4,1460,249375,1,16778208,560000,33580,33580,65700,0,8688,0,1004916541,63
o,1723545551.052370,172.16.3.2,33156,172.16.1.2,5101,5149,9573,38,64256,65728,6,6,4,1460,254687,1,16778208,580000,33580,30684,65700,0,5792,0,1004916541,63
i,1723545551.155463,172.16.3.2,33156,172.16.1.2,5101,5149,9573,38,64256,65728,6,6,4,1460,254687,1,16778208,580000,33580,33580,65700,0,8688,0,1004916541,63
o,1723545551.155618,172.16.3.2,33156,172.16.1.2,5101,6693,8688,34,65728,65728,6,6,4,1460,266875,1,553649120,660000,33580,32132,65700,0,7240,0,1004916541,63
i,1723545551.238167,172.16.3.2,33156,172.16.1.2,5101,6693,8688,34,65728,65728,6,6,4,1460,266875,1,553649120,660000,33580,32132,65700,0,8688,0,1004916541,63
i,1723545551.268911,172.16.3.2,33156,172.16.1.2,5101,6693,7240,34,65728,65728,6,6,4,1460,273750,1,536871904,670000,33580,33580,65700,0,7240,0,1004916541,63
o,1723545551.268947,172.16.3.2,33156,172.16.1.2,5101,6693,7240,34,65728,65728,6,6,4,1460,274687,1,553649120,630000,33580,32132,65700,0,5792,0,1004916541,63
i,1723545551.321230,172.16.3.2,33156,172.16.1.2,5101,6693,7240,34,65728,65728,6,6,4,1460,274687,1,553649120,630000,33580,32132,65700,0,7240,0,1004916541,63
o,1723545551.321270,172.16.3.2,33156,172.16.1.2,5101,6693,5792,34,64256,65728,6,6,4,1460,281875,1,553649120,660000,33580,29236,65700,0,4344,0,1004916541,63
i,1723545551.377431,172.16.3.2,33156,172.16.1.2,5101,6693,5792,34,64256,65728,6,6,4,1460,281875,1,553649120,660000,33580,33580,65700,0,5792,0,1004916541,63
o,1723545551.377514,172.16.3.2,33156,172.16.1.2,5101,6693,5792,38,64256,65728,6,6,4,1460,288125,1,16778208,670000,33580,30684,65700,0,2896,0,1004916541,63
i,1723545551.498561,172.16.3.2,33156,172.16.1.2,5101,6693,5792,38,64256,65728,6,6,4,1460,288125,1,16778208,670000,33580,33580,65700,0,5792,0,1004916541,63
o,1723545551.498617,172.16.3.2,33156,172.16.1.2,5101,6693,7240,38,65728,65728,6,6,4,1460,280937,1,16778208,670000,33580,32132,65700,0,4344,0,1004916541,63
o,1723545551.498780,172.16.3.2,33156,172.16.1.2,5101,6693,7240,34,65728,65728,6,6,4,1460,280937,1,16778208,670000,33580,32132,65700,0,5792,0,1004916541,63
i,1723545551.508220,172.16.3.2,33156,172.16.1.2,5101,6693,7240,34,65728,65728,6,6,4,1460,280937,1,16778208,670000,33580,32132,65700,0,7240,0,1004916541,63
o,1723545551.508296,172.16.3.2,33156,172.16.1.2,5101,6693,7240,34,65728,65728,6,6,4,1460,269687,1,16778208,700000,33580,30684,65700,0,5792,0,1004916541,63
i,1723545551.611570,172.16.3.2,33156,172.16.1.2,5101,6693,7240,34,65728,65728,6,6,4,1460,269687,1,16778208,700000,33580,32608,65700,0,7240,0,1004916541,63
o,1723545551.611699,172.16.3.2,33156,172.16.1.2,5101,6693,8113,38,64256,65728,6,6,4,1460,265000,1,16778208,680000,33580,29712,65700,0,4344,0,1004916541,63
i,1723545551.700704,172.16.3.2,33156,172.16.1.2,5101,6693,8113,38,64256,65728,6,6,4,1460,265000,1,16778208,680000,33580,33580,65700,0,7240,0,1004916541,63
o,1723545551.700830,172.16.3.2,33156,172.16.1.2,5101,6693,8113,38,64256,65728,6,6,4,1460,256875,1,16778208,680000,33580,30684,65700,0,4344,0,1004916541,63
o,1723545551.700978,172.16.3.2,33156,172.16.1.2,5101,6693,8113,38,64256,65728,6,6,4,1460,256875,1,16778208,680000,33580,30684,65700,0,5792,0,1004916541,63
i,1723545551.777285,172.16.3.2,33156,172.16.1.2,5101,6693,8113,38,64256,65728,6,6,4,1460,256875,1,16778208,680000,33580,33580,65700,0,7240,0,1004916541,63
o,1723545551.777450,172.16.3.2,33156,172.16.1.2,5101,6693,8113,38,65728,65728,6,6,4,1460,258750,1,16778208,640000,33580,32132,65700,0,5792,0,1004916541,63
i,1723545551.837626,172.16.3.2,33156,172.16.1.2,5101,6693,8113,38,65728,65728,6,6,4,1460,258750,1,16778208,640000,33580,32132,65700,0,7240,0,1004916541,63
o,1723545551.837910,172.16.3.2,33156,172.16.1.2,5101,6693,8113,38,65728,65728,6,6,4,1460,255312,1,16778208,620000,33580,30684,65700,0,5792,0,1004916541,63
i,1723545551.912527,172.16.3.2,33156,172.16.1.2,5101,6693,8113,38,65728,65728,6,6,4,1460,255312,1,16778208,620000,33580,33580,65700,0,7240,0,1004916541,63
o,1723545551.912658,172.16.3.2,33156,172.16.1.2,5101,6693,8113,38,64256,65728,6,6,4,1460,260937,1,16778208,630000,33580,30684,65700,0,4344,0,1004916541,63
o,1723545551.912903,172.16.3.2,33156,172.16.1.2,5101,6693,8113,38,64256,65728,6,6,4,1460,260937,1,16778208,630000,33580,30684,65700,0,5792,0,1004916541,63
i,1723545551.998326,172.16.3.2,33156,172.16.1.2,5101,6693,8113,38,64256,65728,6,6,4,1460,260937,1,16778208,630000,33580,33580,65700,0,7240,0,1004916541,63
o,1723545551.998431,172.16.3.2,33156,172.16.1.2,5101,6693,8224,38,65728,65728,6,6,4,1460,265937,1,16778208,630000,33580,32132,65700,0,5792,0,1004916541,63
i,1723545552.037874,172.16.3.2,33156,172.16.1.2,5101,6693,8224,38,65728,65728,6,6,4,1460,265937,1,16778208,630000,33580,32132,65700,0,7240,0,1004916541,63
o,1723545552.037972,172.16.3.2,33156,172.16.1.2,5101,6693,8349,38,65728,65728,6,6,4,1460,265312,1,16778208,590000,33580,30684,65700,0,5792,0,1004916541,63
i,1723545552.117578,172.16.3.2,33156,172.16.1.2,5101,6693,8349,38,65728,65728,6,6,4,1460,265312,1,16778208,590000,33580,33580,65700,0,7240,0,1004916541,63
o,1723545552.117669,172.16.3.2,33156,172.16.1.2,5101,6693,8599,38,64256,65728,6,6,4,1460,265937,1,16778208,570000,33580,30684,65700,0,4344,0,1004916541,63
o,1723545552.117814,172.16.3.2,33156,172.16.1.2,5101,6693,8599,38,64256,65728,6,6,4,1460,265937,1,16778208,570000,33580,30684,65700,0,5792,0,1004916541,63
i,1723545552.158765,172.16.3.2,33156,172.16.1.2,5101,6693,8599,38,64256,65728,6,6,4,1460,265937,1,16778208,570000,33580,33580,65700,0,7240,0,1004916541,63
o,1723545552.158881,172.16.3.2,33156,172.16.1.2,5101,6693,8724,38,65728,65728,6,6,4,1460,264062,1,16778208,550000,33580,32132,65700,0,5792,0,1004916541,63
i,1723545552.227881,172.16.3.2,33156,172.16.1.2,5101,6693,8724,38,65728,65728,6,6,4,1460,264062,1,16778208,550000,33580,32132,65700,0,8688,0,1004916541,63
o,1723545552.227977,172.16.3.2,33156,172.16.1.2,5101,6693,8943,38,64256,65728,6,6,4,1460,260000,1,16778208,560000,33580,29236,65700,0,5792,0,1004916541,63
i,1723545552.399879,172.16.3.2,33156,172.16.1.2,5101,6693,8943,38,64256,65728,6,6,4,1460,260000,1,16778208,560000,33580,33580,65700,0,8688,0,1004916541,63
o,1723545552.399993,172.16.3.2,33156,172.16.1.2,5101,6693,9474,38,64256,65728,6,6,4,1460,262500,1,16778208,560000,33580,30684,65700,0,5792,0,1004916541,63
o,1723545552.400153,172.16.3.2,33156,172.16.1.2,5101,6693,9474,38,64256,65728,6,6,4,1460,262500,1,16778208,560000,33580,30684,65700,0,7240,0,1004916541,63
i,1723545552.448010,172.16.3.2,33156,172.16.1.2,5101,6693,9474,38,64256,65728,6,6,4,1460,262500,1,16778208,560000,33580,33580,65700,0,8688,0,1004916541,63
o,1723545552.448104,172.16.3.2,33156,172.16.1.2,5101,6693,9630,38,65728,65728,6,6,4,1460,265937,1,16778208,560000,33580,32132,65700,0,7240,0,1004916541,63
i,1723545552.508670,172.16.3.2,33156,172.16.1.2,5101,6693,9630,38,65728,65728,6,6,4,1460,265937,1,16778208,560000,33580,32132,65700,0,8688,0,1004916541,63
o,1723545552.508678,172.16.3.2,33156,172.16.1.2,5101,6733,7240,34,64256,65728,6,6,4,1460,276562,1,553649120,630000,33580,29236,65700,0,5792,0,1004916541,63
i,1723545552.578072,172.16.3.2,33156,172.16.1.2,5101,6733,7240,34,64256,65728,6,6,4,1460,276562,1,553649120,630000,33580,33580,65700,0,7240,0,1004916541,63
o,1723545552.578182,172.16.3.2,33156,172.16.1.2,5101,6733,7240,34,65728,65728,6,6,4,1460,285937,1,553649120,680000,33580,32132,65700,0,5792,0,1004916541,63
i,1723545552.667958,172.16.3.2,33156,172.16.1.2,5101,6733,7240,34,65728,65728,6,6,4,1460,285937,1,553649120,680000,33580,32132,65700,0,7240,0,1004916541,63
i,1723545552.718377,172.16.3.2,33156,172.16.1.2,5101,6733,5792,34,65728,65728,6,6,4,1460,284062,1,536871904,640000,33580,33580,65700,0,5792,0,1004916541,63
i,1723545552.768122,172.16.3.2,33156,172.16.1.2,5101,6733,2896,34,64256,65728,6,6,4,1460,288750,1,536871904,650000,33580,33580,65700,0,2896,0,1004916541,63
o,1723545552.768231,172.16.3.2,33156,172.16.1.2,5101,6733,2896,34,65728,65728,6,6,4,1460,284062,1,16778208,640000,33580,32132,65700,0,1448,0,1004916541,63
i,1723545552.809888,172.16.3.2,33156,172.16.1.2,5101,6733,2896,34,65728,65728,6,6,4,1460,284062,1,16778208,640000,33580,32132,65700,0,2896,0,1004916541,63
o,1723545552.809915,172.16.3.2,33156,172.16.1.2,5101,6733,4344,38,65728,65728,6,6,4,1460,277500,1,16778208,650000,33580,30684,65700,0,1448,0,1004916541,63
i,1723545552.961190,172.16.3.2,33156,172.16.1.2,5101,6733,4344,38,65728,65728,6,6,4,1460,277500,1,16778208,650000,33580,33580,65700,0,4344,0,1004916541,63
o,1723545552.961272,172.16.3.2,33156,172.16.1.2,5101,6733,5792,38,65728,65728,6,6,4,1460,266562,1,16778208,680000,33580,32132,65700,0,2896,0,1004916541,63
o,1723545552.961391,172.16.3.2,33156,172.16.1.2,5101,6733,5792,34,65728,65728,6,6,4,1460,266562,1,16778208,680000,33580,32132,65700,0,4344,0,1004916541,63
i,1723545552.997594,172.16.3.2,33156,172.16.1.2,5101,6733,5792,34,65728,65728,6,6,4,1460,266562,1,16778208,680000,33580,32132,65700,0,5792,0,1004916541,63
o,1723545552.997807,172.16.3.2,33156,172.16.1.2,5101,6733,8688,38,64256,65728,6,6,4,1460,257187,1,16778208,690000,33580,29236,65700,0,2896,0,1004916541,63
i,1723545553.228133,172.16.3.2,33156,172.16.1.2,5101,6733,8688,38,64256,65728,6,6,4,1460,257187,1,16778208,690000,33580,33580,65700,0,8688,0,1004916541,63
o,1723545553.228221,172.16.3.2,33156,172.16.1.2,5101,5149,7240,34,64256,65728,6,6,4,1460,259062,1,553649120,650000,33580,30684,65700,0,5792,0,1004916541,63
i,1723545553.277561,172.16.3.2,33156,172.16.1.2,5101,5149,7240,34,64256,65728,6,6,4,1460,259062,1,553649120,650000,33580,33580,65700,0,7240,0,1004916541,63
o,1723545553.277596,172.16.3.2,33156,172.16.1.2,5101,5149,5792,34,64256,65728,6,6,4,1460,261875,1,553649120,630000,33580,30684,65700,0,4344,0,1004916541,63
i,1723545553.345044,172.16.3.2,33156,172.16.1.2,5101,5149,5792,34,64256,65728,6,6,4,1460,261875,1,553649120,630000,33580,33580,65700,0,5792,0,1004916541,63
o,1723545553.345153,172.16.3.2,33156,172.16.1.2,5101,5149,4344,34,64256,65728,6,6,4,1460,273125,1,553649120,690000,33580,30684,65700,0,2896,0,1004916541,63
i,1723545553.438845,172.16.3.2,33156,172.16.1.2,5101,5149,4344,34,64256,65728,6,6,4,1460,273125,1,553649120,690000,33580,33580,65700,0,4344,0,1004916541,63
o,1723545553.438928,172.16.3.2,33156,172.16.1.2,5101,5149,4344,34,65728,65728,6,6,4,1460,265312,1,16778208,690000,33580,32132,65700,0,2896,0,1004916541,63
i,1723545553.467772,172.16.3.2,33156,172.16.1.2,5101,5149,4344,34,65728,65728,6,6,4,1460,265312,1,16778208,690000,33580,32132,65700,0,4344,0,1004916541,63
o,1723545553.467879,172.16.3.2,33156,172.16.1.2,5101,5149,5792,38,65728,65728,6,6,4,1460,255937,1,16778208,700000,33580,30684,65700,0,2896,0,1004916541,63
i,1723545553.521495,172.16.3.2,33156,172.16.1.2,5101,5149,5792,38,65728,65728,6,6,4,1460,255937,1,16778208,700000,33580,33580,65700,0,5792,0,1004916541,63
o,1723545553.521524,172.16.3.2,33156,172.16.1.2,5101,5149,5904,38,65728,65728,6,6,4,1460,245312,1,16778208,710000,33580,32132,65700,0,4344,0,1004916541,63
i,1723545553.628438,172.16.3.2,33156,172.16.1.2,5101,5149,5904,38,65728,65728,6,6,4,1460,245312,1,16778208,710000,33580,32132,65700,0,5792,0,1004916541,63
o,1723545553.628713,172.16.3.2,33156,172.16.1.2,5101,5149,5904,38,64256,65728,6,6,4,1460,237187,1,16778208,700000,33580,29236,65700,0,2896,0,1004916541,63
o,1723545553.629203,172.16.3.2,33156,172.16.1.2,5101,5149,5904,38,64256,65728,6,6,4,1460,237187,1,16778208,700000,33580,29236,65700,0,4344,0,1004916541,63
i,1723545553.728761,172.16.3.2,33156,172.16.1.2,5101,5149,5904,38,64256,65728,6,6,4,1460,237187,1,16778208,700000,33580,33580,65700,0,5792,0,1004916541,63
o,1723545553.728879,172.16.3.2,33156,172.16.1.2,5101,5149,5904,38,65728,65728,6,6,4,1460,240312,1,16778208,660000,33580,32132,65700,0,4344,0,1004916541,63
i,1723545553.757671,172.16.3.2,33156,172.16.1.2,5101,5149,5904,38,65728,65728,6,6,4,1460,240312,1,16778208,660000,33580,32132,65700,0,5792,0,1004916541,63
o,1723545553.757806,172.16.3.2,33156,172.16.1.2,5101,5149,5904,38,65728,65728,6,6,4,1460,240312,1,16778208,610000,33580,30684,65700,0,4344,0,1004916541,63
i,1723545553.787215,172.16.3.2,33156,172.16.1.2,5101,5149,5904,38,65728,65728,6,6,4,1460,240312,1,16778208,610000,33580,33580,65700,0,5792,0,1004916541,63
o,1723545553.787297,172.16.3.2,33156,172.16.1.2,5101,5149,5936,38,64256,65728,6,6,4,1460,230312,1,16778208,640000,33580,30684,65700,0,2896,0,1004916541,63
o,1723545553.787411,172.16.3.2,33156,172.16.1.2,5101,5149,5936,38,64256,65728,6,6,4,1460,230312,1,16778208,640000,33580,30684,65700,0,4344,0,1004916541,63
i,1723545553.907593,172.16.3.2,33156,172.16.1.2,5101,5149,5936,38,64256,65728,6,6,4,1460,230312,1,16778208,640000,33580,33580,65700,0,5792,0,1004916541,63
o,1723545553.907664,172.16.3.2,33156,172.16.1.2,5101,5149,6286,38,65728,65728,6,6,4,1460,224062,1,16778208,630000,33580,32132,65700,0,4344,0,1004916541,63
i,1723545553.987290,172.16.3.2,33156,172.16.1.2,5101,5149,6286,38,65728,65728,6,6,4,1460,224062,1,16778208,630000,33580,32132,65700,0,5792,0,1004916541,63
o,1723545553.987381,172.16.3.2,33156,172.16.1.2,5101,5149,6519,38,64256,65728,6,6,4,1460,225000,1,16778208,590000,33580,29236,65700,0,2896,0,1004916541,63
o,1723545553.987554,172.16.3.2,33156,172.16.1.2,5101,5149,6519,38,64256,65728,6,6,4,1460,225000,1,16778208,590000,33580,29236,65700,0,4344,0,1004916541,63
i,1723545554.087613,172.16.3.2,33156,172.16.1.2,5101,5149,6519,38,64256,65728,6,6,4,1460,225000,1,16778208,590000,33580,33580,65700,0,5792,0,1004916541,63
o,1723545554.087652,172.16.3.2,33156,172.16.1.2,5101,5149,6811,38,65728,65728,6,6,4,1460,234375,1,16778208,630000,33580,32132,65700,0,4344,0,1004916541,63
i,1723545554.117778,172.16.3.2,33156,172.16.1.2,5101,5149,6811,38,65728,65728,6,6,4,1460,234375,1,16778208,630000,33580,32132,65700,0,5792,0,1004916541,63
o,1723545554.117861,172.16.3.2,33156,172.16.1.2,5101,5149,6899,38,65728,65728,6,6,4,1460,231562,1,16778208,600000,33580,30684,65700,0,4344,0,1004916541,63
i,1723545554.147880,172.16.3.2,33156,172.16.1.2,5101,5149,6899,38,65728,65728,6,6,4,1460,231562,1,16778208,600000,33580,33580,65700,0,5792,0,1004916541,63
o,1723545554.147982,172.16.3.2,33156,172.16.1.2,5101,5149,6986,38,64256,65728,6,6,4,1460,222812,1,16778208,620000,33580,30684,65700,0,2896,0,1004916541,63
o,1723545554.148116,172.16.3.2,33156,172.16.1.2,5101,5149,6986,38,64256,65728,6,6,4,1460,222812,1,16778208,620000,33580,30684,65700,0,4344,0,1004916541,63
i,1723545554.297424,172.16.3.2,33156,172.16.1.2,5101,5149,6986,38,64256,65728,6,6,4,1460,222812,1,16778208,620000,33580,33580,65700,0,5792,0,1004916541,63
o,1723545554.297523,172.16.3.2,33156,172.16.1.2,5101,5149,7424,38,65728,65728,6,6,4,1460,221250,1,16778208,580000,33580,32132,65700,0,4344,0,1004916541,63
i,1723545554.357461,172.16.3.2,33156,172.16.1.2,5101,5149,7424,38,65728,65728,6,6,4,1460,221250,1,16778208,580000,33580,32132,65700,0,7240,0,1004916541,63
o,1723545554.357493,172.16.3.2,33156,172.16.1.2,5101,5149,7599,38,64256,65728,6,6,4,1460,223750,1,16778208,560000,33580,29236,65700,0,4344,0,1004916541,63
o,1723545554.357628,172.16.3.2,33156,172.16.1.2,5101,5149,7599,38,64256,65728,6,6,4,1460,223750,1,16778208,560000,33580,29236,65700,0,5792,0,1004916541,63
i,1723545554.413464,172.16.3.2,33156,172.16.1.2,5101,5149,7599,38,64256,65728,6,6,4,1460,223750,1,16778208,560000,33580,33580,65700,0,7240,0,1004916541,63
o,1723545554.413499,172.16.3.2,33156,172.16.1.2,5101,5149,7774,38,65728,65728,6,6,4,1460,229687,1,16778208,580000,33580,32132,65700,0,5792,0,1004916541,63
i,1723545554.478645,172.16.3.2,33156,172.16.1.2,5101,5149,7774,38,65728,65728,6,6,4,1460,229687,1,16778208,580000,33580,32132,65700,0,7240,0,1004916541,63
o,1723545554.478818,172.16.3.2,33156,172.16.1.2,5101,5149,7949,38,64256,65728,6,6,4,1460,223750,1,16778208,580000,33580,29236,65700,0,4344,0,1004916541,63
i,1723545554.587235,172.16.3.2,33156,172.16.1.2,5101,5149,7949,38,64256,65728,6,6,4,1460,223750,1,16778208,580000,33580,33580,65700,0,7240,0,1004916541,63
o,1723545554.587312,172.16.3.2,33156,172.16.1.2,5101,5149,8270,38,64256,65728,6,6,4,1460,224687,1,16778208,550000,33580,30684,65700,0,4344,0,1004916541,63
o,1723545554.587445,172.16.3.2,33156,172.16.1.2,5101,5149,8270,38,64256,65728,6,6,4,1460,224687,1,16778208,550000,33580,30684,65700,0,5792,0,1004916541,63
i,1723545554.642904,172.16.3.2,33156,172.16.1.2,5101,5149,8270,38,64256,65728,6,6,4,1460,224687,1,16778208,550000,33580,33580,65700,0,7240,0,1004916541,63
o,1723545554.643136,172.16.3.2,33156,172.16.1.2,5101,5149,8445,38,65728,65728,6,6,4,1460,224375,1,16778208,520000,33580,32132,65700,0,5792,0,1004916541,63
i,1723545554.707789,172.16.3.2,33156,172.16.1.2,5101,5149,8445,38,65728,65728,6,6,4,1460,224375,1,16778208,520000,33580,32132,65700,0,7240,0,1004916541,63
o,1723545554.708010,172.16.3.2,33156,172.16.1.2,5101,5149,8620,38,64256,65728,6,6,4,1460,225312,1,16778208,510000,33580,29236,65700,0,4344,0,1004916541,63
i,1723545554.833515,172.16.3.2,33156,172.16.1.2,5101,5149,8620,38,64256,65728,6,6,4,1460,225312,1,16778208,510000,33580,33580,65700,0,7240,0,1004916541,63
o,1723545554.833547,172.16.3.2,33156,172.16.1.2,5101,5149,8999,38,64256,65728,6,6,4,1460,228437,1,16778208,510000,33580,30684,65700,0,4344,0,1004916541,63
o,1723545554.833667,172.16.3.2,33156,172.16.1.2,5101,5149,8999,38,64256,65728,6,6,4,1460,228437,1,16778208,510000,33580,30684,65700,0,5792,0,1004916541,63
i,1723545554.917284,172.16.3.2,33156,172.16.1.2,5101,5149,8999,38,64256,65728,6,6,4,1460,228437,1,16778208,510000,33580,33580,65700,0,8688,0,1004916541,63
o,1723545554.917381,172.16.3.2,33156,172.16.1.2,5101,5149,9232,38,64256,65728,6,6,4,1460,233750,1,16778208,540000,33580,30684,65700,0,5792,0,1004916541,63
i,1723545554.988440,172.16.3.2,33156,172.16.1.2,5101,5149,9232,38,64256,65728,6,6,4,1460,233750,1,16778208,540000,33580,33580,65700,0,8688,0,1004916541,63
o,1723545554.988611,172.16.3.2,33156,172.16.1.2,5101,5149,9436,38,65728,65728,6,6,4,1460,239687,1,16778208,560000,33580,32132,65700,0,7240,0,1004916541,63
i,1723545555.075945,172.16.3.2,33156,172.16.1.2,5101,5149,9436,38,65728,65728,6,6,4,1460,239687,1,16778208,560000,33580,32132,65700,0,8688,0,1004916541,63
o,1723545555.076127,172.16.3.2,33156,172.16.1.2,5101,5149,9699,38,65728,65728,6,6,4,1460,240000,1,16778208,540000,33580,30684,65700,0,7240,0,1004916541,63
i,1723545555.147678,172.16.3.2,33156,172.16.1.2,5101,5149,9699,38,65728,65728,6,6,4,1460,240000,1,16778208,540000,33580,33580,65700,0,8688,0,1004916541,63
o,1723545555.147714,172.16.3.2,33156,172.16.1.2,5101,6781,7240,34,64256,65728,6,6,4,1460,248750,1,553649120,590000,33580,30684,65700,0,5792,0,1004916541,63
i,1723545555.220639,172.16.3.2,33156,172.16.1.2,5101,6781,7240,34,64256,65728,6,6,4,1460,248750,1,553649120,590000,33580,33580,65700,0,7240,0,1004916541,63
o,1723545555.220748,172.16.3.2,33156,172.16.1.2,5101,6781,5792,34,64256,65728,6,6,4,1460,255312,1,553649120,610000,33580,30684,65700,0,4344,0,1004916541,63
i,1723545555.317400,172.16.3.2,33156,172.16.1.2,5101,6781,5792,34,64256,65728,6,6,4,1460,255312,1,553649120,610000,33580,33580,65700,0,5792,0,1004916541,63
i,1723545555.347678,172.16.3.2,33156,172.16.1.2,5101,6781,4344,34,65728,65728,6,6,4,1460,263437,1,553649120,650000,33580,32132,65700,0,4344,0,1004916541,63
o,1723545555.347771,172.16.3.2,33156,172.16.1.2,5101,6781,4344,34,65728,65728,6,6,4,1460,264375,1,553649120,610000,33580,30684,65700,0,2896,0,1004916541,63
i,1723545555.357164,172.16.3.2,33156,172.16.1.2,5101,6781,4344,34,65728,65728,6,6,4,1460,264375,1,553649120,610000,33580,33580,65700,0,4344,0,1004916541,63
o,1723545555.357203,172.16.3.2,33156,172.16.1.2,5101,6781,4344,34,65728,65728,6,6,4,1460,257812,1,16778208,620000,33580,32132,65700,0,2896,0,1004916541,63
i,1723545555.435809,172.16.3.2,33156,172.16.1.2,5101,6781,4344,34,65728,65728,6,6,4,1460,257812,1,16778208,620000,33580,32132,65700,0,4344,0,1004916541,63
o,1723545555.435847,172.16.3.2,33156,172.16.1.2,5101,6781,5792,38,65728,65728,6,6,4,1460,253125,1,16778208,610000,33580,30684,65700,0,2896,0,1004916541,63
i,1723545555.518564,172.16.3.2,33156,172.16.1.2,5101,6781,5792,38,65728,65728,6,6,4,1460,253125,1,16778208,610000,33580,33580,65700,0,5792,0,1004916541,63
o,1723545555.518681,172.16.3.2,33156,172.16.1.2,5101,6781,8688,38,64256,65728,6,6,4,1460,241562,1,16778208,650000,33580,30684,65700,0,2896,0,1004916541,63
o,1723545555.518866,172.16.3.2,33156,172.16.1.2,5101,6781,8688,38,64256,65728,6,6,4,1460,241562,1,16778208,650000,33580,30684,65700,0,4344,0,1004916541,63
i,1723545555.607990,172.16.3.2,33156,172.16.1.2,5101,6781,8688,38,64256,65728,6,6,4,1460,241562,1,16778208,650000,33580,33580,65700,0,8688,0,1004916541,63
o,1723545555.608075,172.16.3.2,33156,172.16.1.2,5101,6781,8688,38,64256,65728,6,6,4,1460,232812,1,16778208,660000,33580,30684,65700,0,5792,0,1004916541,63
i,1723545555.767180,172.16.3.2,33156,172.16.1.2,5101,6781,8688,38,64256,65728,6,6,4,1460,232812,1,16778208,660000,33580,33580,65700,0,8688,0,1004916541,63
o,1723545555.767431,172.16.3.2,33156,172.16.1.2,5101,5149,7240,34,64256,65728,6,6,4,1460,235000,1,553649120,620000,33580,30684,65700,0,5792,0,1004916541,63
i,1723545555.868122,172.16.3.2,33156,172.16.1.2,5101,5149,7240,34,64256,65728,6,6,4,1460,235000,1,553649120,620000,33580,33580,65700,0,7240,0,1004916541,63
o,1723545555.868224,172.16.3.2,33156,172.16.1.2,5101,5149,5792,34,64256,65728,6,6,4,1460,249375,1,553649120,700000,33580,30684,65700,0,4344,0,1004916541,63
i,1723545555.918881,172.16.3.2,33156,172.16.1.2,5101,5149,5792,34,64256,65728,6,6,4,1460,249375,1,553649120,700000,33580,33580,65700,0,5792,0,1004916541,63
o,1723545555.919035,172.16.3.2,33156,172.16.1.2,5101,5149,4344,34,64256,65728,6,6,4,1460,257187,1,553649120,710000,33580,30684,65700,0,2896,0,1004916541,63
i,1723545555.978093,172.16.3.2,33156,172.16.1.2,5101,5149,4344,34,64256,65728,6,6,4,1460,257187,1,553649120,710000,33580,33580,65700,0,4344,0,1004916541,63
o,1723545555.978145,172.16.3.2,33156,172.16.1.2,5101,5149,4344,34,65728,65728,6,6,4,1460,250312,1,16778208,700000,33580,32132,65700,0,2896,0,1004916541,63
i,1723545556.068302,172.16.3.2,33156,172.16.1.2,5101,5149,4344,34,65728,65728,6,6,4,1460,250312,1,16778208,700000,33580,32132,65700,0,4344,0,1004916541,63
o,1723545556.068407,172.16.3.2,33156,172.16.1.2,5101,5149,5792,38,65728,65728,6,6,4,1460,244062,1,16778208,680000,33580,30684,65700,0,2896,0,1004916541,63
i,1723545556.100743,172.16.3.2,33156,172.16.1.2,5101,5149,5792,38,65728,65728,6,6,4,1460,244062,1,16778208,680000,33580,33580,65700,0,5792,0,1004916541,63
o,1723545556.100827,172.16.3.2,33156,172.16.1.2,5101,5149,5904,38,65728,65728,6,6,4,1460,235000,1,16778208,680000,33580,32132,65700,0,4344,0,1004916541,63
i,1723545556.169381,172.16.3.2,33156,172.16.1.2,5101,5149,5904,38,65728,65728,6,6,4,1460,235000,1,16778208,680000,33580,32132,65700,0,5792,0,1004916541,63
o,1723545556.169530,172.16.3.2,33156,172.16.1.2,5101,5149,5904,38,65728,65728,6,6,4,1460,229375,1,16778208,660000,33580,30684,65700,0,4344,0,1004916541,63
i,1723545556.277165,172.16.3.2,33156,172.16.1.2,5101,5149,5904,38,65728,65728,6,6,4,1460,229375,1,16778208,660000,33580,33360,65700,0,5792,0,1004916541,63
o,1723545556.277277,172.16.3.2,33156,172.16.1.2,5101,5149,5904,38,64256,65728,6,6,4,1460,227187,1,16778208,620000,33580,30464,65700,0,2896,0,1004916541,63
i,1723545556.338320,172.16.3.2,33156,172.16.1.2,5101,5149,5904,38,64256,65728,6,6,4,1460,227187,1,16778208,620000,33580,33580,65700,0,5792,0,1004916541,63
o,1723545556.338399,172.16.3.2,33156,172.16.1.2,5101,5149,5906,38,65728,65728,6,6,4,1460,229062,1,16778208,590000,33580,32132,65700,0,4344,0,1004916541,63
i,1723545556.422199,172.16.3.2,33156,172.16.1.2,5101,5149,5906,38,65728,65728,6,6,4,1460,229062,1,16778208,590000,33580,32132,65700,0,5792,0,1004916541,63
o,1723545556.422244,172.16.3.2,33156,172.16.1.2,5101,5149,6159,38,65728,65728,6,6,4,1460,231875,1,16778208,570000,33580,30684,65700,0,4344,0,1004916541,63
i,1723545556.448147,172.16.3.2,33156,172.16.1.2,5101,5149,6159,38,65728,65728,6,6,4,1460,231875,1,16778208,570000,33580,33580,65700,0,5792,0,1004916541,63
o,1723545556.448226,172.16.3.2,33156,172.16.1.2,5101,5149,6253,38,64256,65728,6,6,4,1460,224375,1,16778208,590000,33580,30684,65700,0,2896,0,1004916541,63
i,1723545556.537655,172.16.3.2,33156,172.16.1.2,5101,5149,6253,38,64256,65728,6,6,4,1460,224375,1,16778208,590000,33580,33580,65700,0,5792,0,1004916541,63
o,1723545556.537814,172.16.3.2,33156,172.16.1.2,5101,5149,6537,38,65728,65728,6,6,4,1460,221562,1,16778208,570000,33580,32132,65700,0,4344,0,1004916541,63
i,1723545556.597781,172.16.3.2,33156,172.16.1.2,5101,5149,6537,38,65728,65728,6,6,4,1460,221562,1,16778208,570000,33580,32132,65700,0,5792,0,1004916541,63
o,1723545556.597944,172.16.3.2,33156,172.16.1.2,5101,5149,6727,38,65728,65728,6,6,4,1460,216562,1,16778208,560000,33580,30684,65700,0,4344,0,1004916541,63
i,1723545556.647480,172.16.3.2,33156,172.16.1.2,5101,5149,6727,38,65728,65728,6,6,4,1460,216562,1,16778208,560000,33580,33580,65700,0,5792,0,1004916541,63
o,1723545556.647574,172.16.3.2,33156,172.16.1.2,5101,5149,6885,38,64256,65728,6,6,4,1460,213437,1,16778208,550000,33580,30684,65700,0,2896,0,1004916541,63
i,1723545556.749982,172.16.3.2,33156,172.16.1.2,5101,5149,6885,38,64256,65728,6,6,4,1460,213437,1,16778208,550000,33580,33580,65700,0,5792,0,1004916541,63
o,1723545556.750101,172.16.3.2,33156,172.16.1.2,5101,5149,7200,38,65728,65728,6,6,4,1460,211875,1,16778208,520000,33580,32132,65700,0,4344,0,1004916541,63
i,1723545556.787858,172.16.3.2,33156,172.16.1.2,5101,5149,7200,38,65728,65728,6,6,4,1460,211875,1,16778208,520000,33580,32132,65700,0,5792,0,1004916541,63
o,1723545556.788010,172.16.3.2,33156,172.16.1.2,5101,5149,7327,38,65728,65728,6,6,4,1460,208125,1,16778208,520000,33580,30684,65700,0,4344,0,1004916541,63
o,1723545556.788250,172.16.3.2,33156,172.16.1.2,5101,5149,7327,38,65728,65728,6,6,4,1460,208125,1,16778208,520000,33580,30684,65700,0,5792,0,1004916541,63
i,1723545556.847518,172.16.3.2,33156,172.16.1.2,5101,5149,7327,38,65728,65728,6,6,4,1460,208125,1,16778208,520000,33580,33580,65700,0,7240,0,1004916541,63
o,1723545556.847647,172.16.3.2,33156,172.16.1.2,5101,5149,7516,38,64256,65728,6,6,4,1460,207187,1,16778208,500000,33580,30684,65700,0,4344,0,1004916541,63
i,1723545556.978351,172.16.3.2,33156,172.16.1.2,5101,5149,7516,38,64256,65728,6,6,4,1460,207187,1,16778208,500000,33580,33580,65700,0,7240,0,1004916541,63
o,1723545556.978433,172.16.3.2,33156,172.16.1.2,5101,5149,7926,38,65728,65728,6,6,4,1460,209062,1,16778208,490000,33580,32132,65700,0,5792,0,1004916541,63
i,1723545557.017741,172.16.3.2,33156,172.16.1.2,5101,5149,7926,38,65728,65728,6,6,4,1460,209062,1,16778208,490000,33580,32132,65700,0,7240,0,1004916541,63
o,1723545557.017834,172.16.3.2,33156,172.16.1.2,5101,5149,8053,38,65728,65728,6,6,4,1460,210625,1,16778208,490000,33580,30684,65700,0,5792,0,1004916541,63
i,1723545557.089050,172.16.3.2,33156,172.16.1.2,5101,5149,8053,38,65728,65728,6,6,4,1460,210625,1,16778208,490000,33580,33580,65700,0,7240,0,1004916541,63
o,1723545557.089265,172.16.3.2,33156,172.16.1.2,5101,5149,8273,38,65728,65728,6,6,4,1460,220625,1,16778208,560000,33580,32132,65700,0,5792,0,1004916541,63
i,1723545557.089904,172.16.3.2,33156,172.16.1.2,5101,5149,8273,38,65728,65728,6,6,4,1460,220625,1,16778208,560000,33580,32132,65700,0,7240,0,1004916541,63
o,1723545557.090045,172.16.3.2,33156,172.16.1.2,5101,5149,8273,38,64256,65728,6,6,4,1460,223125,1,16778208,540000,33580,29236,65700,0,4344,0,1004916541,63
i,1723545557.188903,172.16.3.2,33156,172.16.1.2,5101,5149,8273,38,64256,65728,6,6,4,1460,223125,1,16778208,540000,33580,33580,65700,0,7240,0,1004916541,63
o,1723545557.189002,172.16.3.2,33156,172.16.1.2,5101,5149,8589,38,64256,65728,6,6,4,1460,221562,1,16778208,520000,33580,30684,65700,0,4344,0,1004916541,63
o,1723545557.189123,172.16.3.2,33156,172.16.1.2,5101,5149,8589,38,64256,65728,6,6,4,1460,221562,1,16778208,520000,33580,30684,65700,0,5792,0,1004916541,63
i,1723545557.308853,172.16.3.2,33156,172.16.1.2,5101,5149,8589,38,64256,65728,6,6,4,1460,221562,1,16778208,520000,33580,33580,65700,0,7240,0,1004916541,63
o,1723545557.309227,172.16.3.2,33156,172.16.1.2,5101,5149,8968,38,64256,65728,6,6,4,1460,221562,1,16778208,500000,33580,30684,65700,0,4344,0,1004916541,63
i,1723545557.417625,172.16.3.2,33156,172.16.1.2,5101,5149,8968,38,64256,65728,6,6,4,1460,221562,1,16778208,500000,33580,33580,65700,0,8688,0,1004916541,63
o,1723545557.417625,172.16.3.2,33156,172.16.1.2,5101,5149,9315,38,64256,65728,6,6,4,1460,234062,1,16778208,590000,33580,30684,65700,0,5792,0,1004916541,63
o,1723545557.417625,172.16.3.2,33156,172.16.1.2,5101,5149,9315,38,64256,65728,6,6,4,1460,234062,1,16778208,590000,33580,30684,65700,0,7240,0,1004916541,63
i,1723545557.468228,172.16.3.2,33156,172.16.1.2,5101,5149,9315,38,64256,65728,6,6,4,1460,234062,1,16778208,590000,33580,33580,65700,0,8688,0,1004916541,63
o,1723545557.468263,172.16.3.2,33156,172.16.1.2,5101,5149,9473,38,65728,65728,6,6,4,1460,238750,1,16778208,590000,33580,32132,65700,0,7240,0,1004916541,63
i,1723545557.558310,172.16.3.2,33156,172.16.1.2,5101,5149,9473,38,65728,65728,6,6,4,1460,238750,1,16778208,590000,33580,32132,65700,0,8688,0,1004916541,63
o,1723545557.558354,172.16.3.2,33156,172.16.1.2,5101,5149,9757,38,64256,65728,6,6,4,1460,239062,1,16778208,560000,33580,29236,65700,0,5792,0,1004916541,63
i,1723545557.657102,172.16.3.2,33156,172.16.1.2,5101,5149,9757,38,64256,65728,6,6,4,1460,239062,1,16778208,560000,33580,33580,65700,0,8688,0,1004916541,63
o,1723545557.657138,172.16.3.2,33156,172.16.1.2,5101,6822,8688,34,65728,65728,6,6,4,1460,251875,1,553649120,640000,33580,32132,65700,0,7240,0,1004916541,63
i,1723545557.708035,172.16.3.2,33156,172.16.1.2,5101,6822,8688,34,65728,65728,6,6,4,1460,251875,1,553649120,640000,33580,32132,65700,0,8688,0,1004916541,63
o,1723545557.708127,172.16.3.2,33156,172.16.1.2,5101,6822,7240,34,64256,65728,6,6,4,1460,256875,1,553649120,640000,33580,29236,65700,0,5792,0,1004916541,63
i,1723545557.819006,172.16.3.2,33156,172.16.1.2,5101,6822,7240,34,64256,65728,6,6,4,1460,256875,1,553649120,640000,33580,33580,65700,0,7240,0,1004916541,63
i,1723545557.847872,172.16.3.2,33156,172.16.1.2,5101,6822,5792,34,65728,65728,6,6,4,1460,268750,1,553649120,700000,33580,32132,65700,0,5792,0,1004916541,63
i,1723545557.898357,172.16.3.2,33156,172.16.1.2,5101,6822,2896,34,64256,65728,6,6,4,1460,271562,1,553649120,670000,33580,33580,65700,0,2896,0,1004916541,63
o,1723545557.898395,172.16.3.2,33156,172.16.1.2,5101,6822,2896,34,65728,65728,6,6,4,1460,267812,1,16778208,650000,33580,32132,65700,0,1448,0,1004916541,63
i,1723545557.978107,172.16.3.2,33156,172.16.1.2,5101,6822,2896,34,65728,65728,6,6,4,1460,267812,1,16778208,650000,33580,32132,65700,0,2896,0,1004916541,63
o,1723545557.978195,172.16.3.2,33156,172.16.1.2,5101,6822,4344,38,65728,65728,6,6,4,1460,268125,1,16778208,600000,33580,30684,65700,0,1448,0,1004916541,63
o,1723545557.978392,172.16.3.2,33156,172.16.1.2,5101,6822,4344,34,65728,65728,6,6,4,1460,268125,1,16778208,600000,33580,30684,65700,0,2896,0,1004916541,63
i,1723545558.077993,172.16.3.2,33156,172.16.1.2,5101,6822,4344,34,65728,65728,6,6,4,1460,268125,1,16778208,600000,33580,33580,65700,0,4344,0,1004916541,63
o,1723545558.078027,172.16.3.2,33156,172.16.1.2,5101,6822,5792,38,65728,65728,6,6,4,1460,255937,1,16778208,650000,33580,32132,65700,0,2896,0,1004916541,63
i,1723545558.143117,172.16.3.2,33156,172.16.1.2,5101,6822,5792,38,65728,65728,6,6,4,1460,255937,1,16778208,650000,33580,32132,65700,0,5792,0,1004916541,63
o,1723545558.143155,172.16.3.2,33156,172.16.1.2,5101,6822,8688,38,64256,65728,6,6,4,1460,244062,1,16778208,690000,33580,29236,65700,0,2896,0,1004916541,63
o,1723545558.143315,172.16.3.2,33156,172.16.1.2,5101,6822,8688,38,64256,65728,6,6,4,1460,244062,1,16778208,690000,33580,29236,65700,0,4344,0,1004916541,63
i,1723545558.258327,172.16.3.2,33156,172.16.1.2,5101,6822,8688,38,64256,65728,6,6,4,1460,244062,1,16778208,690000,33580,33580,65700,0,8688,0,1004916541,63
o,1723545558.258377,172.16.3.2,33156,172.16.1.2,5101,6822,8688,38,64256,65728,6,6,4,1460,236250,1,16778208,680000,33580,30684,65700,0,5792,0,1004916541,63
i,1723545558.377324,172.16.3.2,33156,172.16.1.2,5101,6822,8688,38,64256,65728,6,6,4,1460,236250,1,16778208,680000,33580,33580,65700,0,8688,0,1004916541,63
o,1723545558.377464,172.16.3.2,33156,172.16.1.2,5101,5149,7240,34,64256,65728,6,6,4,1460,235625,1,553649120,620000,33580,30684,65700,0,5792,0,1004916541,63
i,1723545558.437524,172.16.3.2,33156,172.16.1.2,5101,5149,7240,34,64256,65728,6,6,4,1460,235625,1,553649120,620000,33580,33580,65700,0,7240,0,1004916541,63
o,1723545558.437651,172.16.3.2,33156,172.16.1.2,5101,5149,7240,34,65728,65728,6,6,4,1460,242500,1,553649120,640000,33580,32132,65700,0,5792,0,1004916541,63
