enable_time_secs=1723548799	enable_time_usecs=296195	siftrver=1.3.0	sysname=FreeBSD	sysver=1401000	ipmode=4
o,1723548799.296665,10.0.2.15,22,10.0.2.2,52304,1073725440,17746,1026,65535,65700,0,0,4,1460,312,0,16777220,240000,33580,172,65700,0,0,0,3908308319,63
o,1723548799.299001,10.0.2.15,22,10.0.2.2,52304,1073725440,17746,1026,65535,65700,0,0,4,1460,312,0,16777220,240000,33580,244,65700,0,172,0,3908308319,63
i,1723548799.299118,10.0.2.15,22,10.0.2.2,52304,1073725440,17746,1026,65535,65700,0,0,4,1460,312,0,16777220,240000,33580,244,65700,0,244,0,3908308319,63
i,1723548799.299726,10.0.2.15,22,10.0.2.2,52304,1073725440,17918,1026,65535,65700,0,0,4,1460,312,0,4,240000,33580,72,65700,0,72,0,3908308319,63
i,1723548799.300461,10.0.2.15,22,10.0.2.2,52304,1073725440,17990,1026,65535,65700,0,0,4,1460,312,0,4,240000,33580,0,65700,0,0,0,3908308319,63
i,1723548799.300480,10.0.2.15,22,10.0.2.2,52304,1073725440,17990,1026,65535,65700,0,0,4,1460,312,0,4,240000,33580,0,65700,96,0,0,3908308319,63
o,1723548799.300500,10.0.2.15,22,10.0.2.2,52304,1073725440,17990,1026,65535,65604,0,0,5,1460,312,0,5,240000,33580,0,65700,96,0,0,3908308319,63
o,1723548799.301430,10.0.2.15,22,10.0.2.2,52304,1073725440,17990,1026,65535,65604,0,0,8,1460,312,0,4,240000,33580,0,65700,0,0,0,3908308319,63
i,1723548799.301973,10.0.2.15,22,10.0.2.2,52304,1073725440,17990,1026,65535,65604,0,0,8,1460,312,0,67108884,240000,33580,0,65700,0,1,0,3908308319,63
i,1723548801.601298,10.0.2.15,22,10.0.2.2,52314,1073725440,14600,0,65535,65700,0,0,4,1460,312,0,16777216,270000,33580,0,65700,0,0,0,1814484552,63
o,1723548801.616905,10.0.2.15,22,10.0.2.2,52314,1073725440,14600,1026,65535,65700,0,0,4,1460,312,0,16777216,270000,33580,38,65700,42,0,0,1814484552,63
i,1723548801.617489,10.0.2.15,22,10.0.2.2,52314,1073725440,14600,1026,65535,65700,0,0,4,1460,312,0,16777216,270000,33580,38,65700,0,38,0,1814484552,63
i,1723548801.617974,10.0.2.15,22,10.0.2.2,52314,1073725440,14638,1026,65535,65700,0,0,4,1460,312,0,0,240000,33580,0,65700,0,0,0,1814484552,63
i,1723548801.617993,10.0.2.15,22,10.0.2.2,52314,1073725440,14638,1026,65535,65700,0,0,4,1460,312,0,0,240000,33580,0,65700,1460,0,0,1814484552,63
o,1723548801.618011,10.0.2.15,22,10.0.2.2,52314,1073725440,14638,1026,65535,65700,0,0,4,1460,312,0,1,240000,33580,0,65700,1536,0,0,1814484552,63
o,1723548801.618948,10.0.2.15,22,10.0.2.2,52314,1073725440,14638,1026,65535,65700,0,0,4,1460,312,0,16777216,240000,33580,1120,65700,1536,0,0,1814484552,63
i,1723548801.619842,10.0.2.15,22,10.0.2.2,52314,1073725440,14638,1026,65535,65700,0,0,4,1460,312,0,16777216,240000,33580,1120,65700,0,1120,0,1814484552,63
i,1723548801.621214,10.0.2.15,22,10.0.2.2,52314,1073725440,15758,1026,65535,65700,0,0,4,1460,312,0,0,240000,33580,0,65700,0,0,0,1814484552,63
o,1723548801.624505,10.0.2.15,22,10.0.2.2,52314,1073725440,15758,1026,65535,65700,0,0,4,1460,312,0,16777216,240000,33580,492,65700,0,0,0,1814484552,63
i,1723548801.625864,10.0.2.15,22,10.0.2.2,52314,1073725440,15758,1026,65535,65700,0,0,4,1460,312,0,16777216,240000,33580,492,65700,0,492,0,1814484552,63
i,1723548801.629609,10.0.2.15,22,10.0.2.2,52314,1073725440,16250,1026,65535,65700,0,0,4,1460,312,0,0,240000,33580,0,65700,0,0,0,1814484552,63
i,1723548801.629632,10.0.2.15,22,10.0.2.2,52314,1073725440,16250,1026,65535,65700,0,0,4,1460,312,0,0,240000,33580,0,65700,16,0,0,1814484552,63
o,1723548801.629663,10.0.2.15,22,10.0.2.2,52314,1073725440,16250,1026,65535,65700,0,0,4,1460,312,0,1,240000,33580,0,65700,60,0,0,1814484552,63
o,1723548801.630064,10.0.2.15,22,10.0.2.2,52314,1073725440,16250,1026,65535,65700,0,0,4,1460,312,0,16777216,240000,33580,44,65700,0,0,0,1814484552,63
i,1723548801.630637,10.0.2.15,22,10.0.2.2,52314,1073725440,16250,1026,65535,65700,0,0,4,1460,312,0,16777216,240000,33580,44,65700,0,44,0,1814484552,63
i,1723548801.630656,10.0.2.15,22,10.0.2.2,52314,1073725440,16294,1026,65535,65700,0,0,4,1460,312,0,0,240000,33580,0,65700,0,0,0,1814484552,63
o,1723548801.632020,10.0.2.15,22,10.0.2.2,52314,1073725440,16294,1026,65535,65700,0,0,4,1460,312,0,16777216,240000,33580,68,65700,0,0,0,1814484552,63
i,1723548801.632655,10.0.2.15,22,10.0.2.2,52314,1073725440,16294,1026,65535,65700,0,0,4,1460,312,0,16777216,240000,33580,68,65700,0,68,0,1814484552,63
i,1723548801.633348,10.0.2.15,22,10.0.2.2,52314,1073725440,16362,1026,65535,65700,0,0,4,1460,312,0,0,240000,33580,0,65700,0,0,0,1814484552,63
o,1723548801.634492,10.0.2.15,22,10.0.2.2,52314,1073725440,16362,1026,65535,65700,0,0,4,1460,312,0,16777216,240000,33580,332,65700,0,0,0,1814484552,63
i,1723548801.635633,10.0.2.15,22,10.0.2.2,52314,1073725440,16362,1026,65535,65700,0,0,4,1460,312,0,16777216,240000,33580,332,65700,0,332,0,1814484552,63
i,1723548801.637448,10.0.2.15,22,10.0.2.2,52314,1073725440,16694,1026,65535,65700,0,0,4,1460,312,0,0,240000,33580,0,65700,0,0,0,1814484552,63
o,1723548801.653850,10.0.2.15,22,10.0.2.2,52314,1073725440,16694,1026,65535,65700,0,0,4,1460,312,0,16777216,240000,33580,28,65700,0,0,0,1814484552,63
i,1723548801.655345,10.0.2.15,22,10.0.2.2,52314,1073725440,16694,1026,65535,65700,0,0,4,1460,312,0,16777216,240000,33580,28,65700,0,28,0,1814484552,63
i,1723548801.655366,10.0.2.15,22,10.0.2.2,52314,1073725440,16722,1026,65535,65700,0,0,4,1460,312,0,0,240000,33580,0,65700,0,0,0,1814484552,63
o,1723548801.656678,10.0.2.15,22,10.0.2.2,52314,1073725440,16722,1026,65535,65700,0,0,4,1460,312,0,16777216,240000,33580,768,65700,112,0,0,1814484552,63
i,1723548801.657594,10.0.2.15,22,10.0.2.2,52314,1073725440,16722,1026,65535,65700,0,0,4,1460,312,0,16777216,240000,33580,908,65700,112,768,0,1814484552,63
o,1723548801.657616,10.0.2.15,22,10.0.2.2,52314,1073725440,17490,1026,65535,65700,0,0,4,1460,312,0,16777216,240000,33580,140,65700,112,0,0,1814484552,63
i,1723548801.658614,10.0.2.15,22,10.0.2.2,52314,1073725440,17490,1026,65535,65700,0,0,4,1460,312,0,16777216,240000,33580,184,65700,0,140,0,1814484552,63
o,1723548801.658631,10.0.2.15,22,10.0.2.2,52314,1073725440,17630,1026,65535,65700,0,0,4,1460,312,0,16777216,240000,33580,44,65700,0,0,0,1814484552,63
i,1723548801.659229,10.0.2.15,22,10.0.2.2,52314,1073725440,17630,1026,65535,65700,0,0,4,1460,312,0,16777216,240000,33580,44,65700,0,44,0,1814484552,63
i,1723548801.659596,10.0.2.15,22,10.0.2.2,52314,1073725440,17674,1026,65535,65700,0,0,4,1460,312,0,0,240000,33580,0,65700,0,0,0,1814484552,63
o,1723548801.660139,10.0.2.15,22,10.0.2.2,52314,1073725440,17674,1026,65535,65700,0,0,4,1460,312,0,16777220,240000,33580,72,65700,0,0,0,1814484552,63
i,1723548801.660965,10.0.2.15,22,10.0.2.2,52314,1073725440,17674,1026,65535,65700,0,0,4,1460,312,0,16777220,240000,33580,72,65700,0,72,0,1814484552,63
o,1723548801.663040,10.0.2.15,22,10.0.2.2,52314,1073725440,17746,1026,65535,65700,0,0,4,1460,312,0,16777220,240000,33580,104,65700,0,0,0,1814484552,63
i,1723548801.663640,10.0.2.15,22,10.0.2.2,52314,1073725440,17746,1026,65535,65700,0,0,4,1460,312,0,16777220,240000,33580,104,65700,0,104,0,1814484552,63
o,1723548801.663833,10.0.2.15,22,10.0.2.2,52314,1073725440,17850,1026,65535,65700,0,0,4,1460,312,0,16777220,240000,33580,72,65700,0,0,0,1814484552,63
i,1723548801.664656,10.0.2.15,22,10.0.2.2,52314,1073725440,17850,1026,65535,65700,0,0,4,1460,312,0,16777220,240000,33580,72,65700,0,72,0,1814484552,63
i,1723548801.664694,10.0.2.15,22,10.0.2.2,52314,1073725440,17922,1026,65535,65700,0,0,4,1460,312,0,4,240000,33580,0,65700,0,0,0,1814484552,63
i,1723548801.664726,10.0.2.15,22,10.0.2.2,52314,1073725440,17922,1026,65535,65700,0,0,4,1460,312,0,4,240000,33580,0,65700,96,0,0,1814484552,63
o,1723548801.664758,10.0.2.15,22,10.0.2.2,52314,1073725440,17922,1026,65535,65604,0,0,5,1460,312,0,5,240000,33580,0,65700,96,0,0,1814484552,63
o,1723548801.666258,10.0.2.15,22,10.0.2.2,52314,1073725440,17922,1026,65535,65604,0,0,8,1460,312,0,4,240000,33580,0,65700,0,0,0,1814484552,63
i,1723548801.666818,10.0.2.15,22,10.0.2.2,52314,1073725440,17922,1026,65535,65604,0,0,8,1460,312,0,67108884,240000,33580,0,65700,0,1,0,1814484552,63
i,1723548803.818855,10.0.2.15,22,10.0.2.2,52226,1073725440,18862,1026,65535,65700,0,0,4,1460,312,0,4,230000,33580,0,65700,0,0,0,679917009,63
i,1723548803.844494,10.0.2.15,22,10.0.2.2,52226,1073725440,14600,0,65535,65700,0,0,4,1460,312,0,16777216,260000,33580,0,65700,0,0,0,679917009,63
o,1723548803.866535,10.0.2.15,22,10.0.2.2,52226,1073725440,14600,1026,65535,65700,0,0,4,1460,312,0,16777216,260000,33580,38,65700,42,0,0,679917009,63
i,1723548803.866994,10.0.2.15,22,10.0.2.2,52226,1073725440,14600,1026,65535,65700,0,0,4,1460,312,0,16777216,260000,33580,38,65700,0,38,0,679917009,63
i,1723548803.867398,10.0.2.15,22,10.0.2.2,52226,1073725440,14638,1026,65535,65700,0,0,4,1460,312,0,0,230000,33580,0,65700,0,0,0,679917009,63
i,1723548803.867417,10.0.2.15,22,10.0.2.2,52226,1073725440,14638,1026,65535,65700,0,0,4,1460,312,0,0,230000,33580,0,65700,1460,0,0,679917009,63
o,1723548803.867438,10.0.2.15,22,10.0.2.2,52226,1073725440,14638,1026,65535,65700,0,0,4,1460,312,0,1,230000,33580,0,65700,1536,0,0,679917009,63
o,1723548803.868893,10.0.2.15,22,10.0.2.2,52226,1073725440,14638,1026,65535,65700,0,0,4,1460,312,0,16777216,230000,33580,1120,65700,1536,0,0,679917009,63
i,1723548803.869317,10.0.2.15,22,10.0.2.2,52226,1073725440,14638,1026,65535,65700,0,0,4,1460,312,0,16777216,230000,33580,1120,65700,0,1120,0,679917009,63
i,1723548803.872158,10.0.2.15,22,10.0.2.2,52226,1073725440,15758,1026,65535,65700,0,0,4,1460,312,0,0,230000,33580,0,65700,0,0,0,679917009,63
o,1723548803.876793,10.0.2.15,22,10.0.2.2,52226,1073725440,15758,1026,65535,65700,0,0,4,1460,312,0,16777216,230000,33580,492,65700,0,0,0,679917009,63
i,1723548803.877366,10.0.2.15,22,10.0.2.2,52226,1073725440,15758,1026,65535,65700,0,0,4,1460,312,0,16777216,230000,33580,492,65700,0,492,0,679917009,63
i,1723548803.881867,10.0.2.15,22,10.0.2.2,52226,1073725440,16250,1026,65535,65700,0,0,4,1460,312,0,0,240000,33580,0,65700,0,0,0,679917009,63
o,1723548803.882012,10.0.2.15,22,10.0.2.2,52226,1073725440,16250,1026,65535,65700,0,0,4,1460,312,0,16777216,240000,33580,44,65700,0,0,0,679917009,63
i,1723548803.882766,10.0.2.15,22,10.0.2.2,52226,1073725440,16250,1026,65535,65700,0,0,4,1460,312,0,16777216,240000,33580,44,65700,0,44,0,679917009,63
i,1723548803.882786,10.0.2.15,22,10.0.2.2,52226,1073725440,16294,1026,65535,65700,0,0,4,1460,312,0,0,240000,33580,0,65700,0,0,0,679917009,63
o,1723548803.885228,10.0.2.15,22,10.0.2.2,52226,1073725440,16294,1026,65535,65700,0,0,4,1460,312,0,16777216,240000,33580,68,65700,0,0,0,679917009,63
i,1723548803.885534,10.0.2.15,22,10.0.2.2,52226,1073725440,16294,1026,65535,65700,0,0,4,1460,312,0,16777216,240000,33580,68,65700,0,68,0,679917009,63
i,1723548803.885534,10.0.2.15,22,10.0.2.2,52226,1073725440,16362,1026,65535,65700,0,0,4,1460,312,0,0,240000,33580,0,65700,0,0,0,679917009,63
o,1723548803.888263,10.0.2.15,22,10.0.2.2,52226,1073725440,16362,1026,65535,65700,0,0,4,1460,312,0,16777216,240000,33580,332,65700,0,0,0,679917009,63
i,1723548803.889131,10.0.2.15,22,10.0.2.2,52226,1073725440,16362,1026,65535,65700,0,0,4,1460,312,0,16777216,240000,33580,332,65700,0,332,0,679917009,63
i,1723548803.890250,10.0.2.15,22,10.0.2.2,52226,1073725440,16694,1026,65535,65700,0,0,4,1460,312,0,0,240000,33580,0,65700,0,0,0,679917009,63
o,1723548803.906186,10.0.2.15,22,10.0.2.2,52226,1073725440,16694,1026,65535,65700,0,0,4,1460,312,0,16777216,240000,33580,28,65700,0,0,0,679917009,63
i,1723548803.906989,10.0.2.15,22,10.0.2.2,52226,1073725440,16694,1026,65535,65700,0,0,4,1460,312,0,16777216,240000,33580,28,65700,0,28,0,679917009,63
i,1723548803.906998,10.0.2.15,22,10.0.2.2,52226,1073725440,16722,1026,65535,65700,0,0,4,1460,312,0,0,240000,33580,0,65700,0,0,0,679917009,63
o,1723548803.909125,10.0.2.15,22,10.0.2.2,52226,1073725440,16722,1026,65535,65700,0,0,4,1460,312,0,16777216,240000,33580,768,65700,112,0,0,679917009,63
i,1723548803.910060,10.0.2.15,22,10.0.2.2,52226,1073725440,16722,1026,65535,65700,0,0,4,1460,312,0,16777216,240000,33580,908,65700,112,768,0,679917009,63
o,1723548803.910081,10.0.2.15,22,10.0.2.2,52226,1073725440,17490,1026,65535,65700,0,0,4,1460,312,0,16777216,240000,33580,140,65700,112,0,0,679917009,63
i,1723548803.910473,10.0.2.15,22,10.0.2.2,52226,1073725440,17490,1026,65535,65700,0,0,4,1460,312,0,16777216,240000,33580,140,65700,112,140,0,679917009,63
o,1723548803.911213,10.0.2.15,22,10.0.2.2,52226,1073725440,17630,1026,65535,65700,0,0,4,1460,312,0,16777216,240000,33580,44,65700,0,0,0,679917009,63
i,1723548803.911787,10.0.2.15,22,10.0.2.2,52226,1073725440,17630,1026,65535,65700,0,0,4,1460,312,0,16777216,240000,33580,44,65700,0,44,0,679917009,63
i,1723548803.911805,10.0.2.15,22,10.0.2.2,52226,1073725440,17674,1026,65535,65700,0,0,4,1460,312,0,0,240000,33580,0,65700,0,0,0,679917009,63
o,1723548803.912597,10.0.2.15,22,10.0.2.2,52226,1073725440,17674,1026,65535,65700,0,0,4,1460,312,0,16777220,240000,33580,72,65700,0,0,0,679917009,63
i,1723548803.913112,10.0.2.15,22,10.0.2.2,52226,1073725440,17674,1026,65535,65700,0,0,4,1460,312,0,16777220,240000,33580,72,65700,0,72,0,679917009,63
i,1723548803.913130,10.0.2.15,22,10.0.2.2,52226,1073725440,17746,1026,65535,65700,0,0,4,1460,312,0,4,230000,33580,0,65700,0,0,0,679917009,63
o,1723548803.989428,10.0.2.15,22,10.0.2.2,52226,1073725440,17746,1026,65535,65700,0,0,4,1460,312,0,5,230000,33580,0,65700,0,0,0,679917009,63
o,1723548804.040723,172.16.3.2,28819,172.16.1.2,5101,15375,14480,34,65535,65700,6,6,4,1460,152812,1,16778209,500000,33580,0,65700,0,0,0,3273928852,63
o,1723548804.040924,172.16.3.2,28819,172.16.1.2,5101,15375,14480,34,65535,65700,6,6,4,1460,152812,1,16778212,500000,33580,37,65700,0,0,0,3273928852,63
i,1723548804.166989,172.16.3.2,28819,172.16.1.2,5101,15375,14480,34,65535,65700,6,6,4,1460,152812,1,16778212,500000,33580,37,65700,0,37,0,3273928852,63
o,1723548804.167896,172.16.3.2,28819,172.16.1.2,5101,15375,14517,1058,65728,65728,6,6,4,1460,150000,1,16778212,480000,33580,4,65700,0,0,0,3273928852,63
o,1723548804.168250,172.16.3.2,28819,172.16.1.2,5101,15375,14517,1058,65728,65728,6,6,4,1460,150000,1,16778212,480000,33580,130,65700,0,4,0,3273928852,63
i,1723548804.279014,172.16.3.2,28819,172.16.1.2,5101,15375,14517,1058,65728,65728,6,6,4,1460,150000,1,16778212,480000,33580,130,65700,0,130,0,3273928852,63
i,1723548804.279055,172.16.3.2,28819,172.16.1.2,5101,15375,14647,1058,65600,65728,6,6,4,1460,143750,1,996,490000,33580,0,65700,0,0,0,3273928852,63
o,1723548804.316278,172.16.3.2,28819,172.16.1.2,5101,15375,14647,1058,65728,65728,6,6,4,1460,143750,1,997,490000,33580,0,65700,0,0,0,3273928852,63
o,1723548804.404091,172.16.3.2,17621,172.16.1.2,5101,15375,14480,34,65535,65700,6,6,4,1460,154062,1,16778209,490000,33580,0,65700,0,0,0,46639160,63
o,1723548804.404331,172.16.3.2,17621,172.16.1.2,5101,15375,14480,34,65535,65700,6,6,4,1460,154062,1,16778208,490000,33580,37,65700,0,0,0,46639160,63
i,1723548804.499479,172.16.3.2,28819,172.16.1.2,5101,15375,14647,1058,65728,65728,6,6,4,1460,143750,1,996,490000,33580,0,65700,0,0,0,3273928852,63
i,1723548804.499524,172.16.3.2,28819,172.16.1.2,5101,15375,14647,1058,65728,65728,6,6,4,1460,143750,1,996,490000,33580,0,65700,1,0,0,3273928852,63
o,1723548804.499550,172.16.3.2,28819,172.16.1.2,5101,15375,14647,1058,65728,65728,6,6,4,1460,143750,1,997,490000,33580,0,65700,2,0,0,3273928852,63
o,1723548804.500807,172.16.3.2,17621,172.16.1.2,5101,15375,14480,38,65535,65700,6,6,4,1460,154062,1,16778208,490000,33580,33580,65700,0,37,0,46639160,63
i,1723548804.567496,172.16.3.2,17621,172.16.1.2,5101,15375,14480,38,65535,65700,6,6,4,1460,154062,1,16778208,490000,33580,33580,65700,0,13069,0,46639160,63
o,1723548804.567569,172.16.3.2,17621,172.16.1.2,5101,15375,14517,38,65728,65728,6,6,4,1460,155000,1,16778208,460000,33580,33543,65700,0,13032,0,46639160,63
i,1723548804.850792,172.16.3.2,17621,172.16.1.2,5101,15375,14517,38,65728,65728,6,6,4,1460,155000,1,16778208,460000,33580,33543,65700,0,14480,0,46639160,63
o,1723548804.850878,172.16.3.2,17621,172.16.1.2,5101,15375,17413,38,64256,65728,6,6,4,1460,179375,1,16778208,650000,33580,30647,65700,0,11584,0,46639160,63
i,1723548804.908222,172.16.3.2,17621,172.16.1.2,5101,15375,17413,38,64256,65728,6,6,4,1460,179375,1,16778208,650000,41772,41772,65700,0,17376,0,46639160,63
o,1723548804.908324,172.16.3.2,17621,172.16.1.2,5101,15375,20309,38,64256,65728,6,6,4,1460,208437,1,16778208,850000,41772,38876,65700,0,14480,0,46639160,63
i,1723548804.950062,172.16.3.2,17621,172.16.1.2,5101,15375,20309,38,64256,65728,6,6,4,1460,208437,1,16778208,850000,49964,49964,65700,0,20272,0,46639160,63
o,1723548804.950084,172.16.3.2,17621,172.16.1.2,5101,15375,23205,38,64256,65728,6,6,4,1460,238750,1,16778208,1010000,49964,47068,65700,0,17376,0,46639160,63
i,1723548805.007912,172.16.3.2,17621,172.16.1.2,5101,15375,23205,38,64256,65728,6,6,4,1460,238750,1,16778208,1010000,49964,49964,65700,0,23168,0,46639160,63
o,1723548805.007950,172.16.3.2,17621,172.16.1.2,5101,15375,26101,38,64256,65728,6,6,4,1460,272812,1,16778208,1170000,49964,47068,65700,0,20272,0,46639160,63
i,1723548805.069463,172.16.3.2,17621,172.16.1.2,5101,15375,26101,38,64256,65728,6,6,4,1460,272812,1,16778208,1170000,58156,58156,65700,0,26064,0,46639160,63
o,1723548805.069583,172.16.3.2,17621,172.16.1.2,5101,15375,28997,38,64256,65728,6,6,4,1460,310000,1,16778208,1330000,58156,55260,65700,0,23168,0,46639160,63
o,1723548805.069770,172.16.3.2,17621,172.16.1.2,5101,15375,28997,38,64256,65728,6,6,4,1460,310000,1,16778208,1330000,58156,55260,65700,0,24616,0,46639160,63
i,1723548805.434898,172.16.3.2,17621,172.16.1.2,5101,15375,28997,38,64256,65728,6,6,4,1460,310000,1,16778208,1330000,66348,66348,65700,0,28960,0,46639160,63
o,1723548805.434963,172.16.3.2,17621,172.16.1.2,5101,15375,30408,34,64256,65728,6,6,4,1460,310000,1,16778208,1330000,66348,66348,65700,0,28960,0,46639160,63
i,1723548805.457832,172.16.3.2,17621,172.16.1.2,5101,15375,28997,34,64256,65728,6,6,4,1460,310000,1,16778208,1330000,66348,66348,65700,0,30408,0,46639160,63
o,1723548805.457854,172.16.3.2,17621,172.16.1.2,5101,15375,31856,34,64256,65728,6,6,4,1460,310000,1,16778208,1330000,66348,66348,65700,0,30408,0,46639160,63
i,1723548805.550451,172.16.3.2,17621,172.16.1.2,5101,15375,28997,34,64256,65728,6,6,4,1460,310000,1,16778208,1330000,66348,66348,65700,0,31856,0,46639160,63
o,1723548805.550481,172.16.3.2,17621,172.16.1.2,5101,14498,1448,98,64256,65728,6,6,4,1460,310000,1,554697696,1330000,66348,66348,65700,0,31856,0,46639160,63
i,1723548805.577379,172.16.3.2,17621,172.16.1.2,5101,14498,1448,98,64256,65728,6,6,4,1460,310000,1,554697696,1330000,66348,66348,65700,0,31856,0,46639160,63
i,1723548805.611319,172.16.3.2,17621,172.16.1.2,5101,14498,1448,98,64256,65728,6,6,4,1460,310000,1,554697696,1330000,66348,66348,65700,0,31856,0,46639160,63
o,1723548805.611344,172.16.3.2,17621,172.16.1.2,5101,14498,2896,34,64256,65728,6,6,4,1460,310000,1,554697696,1330000,66348,66348,65700,0,31856,0,46639160,63
i,1723548805.652962,172.16.3.2,17621,172.16.1.2,5101,14498,2896,34,64256,65728,6,6,4,1460,310000,1,554697696,1330000,66348,66348,65700,0,33304,0,46639160,63
o,1723548805.652989,172.16.3.2,17621,172.16.1.2,5101,14498,2896,34,64256,65728,6,6,4,1460,310000,1,554697696,1330000,66348,66348,65700,0,33304,0,46639160,63
i,1723548805.653119,172.16.3.2,17621,172.16.1.2,5101,14498,2896,34,64256,65728,6,6,4,1460,310000,1,554697696,1330000,66348,66348,65700,0,33304,0,46639160,63
i,1723548805.688438,172.16.3.2,17621,172.16.1.2,5101,14498,4344,34,64256,65728,6,6,4,1460,310000,1,554697696,1330000,66348,66348,65700,0,33304,0,46639160,63
o,1723548805.688472,172.16.3.2,17621,172.16.1.2,5101,14498,4344,34,64256,65728,6,6,4,1460,310000,1,554697696,1330000,66348,66348,65700,0,33304,0,46639160,63
i,1723548805.688635,172.16.3.2,17621,172.16.1.2,5101,14498,4344,34,64256,65728,6,6,4,1460,310000,1,554697696,1330000,66348,66348,65700,0,33304,0,46639160,63
o,1723548805.688673,172.16.3.2,17621,172.16.1.2,5101,14498,5792,34,64256,65728,6,6,4,1460,310000,1,554697696,1330000,66348,66348,65700,0,33304,0,46639160,63
i,1723548805.689695,172.16.3.2,17621,172.16.1.2,5101,14498,5792,34,64256,65728,6,6,4,1460,310000,1,554697696,1330000,66348,66348,65700,0,33304,0,46639160,63
o,1723548805.689712,172.16.3.2,17621,172.16.1.2,5101,14498,7240,34,64256,65728,6,6,4,1460,310000,1,554697696,1330000,66348,66348,65700,0,33304,0,46639160,63
i,1723548805.718923,172.16.3.2,17621,172.16.1.2,5101,14498,7240,34,64256,65728,6,6,4,1460,310000,1,554697696,1330000,66348,66348,65700,0,33304,0,46639160,63
i,1723548805.747125,172.16.3.2,17621,172.16.1.2,5101,14498,8688,34,64256,65728,6,6,4,1460,310000,1,554697696,1330000,66348,66348,65700,0,33304,0,46639160,63
o,1723548805.747168,172.16.3.2,17621,172.16.1.2,5101,14498,8688,34,64256,65728,6,6,4,1460,310000,1,554697696,1330000,66348,66348,65700,0,33304,0,46639160,63
i,1723548805.836251,172.16.3.2,17621,172.16.1.2,5101,14498,8688,34,64256,65728,6,6,4,1460,310000,1,554697696,1330000,66348,66348,65700,0,33304,0,46639160,63
o,1723548805.836499,172.16.3.2,17621,172.16.1.2,5101,14498,10136,34,64256,65728,6,6,4,1460,310000,1,554697696,1330000,66348,66348,65700,0,33304,0,46639160,63
i,1723548805.837379,172.16.3.2,17621,172.16.1.2,5101,14498,10136,34,64256,65728,6,6,4,1460,310000,1,554697696,1330000,66348,66348,65700,0,33304,0,46639160,63
o,1723548805.837526,172.16.3.2,17621,172.16.1.2,5101,14498,10136,34,64256,65728,6,6,4,1460,310000,1,554697697,1330000,66348,66348,65700,0,33304,0,46639160,63
i,1723548805.838010,172.16.3.2,17621,172.16.1.2,5101,14498,10136,34,57088,65728,6,6,4,1460,307500,1,554697696,1150000,66348,57660,65700,0,24616,0,46639160,63
o,1723548805.838110,172.16.3.2,17621,172.16.1.2,5101,14498,10136,34,57088,65728,6,6,4,1460,307500,1,554697697,1150000,66348,57660,65700,0,24616,0,46639160,63
i,1723548805.878986,172.16.3.2,17621,172.16.1.2,5101,14498,10136,34,61376,65728,6,6,4,1460,291562,1,554697696,1100000,66348,66348,65700,0,20272,0,46639160,63
i,1723548805.929820,172.16.3.2,17621,172.16.1.2,5101,14498,10136,34,61376,65728,6,6,4,1460,291562,1,537920480,1100000,66348,66348,65700,0,20272,0,46639160,63
i,1723548805.985146,172.16.3.2,17621,172.16.1.2,5101,14498,8688,34,61376,65728,6,6,4,1460,291562,1,537920480,1100000,66348,66348,65700,0,20272,0,46639160,63
o,1723548805.985284,172.16.3.2,17621,172.16.1.2,5101,14498,8688,34,61376,65728,6,6,4,1460,291562,1,554697696,1100000,66348,66348,65700,0,20272,0,46639160,63
i,1723548805.985991,172.16.3.2,17621,172.16.1.2,5101,14498,8688,34,61376,65728,6,6,4,1460,291562,1,554697696,1100000,66348,66348,65700,0,21720,0,46639160,63
o,1723548805.986051,172.16.3.2,17621,172.16.1.2,5101,14498,10136,38,61376,65728,6,6,4,1460,291562,1,554697696,1100000,66348,66348,65700,0,21720,0,46639160,63
i,1723548806.020150,172.16.3.2,17621,172.16.1.2,5101,14498,10136,38,61376,65728,6,6,4,1460,291562,1,554697696,1100000,66348,66348,65700,0,24616,0,46639160,63
o,1723548806.020224,172.16.3.2,17621,172.16.1.2,5101,14498,11584,38,61376,65728,6,6,4,1460,291562,1,554697696,1100000,66348,66348,65700,0,24616,0,46639160,63
i,1723548806.177966,172.16.3.2,17621,172.16.1.2,5101,14498,11584,38,61376,65728,6,6,4,1460,291562,1,554697696,1100000,66348,66348,65700,0,27512,0,46639160,63
o,1723548806.177996,172.16.3.2,17621,172.16.1.2,5101,14498,13032,34,61376,65728,6,6,4,1460,291562,1,554697696,1100000,66348,66348,65700,0,27512,0,46639160,63
i,1723548806.178120,172.16.3.2,17621,172.16.1.2,5101,14498,13032,34,61376,65728,6,6,4,1460,291562,1,554697696,1100000,66348,66348,65700,0,28960,0,46639160,63
o,1723548806.178153,172.16.3.2,17621,172.16.1.2,5101,14498,14480,34,61376,65728,6,6,4,1460,291562,1,554697696,1100000,66348,66348,65700,0,28960,0,46639160,63
i,1723548806.215093,172.16.3.2,17621,172.16.1.2,5101,14498,14480,34,61376,65728,6,6,4,1460,291562,1,554697696,1100000,66348,66348,65700,0,30408,0,46639160,63
o,1723548806.215134,172.16.3.2,17621,172.16.1.2,5101,14498,15928,34,61376,65728,6,6,4,1460,291562,1,554697696,1100000,66348,66348,65700,0,30408,0,46639160,63
i,1723548806.215407,172.16.3.2,17621,172.16.1.2,5101,14498,15928,34,61376,65728,6,6,4,1460,291562,1,554697696,1100000,66348,66348,65700,0,31856,0,46639160,63
o,1723548806.215442,172.16.3.2,17621,172.16.1.2,5101,14498,17376,34,61376,65728,6,6,4,1460,291562,1,554697696,1100000,66348,66348,65700,0,31856,0,46639160,63
i,1723548806.267687,172.16.3.2,17621,172.16.1.2,5101,14498,17376,34,61376,65728,6,6,4,1460,291562,1,554697696,1100000,66348,66348,65700,0,33304,0,46639160,63
o,1723548806.267804,172.16.3.2,17621,172.16.1.2,5101,14498,18824,34,61376,65728,6,6,4,1460,291562,1,554697696,1100000,66348,66348,65700,0,33304,0,46639160,63
i,1723548806.357358,172.16.3.2,17621,172.16.1.2,5101,14498,18824,34,61376,65728,6,6,4,1460,291562,1,554697696,1100000,66348,66348,65700,0,34752,0,46639160,63
o,1723548806.357406,172.16.3.2,17621,172.16.1.2,5101,14498,20272,34,61376,65728,6,6,4,1460,291562,1,554697696,1100000,66348,66348,65700,0,34752,0,46639160,63
i,1723548806.386502,172.16.3.2,17621,172.16.1.2,5101,14498,20272,34,61376,65728,6,6,4,1460,291562,1,554697696,1100000,66348,66348,65700,0,36200,0,46639160,63
o,1723548806.386938,172.16.3.2,17621,172.16.1.2,5101,14498,21720,34,61376,65728,6,6,4,1460,291562,1,554697696,1100000,66348,66348,65700,0,36200,0,46639160,63
i,1723548806.413240,172.16.3.2,17621,172.16.1.2,5101,14498,21720,34,61376,65728,6,6,4,1460,291562,1,554697696,1100000,66348,66348,65700,0,37648,0,46639160,63
o,1723548806.413277,172.16.3.2,17621,172.16.1.2,5101,14498,23168,34,61376,65728,6,6,4,1460,291562,1,554697696,1100000,66348,66348,65700,0,37648,0,46639160,63
i,1723548806.467013,172.16.3.2,17621,172.16.1.2,5101,14498,23168,34,61376,65728,6,6,4,1460,291562,1,554697696,1100000,66348,66348,65700,0,39096,0,46639160,63
o,1723548806.467052,172.16.3.2,17621,172.16.1.2,5101,14498,24616,34,61376,65728,6,6,4,1460,291562,1,554697696,1100000,66348,66348,65700,0,39096,0,46639160,63
i,1723548806.518458,172.16.3.2,17621,172.16.1.2,5101,14498,24616,34,61376,65728,6,6,4,1460,291562,1,554697696,1100000,66348,66348,65700,0,40544,0,46639160,63
o,1723548806.518497,172.16.3.2,17621,172.16.1.2,5101,14498,26064,34,61376,65728,6,6,4,1460,291562,1,554697696,1100000,74540,66348,65700,0,40544,0,46639160,63
i,1723548806.568427,172.16.3.2,17621,172.16.1.2,5101,14498,26064,34,61376,65728,6,6,4,1460,291562,1,554697696,1100000,74540,66348,65700,0,41992,0,46639160,63
o,1723548806.568451,172.16.3.2,17621,172.16.1.2,5101,14498,27512,34,61376,65728,6,6,4,1460,291562,1,554697696,1100000,82732,66348,65700,0,41992,0,46639160,63
i,1723548806.597352,172.16.3.2,17621,172.16.1.2,5101,14498,27512,34,61376,65728,6,6,4,1460,291562,1,554697696,1100000,82732,66348,65700,0,43440,0,46639160,63
o,1723548806.597370,172.16.3.2,17621,172.16.1.2,5101,14498,28960,34,61376,65728,6,6,4,1460,291562,1,554697696,1100000,82732,66348,65700,0,43440,0,46639160,63
i,1723548806.647255,172.16.3.2,17621,172.16.1.2,5101,14498,28960,34,61376,65728,6,6,4,1460,291562,1,554697696,1100000,82732,66348,65700,0,44888,0,46639160,63
o,1723548806.647277,172.16.3.2,17621,172.16.1.2,5101,14498,30408,34,61376,65728,6,6,4,1460,291562,1,554697696,1100000,82732,66348,65700,0,44888,0,46639160,63
i,1723548806.704253,172.16.3.2,17621,172.16.1.2,5101,14498,30408,34,61376,65728,6,6,4,1460,291562,1,554697696,1100000,82732,66348,65700,0,46336,0,46639160,63
o,1723548806.704274,172.16.3.2,17621,172.16.1.2,5101,14498,31856,34,61376,65728,6,6,4,1460,291562,1,554697696,1100000,82732,66348,65700,0,46336,0,46639160,63
i,1723548806.797650,172.16.3.2,17621,172.16.1.2,5101,14498,31856,34,61376,65728,6,6,4,1460,291562,1,554697696,1100000,82732,66348,65700,0,47784,0,46639160,63
o,1723548806.797676,172.16.3.2,17621,172.16.1.2,5101,14498,33304,34,61376,65728,6,6,4,1460,291562,1,554697696,1100000,82732,66348,65700,0,47784,0,46639160,63
i,1723548806.827335,172.16.3.2,17621,172.16.1.2,5101,14498,33304,34,61376,65728,6,6,4,1460,291562,1,554697696,1100000,82732,66348,65700,0,49232,0,46639160,63
o,1723548806.827361,172.16.3.2,17621,172.16.1.2,5101,14498,34752,34,61376,65728,6,6,4,1460,291562,1,554697696,1100000,82732,66348,65700,0,49232,0,46639160,63
i,1723548806.873353,172.16.3.2,17621,172.16.1.2,5101,14498,34752,34,61376,65728,6,6,4,1460,291562,1,554697696,1100000,82732,66348,65700,0,50680,0,46639160,63
o,1723548806.873403,172.16.3.2,17621,172.16.1.2,5101,14498,36200,34,61376,65728,6,6,4,1460,291562,1,554697696,1100000,82732,66348,65700,0,50680,0,46639160,63
i,1723548806.897958,172.16.3.2,17621,172.16.1.2,5101,14498,36200,34,61376,65728,6,6,4,1460,291562,1,554697696,1100000,82732,66348,65700,0,52128,0,46639160,63
o,1723548806.898064,172.16.3.2,17621,172.16.1.2,5101,14498,37648,34,61376,65728,6,6,4,1460,291562,1,554697696,1100000,82732,66348,65700,0,52128,0,46639160,63
o,1723548806.941542,172.16.3.2,17621,172.16.1.2,5101,26324,1448,98,61376,65728,6,6,4,1460,291562,1,1092625377,2000000,82732,66348,65700,0,53576,0,46639160,63
i,1723548806.958269,172.16.3.2,17621,172.16.1.2,5101,26324,1448,98,61376,65728,6,6,4,1460,291562,1,1092625376,2000000,82732,66348,65700,0,53576,0,46639160,63
o,1723548806.958375,172.16.3.2,17621,172.16.1.2,5101,14498,39096,98,61376,65728,6,6,4,1460,291562,1,1630536672,2000000,82732,66348,65700,0,53576,0,46639160,63
o,1723548806.959266,172.16.3.2,17621,172.16.1.2,5101,14498,39096,98,61376,65728,6,6,4,1460,291562,1,1630536672,2000000,82732,66348,65700,0,53576,0,46639160,63
o,1723548806.959762,172.16.3.2,17621,172.16.1.2,5101,14498,39096,34,61376,65728,6,6,4,1460,291562,1,1630536672,2000000,82732,66348,65700,0,53576,0,46639160,63
i,1723548807.009154,172.16.3.2,17621,172.16.1.2,5101,14498,39096,34,61376,65728,6,6,4,1460,291562,1,1630536672,2000000,82732,66348,65700,0,55024,0,46639160,63
o,1723548807.009224,172.16.3.2,17621,172.16.1.2,5101,14498,40544,34,61376,65728,6,6,4,1460,291562,1,1630536672,2000000,82732,66348,65700,0,55024,0,46639160,63
i,1723548807.078964,172.16.3.2,17621,172.16.1.2,5101,14498,40544,34,61376,65728,6,6,4,1460,291562,1,1630536672,2000000,82732,66348,65700,0,56472,0,46639160,63
o,1723548807.078994,172.16.3.2,17621,172.16.1.2,5101,14498,41992,34,61376,65728,6,6,4,1460,291562,1,1630536672,2000000,82732,66348,65700,0,56472,0,46639160,63
i,1723548807.134749,172.16.3.2,17621,172.16.1.2,5101,14498,41992,34,61376,65728,6,6,4,1460,291562,1,1630536672,2000000,82732,66348,65700,0,57920,0,46639160,63
o,1723548807.134840,172.16.3.2,17621,172.16.1.2,5101,14498,43440,34,61376,65728,6,6,4,1460,291562,1,1630536672,2000000,82732,66348,65700,0,57920,0,46639160,63
i,1723548807.216853,172.16.3.2,17621,172.16.1.2,5101,14498,43440,34,61376,65728,6,6,4,1460,291562,1,1630536672,2000000,82732,66348,65700,0,59368,0,46639160,63
o,1723548807.216898,172.16.3.2,17621,172.16.1.2,5101,14498,44888,34,61376,65728,6,6,4,1460,291562,1,1630536672,2000000,82732,66348,65700,0,59368,0,46639160,63
i,1723548807.267914,172.16.3.2,17621,172.16.1.2,5101,14498,44888,34,61376,65728,6,6,4,1460,291562,1,1630536672,2000000,82732,66348,65700,0,60816,0,46639160,63
o,1723548807.267943,172.16.3.2,17621,172.16.1.2,5101,14498,43440,34,61376,65728,6,6,4,1460,291562,1,1630536673,2000000,82732,66348,65700,0,60816,0,46639160,63
i,1723548807.340324,172.16.3.2,17621,172.16.1.2,5101,14498,43440,34,61440,65728,6,6,4,1460,295312,1,1630536672,980000,82732,82732,65700,0,56472,0,46639160,63
i,1723548807.370157,172.16.3.2,17621,172.16.1.2,5101,14498,43440,34,65728,65728,6,6,4,1460,295312,1,1630536672,980000,82732,82732,65700,0,56472,0,46639160,63
i,1723548807.403478,172.16.3.2,17621,172.16.1.2,5101,14498,10148,34,51264,65728,6,6,4,1460,309687,1,1092617184,990000,82732,82732,65700,0,41992,0,46639160,63
o,1723548807.403510,172.16.3.2,17621,172.16.1.2,5101,4301,1448,98,51264,65728,6,6,4,1460,309687,1,1630536672,990000,82732,82732,65700,0,41992,0,46639160,63
i,1723548807.418241,172.16.3.2,17621,172.16.1.2,5101,4301,1448,98,51264,65728,6,6,4,1460,309687,1,1630536672,990000,82732,82732,65700,0,41992,0,46639160,63
i,1723548807.467005,172.16.3.2,17621,172.16.1.2,5101,4301,1448,98,51264,65728,6,6,4,1460,309687,1,1630536672,990000,82732,82732,65700,0,41992,0,46639160,63
i,1723548807.508385,172.16.3.2,17621,172.16.1.2,5101,4301,1448,98,51264,65728,6,6,4,1460,309687,1,1613759456,990000,82732,82732,65700,0,41992,0,46639160,63
i,1723548807.549112,172.16.3.2,17621,172.16.1.2,5101,4301,1448,98,51264,65728,6,6,4,1460,309687,1,1613759456,990000,82732,82732,65700,0,41992,0,46639160,63
i,1723548807.618788,172.16.3.2,17621,172.16.1.2,5101,4301,1448,98,51264,65728,6,6,4,1460,309687,1,1613759456,990000,82732,82732,65700,0,41992,0,46639160,63
o,1723548807.618896,172.16.3.2,17621,172.16.1.2,5101,4301,2920,38,23744,65728,6,6,4,1460,297500,1,1092617184,950000,82732,40740,65700,0,0,0,46639160,63
o,1723548807.619115,172.16.3.2,17621,172.16.1.2,5101,4301,2920,38,23744,65728,6,6,4,1460,297500,1,1092617184,950000,82732,40740,65700,0,1448,0,46639160,63
i,1723548807.619292,172.16.3.2,17621,172.16.1.2,5101,4301,2920,38,23744,65728,6,6,4,1460,297500,1,1092617184,950000,82732,40740,65700,0,2896,0,46639160,63
o,1723548807.619320,172.16.3.2,17621,172.16.1.2,5101,4301,4344,34,23744,65728,6,6,4,1460,297500,1,1092617184,950000,82732,40740,65700,0,2896,0,46639160,63
i,1723548807.787216,172.16.3.2,17621,172.16.1.2,5101,4301,2920,34,23744,65728,6,6,4,1460,297500,1,1092617184,950000,82732,82732,65700,0,4344,0,46639160,63
o,1723548807.787288,172.16.3.2,17621,172.16.1.2,5101,4301,4368,38,65728,65728,6,6,4,1460,281562,1,1092617184,950000,82732,81284,65700,0,2896,0,46639160,63
i,1723548807.838767,172.16.3.2,17621,172.16.1.2,5101,4301,4368,38,65728,65728,6,6,4,1460,281562,1,1092617184,950000,82732,81284,65700,0,4344,0,46639160,63
o,1723548807.838867,172.16.3.2,17621,172.16.1.2,5101,4301,4554,38,64256,65728,6,6,4,1460,274062,1,1092617184,880000,82732,78388,65700,0,1448,0,46639160,63
i,1723548807.977695,172.16.3.2,17621,172.16.1.2,5101,4301,4554,38,64256,65728,6,6,4,1460,274062,1,1092617184,880000,82732,82732,65700,0,4344,0,46639160,63
o,1723548807.977788,172.16.3.2,17621,172.16.1.2,5101,4301,4557,38,65728,65728,6,6,4,1460,263750,1,1092617184,850000,82732,81284,65700,0,2896,0,46639160,63
i,1723548808.003885,172.16.3.2,17621,172.16.1.2,5101,4301,4557,38,65728,65728,6,6,4,1460,263750,1,1092617184,850000,82732,81284,65700,0,4344,0,46639160,63
o,1723548808.003909,172.16.3.2,17621,172.16.1.2,5101,4301,4633,38,64256,65728,6,6,4,1460,250937,1,1092617184,850000,82732,78388,65700,0,1448,0,46639160,63
i,1723548808.159205,172.16.3.2,17621,172.16.1.2,5101,4301,4633,38,64256,65728,6,6,4,1460,250937,1,1092617184,850000,82732,82732,65700,0,4344,0,46639160,63
o,1723548808.159298,172.16.3.2,17621,172.16.1.2,5101,4301,5011,38,64256,65728,6,6,4,1460,242187,1,1092617184,810000,82732,79836,65700,0,1448,0,46639160,63
o,1723548808.159447,172.16.3.2,17621,172.16.1.2,5101,4301,5011,38,64256,65728,6,6,4,1460,242187,1,1092617184,810000,82732,79836,65700,0,2896,0,46639160,63
i,1723548808.249105,172.16.3.2,17621,172.16.1.2,5101,4301,5011,38,64256,65728,6,6,4,1460,242187,1,1092617184,810000,82732,82732,65700,0,4344,0,46639160,63
o,1723548808.249187,172.16.3.2,17621,172.16.1.2,5101,4301,5238,38,65728,65728,6,6,4,1460,242187,1,1092617184,710000,82732,81284,65700,0,2896,0,46639160,63
i,1723548808.338215,172.16.3.2,17621,172.16.1.2,5101,4301,5238,38,65728,65728,6,6,4,1460,242187,1,1092617184,710000,82732,81284,65700,0,4344,0,46639160,63
o,1723548808.338325,172.16.3.2,17621,172.16.1.2,5101,4301,5465,38,64256,65728,6,6,4,1460,234687,1,1092617184,700000,82732,78388,65700,0,1448,0,46639160,63
o,1723548808.338578,172.16.3.2,17621,172.16.1.2,5101,4301,5465,38,64256,65728,6,6,4,1460,234687,1,1092617184,700000,82732,78388,65700,0,2896,0,46639160,63
i,1723548808.449667,172.16.3.2,17621,172.16.1.2,5101,4301,5465,38,64256,65728,6,6,4,1460,234687,1,1092617184,700000,82732,82732,65700,0,4344,0,46639160,63
o,1723548808.449725,172.16.3.2,17621,172.16.1.2,5101,4301,5742,38,65728,65728,6,6,4,1460,229375,1,1092617184,670000,82732,81284,65700,0,2896,0,46639160,63
i,1723548808.532080,172.16.3.2,17621,172.16.1.2,5101,4301,5742,38,65728,65728,6,6,4,1460,229375,1,1092617184,670000,82732,81284,65700,0,4344,0,46639160,63
o,1723548808.532456,172.16.3.2,17621,172.16.1.2,5101,4301,5943,38,64256,65728,6,6,4,1460,224687,1,1092617184,640000,82732,78388,65700,0,1448,0,46639160,63
o,1723548808.532871,172.16.3.2,17621,172.16.1.2,5101,4301,5943,38,64256,65728,6,6,4,1460,224687,1,1092617184,640000,82732,78388,65700,0,2896,0,46639160,63
i,1723548808.637832,172.16.3.2,17621,172.16.1.2,5101,4301,5943,38,64256,65728,6,6,4,1460,224687,1,1092617184,640000,82732,82732,65700,0,5792,0,46639160,63
o,1723548808.637949,172.16.3.2,17621,172.16.1.2,5101,4301,6221,38,65728,65728,6,6,4,1460,220625,1,1092617184,620000,82732,81284,65700,0,4344,0,46639160,63
i,1723548808.749062,172.16.3.2,17621,172.16.1.2,5101,4301,6221,38,65728,65728,6,6,4,1460,220625,1,1092617184,620000,82732,81284,65700,0,5792,0,46639160,63
o,1723548808.749363,172.16.3.2,17621,172.16.1.2,5101,4301,6498,38,64256,65728,6,6,4,1460,219375,1,1092617184,570000,82732,78388,65700,0,2896,0,46639160,63
o,1723548808.749994,172.16.3.2,17621,172.16.1.2,5101,4301,6498,38,64256,65728,6,6,4,1460,219375,1,1092617184,570000,82732,78388,65700,0,4344,0,46639160,63
i,1723548808.779851,172.16.3.2,17621,172.16.1.2,5101,4301,6498,38,64256,65728,6,6,4,1460,219375,1,1092617184,570000,82732,82732,65700,0,5792,0,46639160,63
o,1723548808.780109,172.16.3.2,17621,172.16.1.2,5101,4301,6573,38,65728,65728,6,6,4,1460,222187,1,1092617184,560000,82732,81284,65700,0,4344,0,46639160,63
i,1723548808.875408,172.16.3.2,17621,172.16.1.2,5101,4301,6573,38,65728,65728,6,6,4,1460,222187,1,1092617184,560000,82732,81284,65700,0,5792,0,46639160,63
o,1723548808.875489,172.16.3.2,17621,172.16.1.2,5101,4301,6825,38,65728,65728,6,6,4,1460,223437,1,1092617184,540000,82732,79836,65700,0,4344,0,46639160,63
i,1723548808.927193,172.16.3.2,17621,172.16.1.2,5101,4301,6825,38,65728,65728,6,6,4,1460,223437,1,1092617184,540000,82732,82732,65700,0,5792,0,46639160,63
o,1723548808.927275,172.16.3.2,17621,172.16.1.2,5101,4301,6951,38,64256,65728,6,6,4,1460,216875,1,1092617184,550000,82732,79836,65700,0,2896,0,46639160,63
o,1723548808.927432,172.16.3.2,17621,172.16.1.2,5101,4301,6951,38,64256,65728,6,6,4,1460,216875,1,1092617184,550000,82732,79836,65700,0,4344,0,46639160,63
i,1723548808.997018,172.16.3.2,17621,172.16.1.2,5101,4301,6951,38,64256,65728,6,6,4,1460,216875,1,1092617184,550000,82732,82732,65700,0,5792,0,46639160,63
o,1723548808.997108,172.16.3.2,17621,172.16.1.2,5101,4301,7128,38,65728,65728,6,6,4,1460,216250,1,1092617184,520000,82732,81284,65700,0,4344,0,46639160,63
i,1723548809.062002,172.16.3.2,17621,172.16.1.2,5101,4301,7128,38,65728,65728,6,6,4,1460,216250,1,1092617184,520000,82732,81284,65700,0,5792,0,46639160,63
o,1723548809.062077,172.16.3.2,17621,172.16.1.2,5101,4301,7279,38,65728,65728,6,6,4,1460,211875,1,1092617184,530000,82732,79836,65700,0,4344,0,46639160,63
i,1723548809.125395,172.16.3.2,17621,172.16.1.2,5101,4301,7279,38,65728,65728,6,6,4,1460,211875,1,1092617184,530000,82732,82732,65700,0,7240,0,46639160,63
o,1723548809.125575,172.16.3.2,17621,172.16.1.2,5101,4301,7455,38,64256,65728,6,6,4,1460,210625,1,1092617184,510000,82732,79836,65700,0,4344,0,46639160,63
o,1723548809.125870,172.16.3.2,17621,172.16.1.2,5101,4301,7455,38,64256,65728,6,6,4,1460,210625,1,1092617184,510000,82732,79836,65700,0,5792,0,46639160,63
i,1723548809.228097,172.16.3.2,17621,172.16.1.2,5101,4301,7455,38,64256,65728,6,6,4,1460,210625,1,1092617184,510000,82732,82732,65700,0,7240,0,46639160,63
o,1723548809.228202,172.16.3.2,17621,172.16.1.2,5101,4301,7707,38,65728,65728,6,6,4,1460,213125,1,1092617184,500000,82732,81284,65700,0,5792,0,46639160,63
i,1723548809.271177,172.16.3.2,17621,172.16.1.2,5101,4301,7707,38,65728,65728,6,6,4,1460,213125,1,1092617184,500000,82732,81284,65700,0,7240,0,46639160,63
o,1723548809.271286,172.16.3.2,17621,172.16.1.2,5101,4301,7808,38,64256,65728,6,6,4,1460,211562,1,1092617184,490000,82732,78388,65700,0,4344,0,46639160,63
i,1723548809.327760,172.16.3.2,17621,172.16.1.2,5101,4301,7808,38,64256,65728,6,6,4,1460,211562,1,1092617184,490000,82732,82732,65700,0,7240,0,46639160,63
o,1723548809.327838,172.16.3.2,17621,172.16.1.2,5101,4301,7959,38,64256,65728,6,6,4,1460,210312,1,1092617184,480000,82732,79836,65700,0,4344,0,46639160,63
o,1723548809.327960,172.16.3.2,17621,172.16.1.2,5101,4301,7959,38,64256,65728,6,6,4,1460,210312,1,1092617184,480000,82732,79836,65700,0,5792,0,46639160,63
i,1723548809.457201,172.16.3.2,17621,172.16.1.2,5101,4301,7959,38,64256,65728,6,6,4,1460,210312,1,1092617184,480000,82732,82732,65700,0,7240,0,46639160,63
o,1723548809.457380,172.16.3.2,17621,172.16.1.2,5101,4301,8287,38,64256,65728,6,6,4,1460,212812,1,1092617184,490000,82732,79836,65700,0,4344,0,46639160,63
i,1723548809.546770,172.16.3.2,17621,172.16.1.2,5101,4301,8287,38,64256,65728,6,6,4,1460,212812,1,1092617184,490000,82732,82732,65700,0,7240,0,46639160,63
o,1723548809.546955,172.16.3.2,17621,172.16.1.2,5101,4301,8514,38,64256,65728,6,6,4,1460,221250,1,1092617184,540000,82732,79836,65700,0,4344,0,46639160,63
o,1723548809.547658,172.16.3.2,17621,172.16.1.2,5101,4301,8514,38,64256,65728,6,6,4,1460,221250,1,1092617184,540000,82732,79836,65700,0,5792,0,46639160,63
i,1723548809.598008,172.16.3.2,17621,172.16.1.2,5101,4301,8514,38,64256,65728,6,6,4,1460,221250,1,1092617184,540000,82732,82732,65700,0,7240,0,46639160,63
o,1723548809.598096,172.16.3.2,17621,172.16.1.2,5101,4301,8640,38,65728,65728,6,6,4,1460,226250,1,1092617184,560000,82732,81284,65700,0,5792,0,46639160,63
i,1723548809.708187,172.16.3.2,17621,172.16.1.2,5101,4301,8640,38,65728,65728,6,6,4,1460,226250,1,1092617184,560000,82732,81284,65700,0,7240,0,46639160,63
o,1723548809.708460,172.16.3.2,17621,172.16.1.2,5101,4301,8917,38,65728,65728,6,6,4,1460,228125,1,1092617184,540000,82732,79836,65700,0,5792,0,46639160,63
i,1723548809.757579,172.16.3.2,17621,172.16.1.2,5101,4301,8917,38,65728,65728,6,6,4,1460,228125,1,1092617184,540000,82732,82732,65700,0,8688,0,46639160,63
o,1723548809.757617,172.16.3.2,17621,172.16.1.2,5101,4301,9043,38,65728,65728,6,6,4,1460,235937,1,1092617184,580000,82732,81284,65700,0,7240,0,46639160,63
i,1723548809.793762,172.16.3.2,17621,172.16.1.2,5101,4301,9043,38,65728,65728,6,6,4,1460,235937,1,1092617184,580000,82732,81284,65700,0,8688,0,46639160,63
o,1723548809.793859,172.16.3.2,17621,172.16.1.2,5101,4301,9144,38,64256,65728,6,6,4,1460,236562,1,1092617184,550000,82732,78388,65700,0,5792,0,46639160,63
o,1723548809.793978,172.16.3.2,17621,172.16.1.2,5101,4301,9144,38,64256,65728,6,6,4,1460,236562,1,1092617184,550000,82732,78388,65700,0,7240,0,46639160,63
i,1723548809.857174,172.16.3.2,17621,172.16.1.2,5101,4301,9144,38,64256,65728,6,6,4,1460,236562,1,1092617184,550000,82732,82732,65700,0,8688,0,46639160,63
o,1723548809.857432,172.16.3.2,17621,172.16.1.2,5101,4301,9295,38,65728,65728,6,6,4,1460,239687,1,1092617184,550000,82732,81284,65700,0,7240,0,46639160,63
i,1723548809.947274,172.16.3.2,17621,172.16.1.2,5101,4301,9295,38,65728,65728,6,6,4,1460,239687,1,1092617184,550000,82732,81284,65700,0,8688,0,46639160,63
o,1723548809.947312,172.16.3.2,17621,172.16.1.2,5101,4301,9522,38,65728,65728,6,6,4,1460,240000,1,1092617184,530000,82732,79836,65700,0,7240,0,46639160,63
i,1723548810.037467,172.16.3.2,17621,172.16.1.2,5101,4301,9522,38,65728,65728,6,6,4,1460,240000,1,1092617184,530000,82732,82732,65700,0,8688,0,46639160,63
o,1723548810.037621,172.16.3.2,17621,172.16.1.2,5101,4301,9749,38,64256,65728,6,6,4,1460,251250,1,1092617184,600000,82732,79836,65700,0,5792,0,46639160,63
i,1723548810.112453,172.16.3.2,17621,172.16.1.2,5101,4301,9749,38,64256,65728,6,6,4,1460,251250,1,1092617184,600000,82732,82732,65700,0,8688,0,46639160,63
o,1723548810.112546,172.16.3.2,17621,172.16.1.2,5101,4301,9925,38,64256,65728,6,6,4,1460,258750,1,1092617184,630000,82732,79836,65700,0,5792,0,46639160,63
o,1723548810.112706,172.16.3.2,17621,172.16.1.2,5101,4301,9925,38,64256,65728,6,6,4,1460,258750,1,1092617184,630000,82732,79836,65700,0,7240,0,46639160,63
i,1723548810.184592,172.16.3.2,17621,172.16.1.2,5101,4301,9925,38,64256,65728,6,6,4,1460,258750,1,1092617184,630000,82732,82732,65700,0,8688,0,46639160,63
o,1723548810.184673,172.16.3.2,17621,172.16.1.2,5101,4301,10127,38,65728,65728,6,6,4,1460,266562,1,1092617184,660000,82732,81284,65700,0,7240,0,46639160,63
i,1723548810.258321,172.16.3.2,17621,172.16.1.2,5101,4301,10127,38,65728,65728,6,6,4,1460,266562,1,1092617184,660000,82732,81284,65700,0,8688,0,46639160,63
o,1723548810.258453,172.16.3.2,17621,172.16.1.2,5101,4301,10303,38,65728,65728,6,6,4,1460,272187,1,1092617184,660000,82732,79836,65700,0,7240,0,46639160,63
i,1723548810.297834,172.16.3.2,17621,172.16.1.2,5101,4301,10303,38,65728,65728,6,6,4,1460,272187,1,1092617184,660000,82732,82732,65700,0,10136,0,46639160,63
o,1723548810.297950,172.16.3.2,17621,172.16.1.2,5101,4301,10404,38,65728,65728,6,6,4,1460,270937,1,1092617184,620000,82732,81284,65700,0,8688,0,46639160,63
i,1723548810.349606,172.16.3.2,17621,172.16.1.2,5101,4301,10404,38,65728,65728,6,6,4,1460,270937,1,1092617184,620000,82732,81284,65700,0,10136,0,46639160,63
o,1723548810.349682,172.16.3.2,17621,172.16.1.2,5101,4301,10530,38,65728,65728,6,6,4,1460,275937,1,1092617184,630000,82732,79836,65700,0,8688,0,46639160,63
i,1723548810.391178,172.16.3.2,17621,172.16.1.2,5101,4301,10530,38,65728,65728,6,6,4,1460,275937,1,1092617184,630000,82732,82732,65700,0,10136,0,46639160,63
o,1723548810.391208,172.16.3.2,17621,172.16.1.2,5101,4301,10631,38,64256,65728,6,6,4,1460,275312,1,1092617184,600000,82732,79836,65700,0,7240,0,46639160,63
o,1723548810.391433,172.16.3.2,17621,172.16.1.2,5101,4301,10631,38,64256,65728,6,6,4,1460,275312,1,1092617184,600000,82732,79836,65700,0,8688,0,46639160,63
i,1723548810.486626,172.16.3.2,17621,172.16.1.2,5101,4301,10631,38,64256,65728,6,6,4,1460,275312,1,1092617184,600000,82732,82732,65700,0,10136,0,46639160,63
o,1723548810.486692,172.16.3.2,17621,172.16.1.2,5101,4301,10883,38,65728,65728,6,6,4,1460,278437,1,1092617184,590000,82732,81284,65700,0,8688,0,46639160,63
i,1723548810.577735,172.16.3.2,17621,172.16.1.2,5101,4301,10883,38,65728,65728,6,6,4,1460,278437,1,1092617184,590000,82732,81284,65700,0,10136,0,46639160,63
o,1723548810.577751,172.16.3.2,17621,172.16.1.2,5101,4301,11110,38,65728,65728,6,6,4,1460,283750,1,1092617184,610000,82732,79836,65700,0,8688,0,46639160,63
i,1723548810.589086,172.16.3.2,17621,172.16.1.2,5101,4301,11110,38,65728,65728,6,6,4,1460,283750,1,1092617184,610000,82732,82732,65700,0,10136,0,46639160,63
o,1723548810.589133,172.16.3.2,17621,172.16.1.2,5101,4301,11135,38,65728,65728,6,6,4,1460,289687,1,1092617184,630000,82732,81284,65700,0,8688,0,46639160,63
i,1723548810.626826,172.16.3.2,17621,172.16.1.2,5101,4301,11135,38,65728,65728,6,6,4,1460,289687,1,1092617184,630000,82732,81284,65700,0,10136,0,46639160,63
o,1723548810.626859,172.16.3.2,17621,172.16.1.2,5101,4301,11236,38,64256,65728,6,6,4,1460,295000,1,1092617184,650000,82732,78388,65700,0,7240,0,46639160,63
i,1723548810.660898,172.16.3.2,17621,172.16.1.2,5101,4301,11236,38,64256,65728,6,6,4,1460,295000,1,1092617184,650000,82732,82732,65700,0,10136,0,46639160,63
o,1723548810.660976,172.16.3.2,17621,172.16.1.2,5101,4301,11311,38,64256,65728,6,6,4,1460,291875,1,1092617184,630000,82732,79836,65700,0,7240,0,46639160,63
o,1723548810.661097,172.16.3.2,17621,172.16.1.2,5101,4301,11311,38,64256,65728,6,6,4,1460,291875,1,1092617184,630000,82732,79836,65700,0,8688,0,46639160,63
i,1723548810.707193,172.16.3.2,17621,172.16.1.2,5101,4301,11311,38,64256,65728,6,6,4,1460,291875,1,1092617184,630000,82732,82732,65700,0,10136,0,46639160,63
o,1723548810.707224,172.16.3.2,17621,172.16.1.2,5101,4301,11437,38,65728,65728,6,6,4,1460,281875,1,1092617184,660000,82732,81284,65700,0,8688,0,46639160,63
i,1723548810.775883,172.16.3.2,17621,172.16.1.2,5101,4301,11437,38,65728,65728,6,6,4,1460,281875,1,1092617184,660000,82732,81284,65700,0,10136,0,46639160,63
o,1723548810.775966,172.16.3.2,17621,172.16.1.2,5101,4301,11614,38,65728,65728,6,6,4,1460,271875,1,1092617184,690000,82732,79836,65700,0,8688,0,46639160,63
i,1723548810.862602,172.16.3.2,17621,172.16.1.2,5101,4301,11614,38,65728,65728,6,6,4,1460,271875,1,1092617184,690000,82732,82732,65700,0,11584,0,46639160,63
o,1723548810.862655,172.16.3.2,17621,172.16.1.2,5101,4301,11815,38,65728,65728,6,6,4,1460,271875,1,1092617184,630000,82732,81284,65700,0,10136,0,46639160,63
i,1723548810.909298,172.16.3.2,17621,172.16.1.2,5101,4301,11815,38,65728,65728,6,6,4,1460,271875,1,1092617184,630000,82732,81284,65700,0,11584,0,46639160,63
o,1723548810.909341,172.16.3.2,17621,172.16.1.2,5101,4301,11941,38,65728,65728,6,6,4,1460,273125,1,1092617184,610000,82732,79836,65700,0,10136,0,46639160,63
i,1723548810.909543,172.16.3.2,17621,172.16.1.2,5101,4301,11941,38,65728,65728,6,6,4,1460,273125,1,1092617184,610000,82732,79836,65700,0,11584,0,46639160,63
o,1723548810.909569,172.16.3.2,17621,172.16.1.2,5101,4301,11941,38,64256,65728,6,6,4,1460,274062,1,1092617184,580000,82732,76940,65700,0,8688,0,46639160,63
o,1723548810.909724,172.16.3.2,17621,172.16.1.2,5101,4301,11941,38,64256,65728,6,6,4,1460,274062,1,1092617184,580000,82732,76940,65700,0,10136,0,46639160,63
i,1723548810.992822,172.16.3.2,17621,172.16.1.2,5101,4301,11941,38,64256,65728,6,6,4,1460,274062,1,1092617184,580000,82732,81144,65700,0,11584,0,46639160,63
o,1723548810.992969,172.16.3.2,17621,172.16.1.2,5101,4301,12143,38,65728,65728,6,6,4,1460,281250,1,1092617184,620000,82732,79696,65700,0,10136,0,46639160,63
i,1723548811.061402,172.16.3.2,17621,172.16.1.2,5101,4301,12143,38,65728,65728,6,6,4,1460,281250,1,1092617184,620000,82732,82732,65700,0,11584,0,46639160,63
o,1723548811.061481,172.16.3.2,17621,172.16.1.2,5101,4301,12319,38,65728,65728,6,6,4,1460,290000,1,1092617184,660000,82732,81284,65700,0,10136,0,46639160,63
i,1723548811.177659,172.16.3.2,17621,172.16.1.2,5101,4301,12319,38,65728,65728,6,6,4,1460,290000,1,1092617184,660000,82732,81284,65700,0,11584,0,46639160,63
o,1723548811.177843,172.16.3.2,17621,172.16.1.2,5101,4301,12622,38,64256,65728,6,6,4,1460,303750,1,1092617184,740000,82732,78388,65700,0,8688,0,46639160,63
i,1723548811.238204,172.16.3.2,17621,172.16.1.2,5101,4301,12622,38,64256,65728,6,6,4,1460,303750,1,1092617184,740000,82732,82732,65700,0,11584,0,46639160,63
o,1723548811.238296,172.16.3.2,17621,172.16.1.2,5101,4301,12773,38,65728,65728,6,6,4,1460,313437,1,1092617184,770000,82732,81284,65700,0,10136,0,46639160,63
i,1723548811.282623,172.16.3.2,17621,172.16.1.2,5101,4301,12773,38,65728,65728,6,6,4,1460,313437,1,1092617184,770000,82732,81284,65700,0,11584,0,46639160,63
o,1723548811.282693,172.16.3.2,17621,172.16.1.2,5101,4301,12874,38,64256,65728,6,6,4,1460,320625,1,1092617184,770000,82732,78388,65700,0,8688,0,46639160,63
o,1723548811.282802,172.16.3.2,17621,172.16.1.2,5101,4301,12874,38,64256,65728,6,6,4,1460,320625,1,1092617184,770000,82732,78388,65700,0,10136,0,46639160,63
i,1723548811.357689,172.16.3.2,17621,172.16.1.2,5101,4301,12874,38,64256,65728,6,6,4,1460,320625,1,1092617184,770000,82732,82732,65700,0,11584,0,46639160,63
o,1723548811.357753,172.16.3.2,17621,172.16.1.2,5101,4301,13314,38,64256,65728,6,6,4,1460,336875,1,1092617184,850000,82732,79836,65700,0,8688,0,46639160,63
i,1723548811.448766,172.16.3.2,17621,172.16.1.2,5101,4301,13314,38,64256,65728,6,6,4,1460,336875,1,1092617184,850000,82732,82732,65700,0,13032,0,46639160,63
o,1723548811.448833,172.16.3.2,17621,172.16.1.2,5101,4301,13314,38,65728,65728,6,6,4,1460,343750,1,1092617184,840000,82732,81284,65700,0,11584,0,46639160,63
i,1723548811.550622,172.16.3.2,17621,172.16.1.2,5101,4301,13314,38,65728,65728,6,6,4,1460,343750,1,1092617184,840000,82732,81284,65700,0,13032,0,46639160,63
o,1723548811.550835,172.16.3.2,17621,172.16.1.2,5101,4301,14774,38,64256,65728,6,6,4,1460,347187,1,1092617184,790000,82732,78388,65700,0,10136,0,46639160,63
i,1723548811.648840,172.16.3.2,17621,172.16.1.2,5101,4301,14774,38,64256,65728,6,6,4,1460,347187,1,1092617184,790000,82732,82732,65700,0,14480,0,46639160,63
o,1723548811.649032,172.16.3.2,17621,172.16.1.2,5101,4301,16234,38,64256,65728,6,6,4,1460,355312,1,1092617184,810000,82732,79836,65700,0,11584,0,46639160,63
o,1723548811.649253,172.16.3.2,17621,172.16.1.2,5101,4301,16234,38,64256,65728,6,6,4,1460,355312,1,1092617184,810000,82732,79836,65700,0,13032,0,46639160,63
i,1723548811.716199,172.16.3.2,17621,172.16.1.2,5101,4301,16234,38,64256,65728,6,6,4,1460,355312,1,1092617184,810000,82732,82732,65700,0,15928,0,46639160,63
o,1723548811.716282,172.16.3.2,17621,172.16.1.2,5101,4301,17694,38,65728,65728,6,6,4,1460,364687,1,1092617184,830000,82732,81284,65700,0,14480,0,46639160,63
i,1723548811.727859,172.16.3.2,17621,172.16.1.2,5101,4301,17694,38,65728,65728,6,6,4,1460,364687,1,1092617184,830000,82732,81284,65700,0,17376,0,46639160,63
o,1723548811.727877,172.16.3.2,17621,172.16.1.2,5101,4301,18824,34,65728,65728,6,6,4,1460,364687,1,1092617184,830000,82732,81284,65700,0,17376,0,46639160,63
i,1723548811.751488,172.16.3.2,17621,172.16.1.2,5101,4301,17694,34,65728,65728,6,6,4,1460,364687,1,1092617184,830000,82732,81284,65700,0,18824,0,46639160,63
o,1723548811.751507,172.16.3.2,17621,172.16.1.2,5101,4301,20272,34,65728,65728,6,6,4,1460,364687,1,1092617184,830000,82732,81284,65700,0,18824,0,46639160,63
i,1723548811.839511,172.16.3.2,17621,172.16.1.2,5101,4301,17694,34,65728,65728,6,6,4,1460,364687,1,1092617184,830000,82732,81284,65700,0,20272,0,46639160,63
o,1723548811.839538,172.16.3.2,17621,172.16.1.2,5101,12371,1448,98,65728,65728,6,6,4,1460,364687,1,1630536672,830000,82732,81284,65700,0,20272,0,46639160,63
i,1723548811.908044,172.16.3.2,17621,172.16.1.2,5101,12371,1448,98,65728,65728,6,6,4,1460,364687,1,1630536672,830000,82732,81284,65700,0,20272,0,46639160,63
o,1723548811.908085,172.16.3.2,17621,172.16.1.2,5101,12371,2896,34,65728,65728,6,6,4,1460,364687,1,1630536672,830000,82732,81284,65700,0,20272,0,46639160,63
i,1723548812.010240,172.16.3.2,17621,172.16.1.2,5101,12371,2896,34,65728,65728,6,6,4,1460,364687,1,1630536672,830000,82732,81284,65700,0,21720,0,46639160,63
o,1723548812.010264,172.16.3.2,17621,172.16.1.2,5101,12371,2896,34,65728,65728,6,6,4,1460,364687,1,1630536672,830000,82732,81284,65700,0,21720,0,46639160,63
i,1723548812.033684,172.16.3.2,17621,172.16.1.2,5101,12371,2896,34,65728,65728,6,6,4,1460,364687,1,1630536672,830000,82732,81284,65700,0,21720,0,46639160,63
i,1723548812.073779,172.16.3.2,17621,172.16.1.2,5101,12371,4344,34,65728,65728,6,6,4,1460,364687,1,1613759456,830000,82732,81284,65700,0,21720,0,46639160,63
o,1723548812.073819,172.16.3.2,17621,172.16.1.2,5101,12371,5792,34,65728,65728,6,6,4,1460,364687,1,1630536672,830000,82732,81284,65700,0,21720,0,46639160,63
i,1723548812.097444,172.16.3.2,17621,172.16.1.2,5101,12371,5792,34,65728,65728,6,6,4,1460,364687,1,1630536672,830000,82732,81284,65700,0,21720,0,46639160,63
i,1723548812.126336,172.16.3.2,17621,172.16.1.2,5101,12371,5792,34,65728,65728,6,6,4,1460,364687,1,1630536672,830000,82732,81284,65700,0,21720,0,46639160,63
o,1723548812.126409,172.16.3.2,17621,172.16.1.2,5101,12371,7240,34,65728,65728,6,6,4,1460,364687,1,1630536672,830000,82732,81284,65700,0,21720,0,46639160,63
i,1723548812.158138,172.16.3.2,17621,172.16.1.2,5101,12371,7240,34,65728,65728,6,6,4,1460,364687,1,1630536672,830000,82732,81284,65700,0,23168,0,46639160,63
i,1723548812.240192,172.16.3.2,17621,172.16.1.2,5101,12371,7240,34,65728,65728,6,6,4,1460,364687,1,1630536672,830000,82732,81284,65700,0,23168,0,46639160,63
o,1723548812.240238,172.16.3.2,17621,172.16.1.2,5101,12371,7240,34,65728,65728,6,6,4,1460,364687,1,1630536672,830000,82732,81284,65700,0,23168,0,46639160,63
i,1723548812.290810,172.16.3.2,17621,172.16.1.2,5101,12371,7240,34,65728,65728,6,6,4,1460,364687,1,1630536672,830000,82732,81284,65700,0,24616,0,46639160,63
o,1723548812.290851,172.16.3.2,17621,172.16.1.2,5101,12371,8688,38,65728,65728,6,6,4,1460,364687,1,1630536672,830000,82732,81284,65700,0,24616,0,46639160,63
i,1723548812.312497,172.16.3.2,17621,172.16.1.2,5101,12371,8688,38,65728,65728,6,6,4,1460,364687,1,1630536672,830000,82732,81284,65700,0,27512,0,46639160,63
o,1723548812.312561,172.16.3.2,17621,172.16.1.2,5101,12371,10136,34,65728,65728,6,6,4,1460,364687,1,1630536672,830000,82732,81284,65700,0,27512,0,46639160,63
i,1723548812.394609,172.16.3.2,17621,172.16.1.2,5101,12371,10136,34,65728,65728,6,6,4,1460,364687,1,1630536672,830000,82732,81284,65700,0,27512,0,46639160,63
o,1723548812.394641,172.16.3.2,17621,172.16.1.2,5101,12371,11584,34,65728,65728,6,6,4,1460,364687,1,1630536672,830000,82732,81284,65700,0,27512,0,46639160,63
i,1723548812.479620,172.16.3.2,17621,172.16.1.2,5101,12371,11584,34,65728,65728,6,6,4,1460,364687,1,1630536672,830000,82732,81284,65700,0,28960,0,46639160,63
o,1723548812.479748,172.16.3.2,17621,172.16.1.2,5101,12371,13032,34,65728,65728,6,6,4,1460,364687,1,1630536672,830000,82732,81284,65700,0,28960,0,46639160,63
i,1723548812.497854,172.16.3.2,17621,172.16.1.2,5101,12371,13032,34,65728,65728,6,6,4,1460,364687,1,1630536672,830000,82732,81284,65700,0,30408,0,46639160,63
o,1723548812.497937,172.16.3.2,17621,172.16.1.2,5101,12371,14480,34,65728,65728,6,6,4,1460,364687,1,1630536672,830000,82732,81284,65700,0,30408,0,46639160,63
i,1723548812.520391,172.16.3.2,17621,172.16.1.2,5101,12371,14480,34,65728,65728,6,6,4,1460,364687,1,1630536672,830000,82732,81284,65700,0,31856,0,46639160,63
o,1723548812.520437,172.16.3.2,17621,172.16.1.2,5101,12371,15928,38,65728,65728,6,6,4,1460,364687,1,1630536672,830000,82732,81284,65700,0,31856,0,46639160,63
i,1723548812.609929,172.16.3.2,17621,172.16.1.2,5101,12371,15928,38,65728,65728,6,6,4,1460,364687,1,1630536672,830000,82732,81284,65700,0,34752,0,46639160,63
o,1723548812.610018,172.16.3.2,17621,172.16.1.2,5101,12371,17376,34,65728,65728,6,6,4,1460,364687,1,1630536672,830000,82732,81284,65700,0,34752,0,46639160,63
i,1723548812.655224,172.16.3.2,17621,172.16.1.2,5101,12371,17376,34,65728,65728,6,6,4,1460,364687,1,1630536672,830000,82732,81284,65700,0,36200,0,46639160,63
o,1723548812.655255,172.16.3.2,17621,172.16.1.2,5101,12371,18824,34,65728,65728,6,6,4,1460,364687,1,1630536672,830000,82732,81284,65700,0,36200,0,46639160,63
o,1723548812.663779,172.16.3.2,17621,172.16.1.2,5101,13162,1448,98,65728,65728,6,6,4,1460,364687,1,1092625377,1460000,82732,81284,65700,0,37648,0,46639160,63
i,1723548812.697108,172.16.3.2,17621,172.16.1.2,5101,13162,1448,98,65728,65728,6,6,4,1460,364687,1,1092625376,1460000,82732,81284,65700,0,37648,0,46639160,63
o,1723548812.697128,172.16.3.2,17621,172.16.1.2,5101,12371,20272,98,65728,65728,6,6,4,1460,364687,1,1630536672,1460000,82732,81284,65700,0,37648,0,46639160,63
o,1723548812.697284,172.16.3.2,17621,172.16.1.2,5101,12371,20272,34,65728,65728,6,6,4,1460,364687,1,1630536672,1460000,82732,81284,65700,0,37648,0,46639160,63
i,1723548812.748753,172.16.3.2,17621,172.16.1.2,5101,12371,20272,34,65728,65728,6,6,4,1460,364687,1,1630536672,1460000,82732,81284,65700,0,39096,0,46639160,63
o,1723548812.748834,172.16.3.2,17621,172.16.1.2,5101,12371,21720,34,65728,65728,6,6,4,1460,364687,1,1630536672,1460000,82732,81284,65700,0,39096,0,46639160,63
i,1723548812.802043,172.16.3.2,17621,172.16.1.2,5101,12371,21720,34,65728,65728,6,6,4,1460,364687,1,1630536672,1460000,82732,81284,65700,0,40544,0,46639160,63
o,1723548812.802073,172.16.3.2,17621,172.16.1.2,5101,12371,23168,34,65728,65728,6,6,4,1460,364687,1,1630536672,1460000,82732,81284,65700,0,40544,0,46639160,63
i,1723548812.868341,172.16.3.2,17621,172.16.1.2,5101,12371,23168,34,65728,65728,6,6,4,1460,364687,1,1630536672,1460000,82732,81284,65700,0,41992,0,46639160,63
o,1723548812.868416,172.16.3.2,17621,172.16.1.2,5101,12371,24616,34,65728,65728,6,6,4,1460,364687,1,1630536672,1460000,82732,81284,65700,0,41992,0,46639160,63
i,1723548812.946767,172.16.3.2,17621,172.16.1.2,5101,12371,24616,34,65728,65728,6,6,4,1460,364687,1,1630536672,1460000,82732,81284,65700,0,43440,0,46639160,63
o,1723548812.946797,172.16.3.2,17621,172.16.1.2,5101,12371,26064,34,65728,65728,6,6,4,1460,364687,1,1630536672,1460000,82732,81284,65700,0,43440,0,46639160,63
