enable_time_secs=1723549322	enable_time_usecs=001151	siftrver=1.3.0	sysname=FreeBSD	sysver=1401000	ipmode=4
o,1723549322.001536,10.0.2.15,22,10.0.2.2,52282,1073725440,17746,1026,65535,65700,0,0,4,1460,312,0,16777220,240000,33580,172,65700,0,0,0,3819904873,63
o,1723549322.001634,10.0.2.15,22,10.0.2.2,52282,1073725440,17746,1026,65535,65700,0,0,4,1460,312,0,16777220,240000,33580,244,65700,0,172,0,3819904873,63
i,1723549322.002992,10.0.2.15,22,10.0.2.2,52282,1073725440,17746,1026,65535,65700,0,0,4,1460,312,0,16777220,240000,33580,244,65700,0,244,0,3819904873,63
i,1723549322.003010,10.0.2.15,22,10.0.2.2,52282,1073725440,17918,1026,65535,65700,0,0,4,1460,312,0,4,230000,33580,72,65700,0,72,0,3819904873,63
i,1723549322.003050,10.0.2.15,22,10.0.2.2,52282,1073725440,17990,1026,65535,65700,0,0,4,1460,312,0,4,230000,33580,0,65700,0,0,0,3819904873,63
i,1723549322.003066,10.0.2.15,22,10.0.2.2,52282,1073725440,17990,1026,65535,65700,0,0,4,1460,312,0,4,230000,33580,0,65700,96,0,0,3819904873,63
o,1723549322.003082,10.0.2.15,22,10.0.2.2,52282,1073725440,17990,1026,65535,65604,0,0,5,1460,312,0,5,230000,33580,0,65700,96,0,0,3819904873,63
o,1723549322.003979,10.0.2.15,22,10.0.2.2,52282,1073725440,17990,1026,65535,65604,0,0,8,1460,312,0,4,230000,33580,0,65700,0,0,0,3819904873,63
i,1723549322.004542,10.0.2.15,22,10.0.2.2,52282,1073725440,17990,1026,65535,65604,0,0,8,1460,312,0,67108884,230000,33580,0,65700,0,1,0,3819904873,63
i,1723549324.285046,10.0.2.15,22,10.0.2.2,52290,1073725440,14600,0,65535,65700,0,0,4,1460,312,0,16777216,260000,33580,0,65700,0,0,0,1375859406,63
o,1723549324.297134,10.0.2.15,22,10.0.2.2,52290,1073725440,14600,1026,65535,65700,0,0,4,1460,312,0,16777216,260000,33580,38,65700,42,0,0,1375859406,63
i,1723549324.297848,10.0.2.15,22,10.0.2.2,52290,1073725440,14600,1026,65535,65700,0,0,4,1460,312,0,16777216,260000,33580,38,65700,0,38,0,1375859406,63
i,1723549324.298292,10.0.2.15,22,10.0.2.2,52290,1073725440,14638,1026,65535,65700,0,0,4,1460,312,0,0,230000,33580,0,65700,0,0,0,1375859406,63
i,1723549324.298308,10.0.2.15,22,10.0.2.2,52290,1073725440,14638,1026,65535,65700,0,0,4,1460,312,0,0,230000,33580,0,65700,1460,0,0,1375859406,63
o,1723549324.298324,10.0.2.15,22,10.0.2.2,52290,1073725440,14638,1026,65535,65700,0,0,4,1460,312,0,1,230000,33580,0,65700,1536,0,0,1375859406,63
o,1723549324.298907,10.0.2.15,22,10.0.2.2,52290,1073725440,14638,1026,65535,65700,0,0,4,1460,312,0,16777216,230000,33580,1120,65700,1536,0,0,1375859406,63
i,1723549324.300342,10.0.2.15,22,10.0.2.2,52290,1073725440,14638,1026,65535,65700,0,0,4,1460,312,0,16777216,230000,33580,1120,65700,0,1120,0,1375859406,63
i,1723549324.301061,10.0.2.15,22,10.0.2.2,52290,1073725440,15758,1026,65535,65700,0,0,4,1460,312,0,0,230000,33580,0,65700,0,0,0,1375859406,63
o,1723549324.303825,10.0.2.15,22,10.0.2.2,52290,1073725440,15758,1026,65535,65700,0,0,4,1460,312,0,16777216,230000,33580,492,65700,0,0,0,1375859406,63
i,1723549324.304761,10.0.2.15,22,10.0.2.2,52290,1073725440,15758,1026,65535,65700,0,0,4,1460,312,0,16777216,230000,33580,492,65700,0,492,0,1375859406,63
i,1723549324.309044,10.0.2.15,22,10.0.2.2,52290,1073725440,16250,1026,65535,65700,0,0,4,1460,312,0,0,240000,33580,0,65700,0,0,0,1375859406,63
i,1723549324.309064,10.0.2.15,22,10.0.2.2,52290,1073725440,16250,1026,65535,65700,0,0,4,1460,312,0,0,240000,33580,0,65700,16,0,0,1375859406,63
o,1723549324.309080,10.0.2.15,22,10.0.2.2,52290,1073725440,16250,1026,65535,65700,0,0,4,1460,312,0,1,240000,33580,0,65700,60,0,0,1375859406,63
o,1723549324.309304,10.0.2.15,22,10.0.2.2,52290,1073725440,16250,1026,65535,65700,0,0,4,1460,312,0,16777216,240000,33580,44,65700,0,0,0,1375859406,63
i,1723549324.309953,10.0.2.15,22,10.0.2.2,52290,1073725440,16250,1026,65535,65700,0,0,4,1460,312,0,16777216,240000,33580,44,65700,0,44,0,1375859406,63
i,1723549324.310647,10.0.2.15,22,10.0.2.2,52290,1073725440,16294,1026,65535,65700,0,0,4,1460,312,0,0,240000,33580,0,65700,0,0,0,1375859406,63
o,1723549324.312146,10.0.2.15,22,10.0.2.2,52290,1073725440,16294,1026,65535,65700,0,0,4,1460,312,0,16777216,240000,33580,68,65700,0,0,0,1375859406,63
i,1723549324.312770,10.0.2.15,22,10.0.2.2,52290,1073725440,16294,1026,65535,65700,0,0,4,1460,312,0,16777216,240000,33580,68,65700,0,68,0,1375859406,63
i,1723549324.313805,10.0.2.15,22,10.0.2.2,52290,1073725440,16362,1026,65535,65700,0,0,4,1460,312,0,0,240000,33580,0,65700,0,0,0,1375859406,63
o,1723549324.314902,10.0.2.15,22,10.0.2.2,52290,1073725440,16362,1026,65535,65700,0,0,4,1460,312,0,16777216,240000,33580,332,65700,0,0,0,1375859406,63
i,1723549324.315465,10.0.2.15,22,10.0.2.2,52290,1073725440,16362,1026,65535,65700,0,0,4,1460,312,0,16777216,240000,33580,332,65700,0,332,0,1375859406,63
i,1723549324.317602,10.0.2.15,22,10.0.2.2,52290,1073725440,16694,1026,65535,65700,0,0,4,1460,312,0,0,240000,33580,0,65700,0,0,0,1375859406,63
o,1723549324.335730,10.0.2.15,22,10.0.2.2,52290,1073725440,16694,1026,65535,65700,0,0,4,1460,312,0,16777216,240000,33580,28,65700,0,0,0,1375859406,63
i,1723549324.336664,10.0.2.15,22,10.0.2.2,52290,1073725440,16694,1026,65535,65700,0,0,4,1460,312,0,16777216,240000,33580,28,65700,0,28,0,1375859406,63
i,1723549324.337201,10.0.2.15,22,10.0.2.2,52290,1073725440,16722,1026,65535,65700,0,0,4,1460,312,0,0,240000,33580,0,65700,0,0,0,1375859406,63
o,1723549324.338974,10.0.2.15,22,10.0.2.2,52290,1073725440,16722,1026,65535,65700,0,0,4,1460,312,0,16777216,240000,33580,768,65700,112,0,0,1375859406,63
i,1723549324.339436,10.0.2.15,22,10.0.2.2,52290,1073725440,16722,1026,65535,65700,0,0,4,1460,312,0,16777216,240000,33580,908,65700,0,768,0,1375859406,63
o,1723549324.339455,10.0.2.15,22,10.0.2.2,52290,1073725440,17490,1026,65535,65700,0,0,4,1460,312,0,16777216,240000,33580,140,65700,0,0,0,1375859406,63
i,1723549324.340093,10.0.2.15,22,10.0.2.2,52290,1073725440,17490,1026,65535,65700,0,0,4,1460,312,0,16777216,240000,33580,184,65700,0,140,0,1375859406,63
o,1723549324.340110,10.0.2.15,22,10.0.2.2,52290,1073725440,17630,1026,65535,65700,0,0,4,1460,312,0,16777216,240000,33580,44,65700,0,0,0,1375859406,63
i,1723549324.342513,10.0.2.15,22,10.0.2.2,52290,1073725440,17630,1026,65535,65700,0,0,4,1460,312,0,16777216,240000,33580,44,65700,0,44,0,1375859406,63
i,1723549324.342530,10.0.2.15,22,10.0.2.2,52290,1073725440,17674,1026,65535,65700,0,0,4,1460,312,0,0,240000,33580,0,65700,0,0,0,1375859406,63
o,1723549324.343351,10.0.2.15,22,10.0.2.2,52290,1073725440,17674,1026,65535,65700,0,0,4,1460,312,0,16777220,240000,33580,72,65700,0,0,0,1375859406,63
i,1723549324.343559,10.0.2.15,22,10.0.2.2,52290,1073725440,17674,1026,65535,65700,0,0,4,1460,312,0,16777220,240000,33580,72,65700,0,72,0,1375859406,63
o,1723549324.345568,10.0.2.15,22,10.0.2.2,52290,1073725440,17746,1026,65535,65700,0,0,4,1460,312,0,16777220,240000,33580,104,65700,0,0,0,1375859406,63
i,1723549324.348127,10.0.2.15,22,10.0.2.2,52290,1073725440,17746,1026,65535,65700,0,0,4,1460,312,0,16777220,240000,33580,104,65700,0,104,0,1375859406,63
o,1723549324.348450,10.0.2.15,22,10.0.2.2,52290,1073725440,17850,1026,65535,65700,0,0,4,1460,312,0,16777220,240000,33580,72,65700,0,0,0,1375859406,63
i,1723549324.348763,10.0.2.15,22,10.0.2.2,52290,1073725440,17850,1026,65535,65700,0,0,4,1460,312,0,16777220,240000,33580,72,65700,0,72,0,1375859406,63
i,1723549324.349290,10.0.2.15,22,10.0.2.2,52290,1073725440,17922,1026,65535,65700,0,0,4,1460,312,0,4,240000,33580,0,65700,0,0,0,1375859406,63
i,1723549324.349305,10.0.2.15,22,10.0.2.2,52290,1073725440,17922,1026,65535,65700,0,0,4,1460,312,0,4,240000,33580,0,65700,96,0,0,1375859406,63
o,1723549324.349322,10.0.2.15,22,10.0.2.2,52290,1073725440,17922,1026,65535,65604,0,0,5,1460,312,0,5,240000,33580,0,65700,96,0,0,1375859406,63
o,1723549324.349733,10.0.2.15,22,10.0.2.2,52290,1073725440,17922,1026,65535,65604,0,0,8,1460,312,0,4,240000,33580,0,65700,0,0,0,1375859406,63
i,1723549324.350491,10.0.2.15,22,10.0.2.2,52290,1073725440,17922,1026,65535,65604,0,0,8,1460,312,0,67108884,240000,33580,0,65700,0,1,0,1375859406,63
i,1723549326.528177,10.0.2.15,22,10.0.2.2,52312,1073725440,14600,0,65535,65700,0,0,4,1460,312,0,16777216,270000,33580,0,65700,0,0,0,1020147108,63
o,1723549326.542047,10.0.2.15,22,10.0.2.2,52312,1073725440,14600,1026,65535,65700,0,0,4,1460,312,0,16777216,270000,33580,38,65700,42,0,0,1020147108,63
i,1723549326.543529,10.0.2.15,22,10.0.2.2,52312,1073725440,14600,1026,65535,65700,0,0,4,1460,312,0,16777216,270000,33580,38,65700,0,38,0,1020147108,63
i,1723549326.543591,10.0.2.15,22,10.0.2.2,52312,1073725440,14638,1026,65535,65700,0,0,4,1460,312,0,0,230000,33580,0,65700,0,0,0,1020147108,63
i,1723549326.543610,10.0.2.15,22,10.0.2.2,52312,1073725440,14638,1026,65535,65700,0,0,4,1460,312,0,0,230000,33580,0,65700,1460,0,0,1020147108,63
o,1723549326.543631,10.0.2.15,22,10.0.2.2,52312,1073725440,14638,1026,65535,65700,0,0,4,1460,312,0,1,230000,33580,0,65700,1536,0,0,1020147108,63
o,1723549326.544307,10.0.2.15,22,10.0.2.2,52312,1073725440,14638,1026,65535,65700,0,0,4,1460,312,0,16777216,230000,33580,1120,65700,1536,0,0,1020147108,63
i,1723549326.545268,10.0.2.15,22,10.0.2.2,52312,1073725440,14638,1026,65535,65700,0,0,4,1460,312,0,16777216,230000,33580,1120,65700,0,1120,0,1020147108,63
i,1723549326.545458,10.0.2.15,22,10.0.2.2,52312,1073725440,15758,1026,65535,65700,0,0,4,1460,312,0,0,240000,33580,0,65700,0,0,0,1020147108,63
o,1723549326.549814,10.0.2.15,22,10.0.2.2,52312,1073725440,15758,1026,65535,65700,0,0,4,1460,312,0,16777216,240000,33580,492,65700,0,0,0,1020147108,63
i,1723549326.550239,10.0.2.15,22,10.0.2.2,52312,1073725440,15758,1026,65535,65700,0,0,4,1460,312,0,16777216,240000,33580,492,65700,0,492,0,1020147108,63
i,1723549326.554683,10.0.2.15,22,10.0.2.2,52312,1073725440,16250,1026,65535,65700,0,0,4,1460,312,0,0,240000,33580,0,65700,0,0,0,1020147108,63
i,1723549326.554703,10.0.2.15,22,10.0.2.2,52312,1073725440,16250,1026,65535,65700,0,0,4,1460,312,0,0,240000,33580,0,65700,16,0,0,1020147108,63
o,1723549326.554737,10.0.2.15,22,10.0.2.2,52312,1073725440,16250,1026,65535,65700,0,0,4,1460,312,0,1,240000,33580,0,65700,60,0,0,1020147108,63
o,1723549326.555003,10.0.2.15,22,10.0.2.2,52312,1073725440,16250,1026,65535,65700,0,0,4,1460,312,0,16777216,240000,33580,44,65700,0,0,0,1020147108,63
i,1723549326.555526,10.0.2.15,22,10.0.2.2,52312,1073725440,16250,1026,65535,65700,0,0,4,1460,312,0,16777216,240000,33580,44,65700,0,44,0,1020147108,63
i,1723549326.555543,10.0.2.15,22,10.0.2.2,52312,1073725440,16294,1026,65535,65700,0,0,4,1460,312,0,0,240000,33580,0,65700,0,0,0,1020147108,63
o,1723549326.556837,10.0.2.15,22,10.0.2.2,52312,1073725440,16294,1026,65535,65700,0,0,4,1460,312,0,16777216,240000,33580,68,65700,0,0,0,1020147108,63
i,1723549326.557353,10.0.2.15,22,10.0.2.2,52312,1073725440,16294,1026,65535,65700,0,0,4,1460,312,0,16777216,240000,33580,68,65700,0,68,0,1020147108,63
i,1723549326.559750,10.0.2.15,22,10.0.2.2,52312,1073725440,16362,1026,65535,65700,0,0,4,1460,312,0,0,240000,33580,0,65700,0,0,0,1020147108,63
o,1723549326.560475,10.0.2.15,22,10.0.2.2,52312,1073725440,16362,1026,65535,65700,0,0,4,1460,312,0,16777216,240000,33580,332,65700,0,0,0,1020147108,63
i,1723549326.560941,10.0.2.15,22,10.0.2.2,52312,1073725440,16362,1026,65535,65700,0,0,4,1460,312,0,16777216,240000,33580,332,65700,0,332,0,1020147108,63
i,1723549326.562463,10.0.2.15,22,10.0.2.2,52312,1073725440,16694,1026,65535,65700,0,0,4,1460,312,0,0,240000,33580,0,65700,0,0,0,1020147108,63
o,1723549326.581433,10.0.2.15,22,10.0.2.2,52312,1073725440,16694,1026,65535,65700,0,0,4,1460,312,0,16777216,240000,33580,28,65700,0,0,0,1020147108,63
i,1723549326.582174,10.0.2.15,22,10.0.2.2,52312,1073725440,16694,1026,65535,65700,0,0,4,1460,312,0,16777216,240000,33580,28,65700,0,28,0,1020147108,63
i,1723549326.582196,10.0.2.15,22,10.0.2.2,52312,1073725440,16722,1026,65535,65700,0,0,4,1460,312,0,0,240000,33580,0,65700,0,0,0,1020147108,63
o,1723549326.583765,10.0.2.15,22,10.0.2.2,52312,1073725440,16722,1026,65535,65700,0,0,4,1460,312,0,16777216,240000,33580,768,65700,112,0,0,1020147108,63
i,1723549326.584568,10.0.2.15,22,10.0.2.2,52312,1073725440,16722,1026,65535,65700,0,0,4,1460,312,0,16777216,240000,33580,908,65700,112,768,0,1020147108,63
o,1723549326.584587,10.0.2.15,22,10.0.2.2,52312,1073725440,17490,1026,65535,65700,0,0,4,1460,312,0,16777216,240000,33580,140,65700,112,0,0,1020147108,63
i,1723549326.584912,10.0.2.15,22,10.0.2.2,52312,1073725440,17490,1026,65535,65700,0,0,4,1460,312,0,16777216,240000,33580,140,65700,112,140,0,1020147108,63
o,1723549326.585248,10.0.2.15,22,10.0.2.2,52312,1073725440,17630,1026,65535,65700,0,0,4,1460,312,0,16777216,240000,33580,44,65700,0,0,0,1020147108,63
i,1723549326.585829,10.0.2.15,22,10.0.2.2,52312,1073725440,17630,1026,65535,65700,0,0,4,1460,312,0,16777216,240000,33580,44,65700,0,44,0,1020147108,63
i,1723549326.585846,10.0.2.15,22,10.0.2.2,52312,1073725440,17674,1026,65535,65700,0,0,4,1460,312,0,0,240000,33580,0,65700,0,0,0,1020147108,63
o,1723549326.586391,10.0.2.15,22,10.0.2.2,52312,1073725440,17674,1026,65535,65700,0,0,4,1460,312,0,16777220,240000,33580,72,65700,0,0,0,1020147108,63
i,1723549326.586809,10.0.2.15,22,10.0.2.2,52312,1073725440,17674,1026,65535,65700,0,0,4,1460,312,0,16777220,240000,33580,72,65700,0,72,0,1020147108,63
i,1723549326.587181,10.0.2.15,22,10.0.2.2,52312,1073725440,17746,1026,65535,65700,0,0,4,1460,312,0,4,240000,33580,0,65700,0,0,0,1020147108,63
o,1723549326.626351,10.0.2.15,22,10.0.2.2,52312,1073725440,17746,1026,65535,65700,0,0,4,1460,312,0,5,240000,33580,0,65700,0,0,0,1020147108,63
o,1723549326.713003,172.16.3.2,54409,172.16.1.2,5101,13042,14480,34,65535,65700,6,6,4,1460,182187,1,16778209,570000,33580,0,65700,0,0,0,688801851,63
o,1723549326.714093,172.16.3.2,54409,172.16.1.2,5101,13042,14480,34,65535,65700,6,6,4,1460,182187,1,16778212,570000,33580,37,65700,0,0,0,688801851,63
i,1723549326.828839,172.16.3.2,54409,172.16.1.2,5101,13042,14480,34,65535,65700,6,6,4,1460,182187,1,16778212,570000,33580,37,65700,0,37,0,688801851,63
o,1723549326.829189,172.16.3.2,54409,172.16.1.2,5101,13042,14517,1058,65728,65728,6,6,4,1460,173437,1,16778212,590000,33580,4,65700,0,0,0,688801851,63
o,1723549326.829320,172.16.3.2,54409,172.16.1.2,5101,13042,14517,1058,65728,65728,6,6,4,1460,173437,1,16778212,590000,33580,130,65700,0,4,0,688801851,63
i,1723549326.954243,172.16.3.2,54409,172.16.1.2,5101,13042,14517,1058,65728,65728,6,6,4,1460,173437,1,16778212,590000,33580,130,65700,0,130,0,688801851,63
i,1723549326.954482,172.16.3.2,54409,172.16.1.2,5101,13042,14647,1058,65600,65728,6,6,4,1460,168125,1,996,570000,33580,0,65700,0,0,0,688801851,63
o,1723549326.995050,172.16.3.2,54409,172.16.1.2,5101,13042,14647,1058,65728,65728,6,6,4,1460,168125,1,997,570000,33580,0,65700,0,0,0,688801851,63
o,1723549327.058206,172.16.3.2,33509,172.16.1.2,5101,13042,14480,34,65535,65700,6,6,4,1460,179687,1,16778209,590000,33580,0,65700,0,0,0,301871252,63
o,1723549327.058399,172.16.3.2,33509,172.16.1.2,5101,13042,14480,34,65535,65700,6,6,4,1460,179687,1,16778208,590000,33580,37,65700,0,0,0,301871252,63
i,1723549327.177992,172.16.3.2,54409,172.16.1.2,5101,13042,14647,1058,65728,65728,6,6,4,1460,168125,1,996,570000,33580,0,65700,0,0,0,688801851,63
i,1723549327.178225,172.16.3.2,54409,172.16.1.2,5101,13042,14647,1058,65728,65728,6,6,4,1460,168125,1,996,570000,33580,0,65700,1,0,0,688801851,63
o,1723549327.178277,172.16.3.2,54409,172.16.1.2,5101,13042,14647,1058,65728,65728,6,6,4,1460,168125,1,997,570000,33580,0,65700,2,0,0,688801851,63
o,1723549327.179679,172.16.3.2,33509,172.16.1.2,5101,13042,14480,38,65535,65700,6,6,4,1460,179687,1,16778208,590000,33580,33580,65700,0,37,0,301871252,63
i,1723549327.208959,172.16.3.2,33509,172.16.1.2,5101,13042,14480,38,65535,65700,6,6,4,1460,179687,1,16778208,590000,33580,33580,65700,0,13069,0,301871252,63
o,1723549327.209052,172.16.3.2,33509,172.16.1.2,5101,13042,14517,38,65728,65728,6,6,4,1460,176250,1,16778208,560000,33580,33543,65700,0,13032,0,301871252,63
i,1723549327.287260,172.16.3.2,33509,172.16.1.2,5101,13042,14517,38,65728,65728,6,6,4,1460,176250,1,16778208,560000,33580,33543,65700,0,14480,0,301871252,63
o,1723549327.287344,172.16.3.2,33509,172.16.1.2,5101,13042,17413,38,62848,65728,6,6,4,1460,168125,1,16778208,570000,33580,30647,65700,0,11584,0,301871252,63
i,1723549327.318946,172.16.3.2,33509,172.16.1.2,5101,13042,17413,38,62848,65728,6,6,4,1460,168125,1,16778208,570000,41772,41772,65700,0,17376,0,301871252,63
o,1723549327.318955,172.16.3.2,33509,172.16.1.2,5101,13042,20309,38,62848,65728,6,6,4,1460,164687,1,16778208,540000,41772,38876,65700,0,14480,0,301871252,63
i,1723549327.318966,172.16.3.2,33509,172.16.1.2,5101,13042,20309,38,62848,65728,6,6,4,1460,164687,1,16778208,540000,49964,38876,65700,0,20272,0,301871252,63
o,1723549327.318970,172.16.3.2,33509,172.16.1.2,5101,13042,23205,38,59968,65728,6,6,4,1460,161875,1,16778208,520000,49964,35980,65700,0,17376,0,301871252,63
i,1723549327.320012,172.16.3.2,33509,172.16.1.2,5101,13042,23205,38,59968,65728,6,6,4,1460,161875,1,16778208,520000,49964,35980,65700,0,23168,0,301871252,63
o,1723549327.320038,172.16.3.2,33509,172.16.1.2,5101,13042,26101,38,57088,65728,6,6,4,1460,159375,1,16778208,500000,49964,33084,65700,0,20272,0,301871252,63
i,1723549327.320223,172.16.3.2,33509,172.16.1.2,5101,13042,26101,38,57088,65728,6,6,4,1460,159375,1,16778208,500000,49964,33084,65700,0,26064,0,301871252,63
o,1723549327.320239,172.16.3.2,33509,172.16.1.2,5101,13042,28997,38,64256,65728,6,6,4,1460,157187,1,16778208,480000,49964,30188,65700,0,23168,0,301871252,63
o,1723549327.320371,172.16.3.2,33509,172.16.1.2,5101,13042,28997,38,64256,65728,6,6,4,1460,157187,1,16778208,480000,49964,30188,65700,0,24616,0,301871252,63
i,1723549327.454590,172.16.3.2,33509,172.16.1.2,5101,13042,28997,38,64256,65728,6,6,4,1460,157187,1,16778208,480000,58156,58156,65700,0,28960,0,301871252,63
o,1723549327.454634,172.16.3.2,33509,172.16.1.2,5101,13042,28997,38,64256,65728,6,6,4,1460,159062,1,16778208,460000,58156,55260,65700,0,26064,0,301871252,63
i,1723549327.454881,172.16.3.2,33509,172.16.1.2,5101,13042,28997,38,64256,65728,6,6,4,1460,159062,1,16778208,460000,66348,55260,65700,0,28960,0,301871252,63
o,1723549327.454898,172.16.3.2,33509,172.16.1.2,5101,13042,28997,38,62848,65728,6,6,4,1460,160625,1,16778208,450000,66348,52364,65700,0,26064,0,301871252,63
i,1723549327.477638,172.16.3.2,33509,172.16.1.2,5101,13042,28997,38,62848,65728,6,6,4,1460,160625,1,16778208,450000,66348,66348,65700,0,28960,0,301871252,63
o,1723549327.477667,172.16.3.2,33509,172.16.1.2,5101,13042,28997,38,62848,65728,6,6,4,1460,159375,1,16778208,440000,66348,63452,65700,0,26064,0,301871252,63
i,1723549327.477914,172.16.3.2,33509,172.16.1.2,5101,13042,28997,38,62848,65728,6,6,4,1460,159375,1,16778208,440000,66348,63452,65700,0,28960,0,301871252,63
o,1723549327.477930,172.16.3.2,33509,172.16.1.2,5101,13042,28997,38,59968,65728,6,6,4,1460,158437,1,16778208,420000,66348,60556,65700,0,26064,0,301871252,63
i,1723549327.478209,172.16.3.2,33509,172.16.1.2,5101,13042,28997,38,59968,65728,6,6,4,1460,158437,1,16778208,420000,66348,60556,65700,0,28960,0,301871252,63
o,1723549327.478226,172.16.3.2,33509,172.16.1.2,5101,13042,28997,38,57088,65728,6,6,4,1460,157500,1,16778208,410000,66348,57660,65700,0,26064,0,301871252,63
i,1723549327.479035,172.16.3.2,33509,172.16.1.2,5101,13042,28997,38,57088,65728,6,6,4,1460,157500,1,16778208,410000,66348,66348,65700,0,28960,0,301871252,63
o,1723549327.479062,172.16.3.2,33509,172.16.1.2,5101,13042,28997,38,54208,65728,6,6,4,1460,156562,1,16778208,400000,66348,63452,65700,0,26064,0,301871252,63
i,1723549327.479215,172.16.3.2,33509,172.16.1.2,5101,13042,28997,38,54208,65728,6,6,4,1460,156562,1,16778208,400000,66348,63452,65700,0,28960,0,301871252,63
o,1723549327.479232,172.16.3.2,33509,172.16.1.2,5101,13042,28997,38,51328,65728,6,6,4,1460,155937,1,16778208,400000,66348,60556,65700,0,26064,0,301871252,63
i,1723549327.479366,172.16.3.2,33509,172.16.1.2,5101,13042,28997,38,51328,65728,6,6,4,1460,155937,1,16778208,400000,66348,60556,65700,0,28960,0,301871252,63
o,1723549327.479394,172.16.3.2,33509,172.16.1.2,5101,13042,28997,38,64256,65728,6,6,4,1460,155312,1,16778208,390000,66348,57660,65700,0,26064,0,301871252,63
i,1723549327.479522,172.16.3.2,33509,172.16.1.2,5101,13042,28997,38,64256,65728,6,6,4,1460,155312,1,16778208,390000,66348,57660,65700,0,28960,0,301871252,63
o,1723549327.479538,172.16.3.2,33509,172.16.1.2,5101,13042,28997,38,61376,65728,6,6,4,1460,154687,1,16778208,380000,66348,54764,65700,0,26064,0,301871252,63
o,1723549327.479666,172.16.3.2,33509,172.16.1.2,5101,13042,28997,38,61376,65728,6,6,4,1460,154687,1,16778208,380000,66348,54764,65700,0,27512,0,301871252,63
i,1723549327.520902,172.16.3.2,33509,172.16.1.2,5101,13042,28997,38,61376,65728,6,6,4,1460,154687,1,16778208,380000,66348,66348,65700,0,28960,0,301871252,63
o,1723549327.520995,172.16.3.2,33509,172.16.1.2,5101,13042,28997,38,65728,65728,6,6,4,1460,160625,1,16778208,430000,66348,64900,65700,0,27512,0,301871252,63
i,1723549327.547659,172.16.3.2,33509,172.16.1.2,5101,13042,28997,38,65728,65728,6,6,4,1460,160625,1,16778208,430000,66348,64900,65700,0,28960,0,301871252,63
o,1723549327.547724,172.16.3.2,33509,172.16.1.2,5101,13042,28997,38,98560,65728,6,6,4,1460,168125,1,16778208,480000,66348,63452,65700,0,27512,0,301871252,63
i,1723549327.599685,172.16.3.2,33509,172.16.1.2,5101,13042,28997,38,98560,65728,6,6,4,1460,168125,1,16778208,480000,66348,66348,65700,0,28960,0,301871252,63
o,1723549327.599767,172.16.3.2,33509,172.16.1.2,5101,13042,28997,38,95680,65728,6,6,4,1460,164687,1,16778208,480000,66348,63452,65700,0,26064,0,301871252,63
i,1723549327.599898,172.16.3.2,33509,172.16.1.2,5101,13042,28997,38,95680,65728,6,6,4,1460,164687,1,16778208,480000,66348,63452,65700,0,28960,0,301871252,63
o,1723549327.599914,172.16.3.2,33509,172.16.1.2,5101,13042,28997,38,92800,65728,6,6,4,1460,161875,1,16778208,470000,66348,60556,65700,0,26064,0,301871252,63
i,1723549327.629779,172.16.3.2,33509,172.16.1.2,5101,13042,28997,38,92800,65728,6,6,4,1460,161875,1,16778208,470000,66348,66348,65700,0,28960,0,301871252,63
o,1723549327.629823,172.16.3.2,33509,172.16.1.2,5101,13042,28997,38,97152,65728,6,6,4,1460,160625,1,16778208,450000,66348,63452,65700,0,26064,0,301871252,63
i,1723549327.630010,172.16.3.2,33509,172.16.1.2,5101,13042,28997,38,97152,65728,6,6,4,1460,160625,1,16778208,450000,66348,63452,65700,0,28960,0,301871252,63
o,1723549327.630031,172.16.3.2,33509,172.16.1.2,5101,13042,28997,38,94272,65728,6,6,4,1460,159375,1,16778208,440000,66348,60556,65700,0,26064,0,301871252,63
i,1723549327.630162,172.16.3.2,33509,172.16.1.2,5101,13042,28997,38,94272,65728,6,6,4,1460,159375,1,16778208,440000,66348,60556,65700,0,28960,0,301871252,63
o,1723549327.630177,172.16.3.2,33509,172.16.1.2,5101,13042,28997,38,95680,65728,6,6,4,1460,158437,1,16778208,420000,66348,57660,65700,0,26064,0,301871252,63
i,1723549327.630318,172.16.3.2,33509,172.16.1.2,5101,13042,28997,38,95680,65728,6,6,4,1460,158437,1,16778208,420000,66348,57660,65700,0,28960,0,301871252,63
o,1723549327.630335,172.16.3.2,33509,172.16.1.2,5101,13042,28997,38,92800,65728,6,6,4,1460,157500,1,16778208,410000,66348,54764,65700,0,26064,0,301871252,63
i,1723549327.630542,172.16.3.2,33509,172.16.1.2,5101,13042,28997,38,92800,65728,6,6,4,1460,157500,1,16778208,410000,66348,54764,65700,0,28960,0,301871252,63
o,1723549327.630562,172.16.3.2,33509,172.16.1.2,5101,13042,28997,38,95680,65728,6,6,4,1460,156562,1,16778208,400000,66348,51868,65700,0,26064,0,301871252,63
i,1723549327.673980,172.16.3.2,33509,172.16.1.2,5101,13042,28997,38,95680,65728,6,6,4,1460,156562,1,16778208,400000,66348,66348,65700,0,28960,0,301871252,63
o,1723549327.674014,172.16.3.2,33509,172.16.1.2,5101,13042,28997,38,97152,65728,6,6,4,1460,162187,1,16778208,440000,66348,63452,65700,0,26064,0,301871252,63
i,1723549327.674228,172.16.3.2,33509,172.16.1.2,5101,13042,28997,38,97152,65728,6,6,4,1460,162187,1,16778208,440000,66348,63452,65700,0,28960,0,301871252,63
o,1723549327.674247,172.16.3.2,33509,172.16.1.2,5101,13042,28997,38,97152,65728,6,6,4,1460,167187,1,16778208,470000,66348,60556,65700,0,26064,0,301871252,63
o,1723549327.674357,172.16.3.2,33509,172.16.1.2,5101,13042,28997,38,97152,65728,6,6,4,1460,167187,1,16778208,470000,66348,60556,65700,0,27512,0,301871252,63
i,1723549327.674498,172.16.3.2,33509,172.16.1.2,5101,13042,28997,38,97152,65728,6,6,4,1460,167187,1,16778208,470000,66348,60556,65700,0,28960,0,301871252,63
o,1723549327.674515,172.16.3.2,33509,172.16.1.2,5101,13042,28997,38,94272,65728,6,6,4,1460,165312,1,16778208,460000,66348,57660,65700,0,26064,0,301871252,63
i,1723549327.767330,172.16.3.2,33509,172.16.1.2,5101,13042,28997,38,94272,65728,6,6,4,1460,165312,1,16778208,460000,66348,66348,65700,0,28960,0,301871252,63
o,1723549327.767418,172.16.3.2,33509,172.16.1.2,5101,13042,28997,38,95680,65728,6,6,4,1460,165937,1,16778208,440000,66348,63452,65700,0,26064,0,301871252,63
i,1723549327.767577,172.16.3.2,33509,172.16.1.2,5101,13042,28997,38,95680,65728,6,6,4,1460,165937,1,16778208,440000,66348,63452,65700,0,28960,0,301871252,63
o,1723549327.767594,172.16.3.2,33509,172.16.1.2,5101,13042,28997,38,97152,65728,6,6,4,1460,166562,1,16778208,430000,66348,60556,65700,0,26064,0,301871252,63
i,1723549327.787672,172.16.3.2,33509,172.16.1.2,5101,13042,28997,38,97152,65728,6,6,4,1460,166562,1,16778208,430000,66348,66348,65700,0,28960,0,301871252,63
o,1723549327.787727,172.16.3.2,33509,172.16.1.2,5101,13042,28997,38,95680,65728,6,6,4,1460,165937,1,16778208,420000,66348,63452,65700,0,26064,0,301871252,63
i,1723549327.788007,172.16.3.2,33509,172.16.1.2,5101,13042,28997,38,95680,65728,6,6,4,1460,165937,1,16778208,420000,66348,63452,65700,0,28960,0,301871252,63
o,1723549327.788031,172.16.3.2,33509,172.16.1.2,5101,13042,28997,38,95680,65728,6,6,4,1460,165312,1,16778208,410000,66348,60556,65700,0,26064,0,301871252,63
i,1723549327.788170,172.16.3.2,33509,172.16.1.2,5101,13042,28997,38,95680,65728,6,6,4,1460,165312,1,16778208,410000,66348,60556,65700,0,28960,0,301871252,63
o,1723549327.788187,172.16.3.2,33509,172.16.1.2,5101,13042,28997,38,92800,65728,6,6,4,1460,164687,1,16778208,400000,66348,57660,65700,0,26064,0,301871252,63
i,1723549327.788315,172.16.3.2,33509,172.16.1.2,5101,13042,28997,38,92800,65728,6,6,4,1460,164687,1,16778208,400000,66348,57660,65700,0,28960,0,301871252,63
o,1723549327.788343,172.16.3.2,33509,172.16.1.2,5101,13042,28997,38,97152,65728,6,6,4,1460,164375,1,16778208,390000,66348,54764,65700,0,26064,0,301871252,63
i,1723549327.788479,172.16.3.2,33509,172.16.1.2,5101,13042,28997,38,97152,65728,6,6,4,1460,164375,1,16778208,390000,66348,54764,65700,0,28960,0,301871252,63
o,1723549327.788495,172.16.3.2,33509,172.16.1.2,5101,13042,28997,38,97152,65728,6,6,4,1460,164062,1,16778208,390000,66348,51868,65700,0,26064,0,301871252,63
i,1723549327.788689,172.16.3.2,33509,172.16.1.2,5101,13042,28997,38,97152,65728,6,6,4,1460,164062,1,16778208,390000,66348,51868,65700,0,28960,0,301871252,63
o,1723549327.788714,172.16.3.2,33509,172.16.1.2,5101,13042,28997,38,97152,65728,6,6,4,1460,157500,1,16778208,430000,66348,48972,65700,0,26064,0,301871252,63
i,1723549327.788913,172.16.3.2,33509,172.16.1.2,5101,13042,28997,38,97152,65728,6,6,4,1460,157500,1,16778208,430000,66348,48972,65700,0,28960,0,301871252,63
o,1723549327.788937,172.16.3.2,33509,172.16.1.2,5101,13042,28997,38,95680,65728,6,6,4,1460,151562,1,16778208,450000,66348,46076,65700,0,26064,0,301871252,63
o,1723549327.789049,172.16.3.2,33509,172.16.1.2,5101,13042,28997,38,95680,65728,6,6,4,1460,151562,1,16778208,450000,66348,46076,65700,0,27512,0,301871252,63
i,1723549327.798766,172.16.3.2,33509,172.16.1.2,5101,13042,28997,38,95680,65728,6,6,4,1460,151562,1,16778208,450000,66348,66348,65700,0,28960,0,301871252,63
o,1723549327.798848,172.16.3.2,33509,172.16.1.2,5101,13042,28997,38,97152,65728,6,6,4,1460,147812,1,16778208,450000,66348,63452,65700,0,26064,0,301871252,63
i,1723549327.868796,172.16.3.2,33509,172.16.1.2,5101,13042,28997,38,97152,65728,6,6,4,1460,147812,1,16778208,450000,66348,66348,65700,0,28960,0,301871252,63
o,1723549327.868850,172.16.3.2,33509,172.16.1.2,5101,13042,28997,38,95680,65728,6,6,4,1460,141875,1,16778208,470000,66348,63452,65700,0,26064,0,301871252,63
i,1723549327.869073,172.16.3.2,33509,172.16.1.2,5101,13042,28997,38,95680,65728,6,6,4,1460,141875,1,16778208,470000,66348,63452,65700,0,28960,0,301871252,63
o,1723549327.869108,172.16.3.2,33509,172.16.1.2,5101,13042,28997,38,92800,65728,6,6,4,1460,136875,1,16778208,470000,66348,60556,65700,0,26064,0,301871252,63
i,1723549327.909345,172.16.3.2,33509,172.16.1.2,5101,13042,28997,38,92800,65728,6,6,4,1460,136875,1,16778208,470000,66348,66348,65700,0,28960,0,301871252,63
o,1723549327.909381,172.16.3.2,33509,172.16.1.2,5101,13042,28997,38,95680,65728,6,6,4,1460,135000,1,16778208,450000,66348,63452,65700,0,26064,0,301871252,63
i,1723549327.909523,172.16.3.2,33509,172.16.1.2,5101,13042,28997,38,95680,65728,6,6,4,1460,135000,1,16778208,450000,66348,63452,65700,0,28960,0,301871252,63
o,1723549327.909541,172.16.3.2,33509,172.16.1.2,5101,13042,28997,38,95680,65728,6,6,4,1460,133125,1,16778208,430000,66348,60556,65700,0,26064,0,301871252,63
i,1723549327.909661,172.16.3.2,33509,172.16.1.2,5101,13042,28997,38,95680,65728,6,6,4,1460,133125,1,16778208,430000,66348,60556,65700,0,28960,0,301871252,63
o,1723549327.909692,172.16.3.2,33509,172.16.1.2,5101,13042,28997,38,92800,65728,6,6,4,1460,131562,1,16778208,420000,66348,57660,65700,0,26064,0,301871252,63
i,1723549327.909810,172.16.3.2,33509,172.16.1.2,5101,13042,28997,38,92800,65728,6,6,4,1460,131562,1,16778208,420000,66348,57660,65700,0,28960,0,301871252,63
o,1723549327.909826,172.16.3.2,33509,172.16.1.2,5101,13042,28997,38,95680,65728,6,6,4,1460,130312,1,16778208,410000,66348,54764,65700,0,26064,0,301871252,63
i,1723549327.909944,172.16.3.2,33509,172.16.1.2,5101,13042,28997,38,95680,65728,6,6,4,1460,130312,1,16778208,410000,66348,54764,65700,0,28960,0,301871252,63
o,1723549327.909960,172.16.3.2,33509,172.16.1.2,5101,13042,28997,38,95680,65728,6,6,4,1460,129062,1,16778208,390000,66348,51868,65700,0,26064,0,301871252,63
i,1723549327.910134,172.16.3.2,33509,172.16.1.2,5101,13042,28997,38,95680,65728,6,6,4,1460,129062,1,16778208,390000,66348,51868,65700,0,28960,0,301871252,63
o,1723549327.910150,172.16.3.2,33509,172.16.1.2,5101,13042,28997,38,92800,65728,6,6,4,1460,128125,1,16778208,380000,66348,48972,65700,0,26064,0,301871252,63
i,1723549327.945437,172.16.3.2,33509,172.16.1.2,5101,13042,28997,38,92800,65728,6,6,4,1460,128125,1,16778208,380000,66348,66348,65700,0,28960,0,301871252,63
o,1723549327.945534,172.16.3.2,33509,172.16.1.2,5101,13042,28997,38,97152,65728,6,6,4,1460,132187,1,16778208,400000,66348,63452,65700,0,26064,0,301871252,63
o,1723549327.945683,172.16.3.2,33509,172.16.1.2,5101,13042,28997,38,97152,65728,6,6,4,1460,132187,1,16778208,400000,66348,63452,65700,0,27512,0,301871252,63
i,1723549327.946555,172.16.3.2,33509,172.16.1.2,5101,13042,28997,38,97152,65728,6,6,4,1460,132187,1,16778208,400000,66348,63452,65700,0,28960,0,301871252,63
o,1723549327.946575,172.16.3.2,33509,172.16.1.2,5101,13042,28997,38,94272,65728,6,6,4,1460,134687,1,16778208,410000,66348,60556,65700,0,26064,0,301871252,63
i,1723549328.018710,172.16.3.2,33509,172.16.1.2,5101,13042,28997,38,94272,65728,6,6,4,1460,134687,1,16778208,410000,66348,66348,65700,0,28960,0,301871252,63
o,1723549328.018813,172.16.3.2,33509,172.16.1.2,5101,13042,28997,38,95680,65728,6,6,4,1460,136875,1,16778208,410000,66348,63452,65700,0,26064,0,301871252,63
i,1723549328.018967,172.16.3.2,33509,172.16.1.2,5101,13042,28997,38,95680,65728,6,6,4,1460,136875,1,16778208,410000,66348,63452,65700,0,28960,0,301871252,63
o,1723549328.018984,172.16.3.2,33509,172.16.1.2,5101,13042,28997,38,95680,65728,6,6,4,1460,138750,1,16778208,410000,66348,60556,65700,0,26064,0,301871252,63
i,1723549328.030229,172.16.3.2,33509,172.16.1.2,5101,13042,28997,38,95680,65728,6,6,4,1460,138750,1,16778208,410000,66348,66348,65700,0,28960,0,301871252,63
o,1723549328.030301,172.16.3.2,33509,172.16.1.2,5101,13042,28997,38,97152,65728,6,6,4,1460,135312,1,16778208,420000,66348,63452,65700,0,26064,0,301871252,63
i,1723549328.030454,172.16.3.2,33509,172.16.1.2,5101,13042,28997,38,97152,65728,6,6,4,1460,135312,1,16778208,420000,66348,63452,65700,0,28960,0,301871252,63
o,1723549328.030478,172.16.3.2,33509,172.16.1.2,5101,13042,28997,38,94272,65728,6,6,4,1460,132187,1,16778208,420000,66348,60556,65700,0,26064,0,301871252,63
i,1723549328.047919,172.16.3.2,33509,172.16.1.2,5101,13042,28997,38,94272,65728,6,6,4,1460,132187,1,16778208,420000,66348,66348,65700,0,28960,0,301871252,63
o,1723549328.047952,172.16.3.2,33509,172.16.1.2,5101,13042,28997,38,95680,65728,6,6,4,1460,132187,1,16778208,390000,66348,63452,65700,0,26064,0,301871252,63
i,1723549328.048138,172.16.3.2,33509,172.16.1.2,5101,13042,28997,38,95680,65728,6,6,4,1460,132187,1,16778208,390000,66348,63452,65700,0,28960,0,301871252,63
o,1723549328.048155,172.16.3.2,33509,172.16.1.2,5101,13042,28997,38,95680,65728,6,6,4,1460,132187,1,16778208,380000,66348,60556,65700,0,26064,0,301871252,63
i,1723549328.048608,172.16.3.2,33509,172.16.1.2,5101,13042,28997,38,95680,65728,6,6,4,1460,132187,1,16778208,380000,66348,60556,65700,0,28960,0,301871252,63
o,1723549328.048637,172.16.3.2,33509,172.16.1.2,5101,13042,28997,38,92800,65728,6,6,4,1460,132187,1,16778208,370000,66348,57660,65700,0,26064,0,301871252,63
i,1723549328.048798,172.16.3.2,33509,172.16.1.2,5101,13042,28997,38,92800,65728,6,6,4,1460,132187,1,16778208,370000,66348,57660,65700,0,28960,0,301871252,63
o,1723549328.048815,172.16.3.2,33509,172.16.1.2,5101,13042,28997,38,97152,65728,6,6,4,1460,132187,1,16778208,360000,66348,54764,65700,0,26064,0,301871252,63
i,1723549328.049542,172.16.3.2,33509,172.16.1.2,5101,13042,28997,38,97152,65728,6,6,4,1460,132187,1,16778208,360000,66348,66348,65700,0,28960,0,301871252,63
o,1723549328.049607,172.16.3.2,33509,172.16.1.2,5101,13042,28997,38,95680,65728,6,6,4,1460,127187,1,16778208,380000,66348,63452,65700,0,26064,0,301871252,63
o,1723549328.049725,172.16.3.2,33509,172.16.1.2,5101,13042,28997,38,95680,65728,6,6,4,1460,127187,1,16778208,380000,66348,63452,65700,0,27512,0,301871252,63
i,1723549328.090667,172.16.3.2,33509,172.16.1.2,5101,13042,28997,38,95680,65728,6,6,4,1460,127187,1,16778208,380000,66348,66348,65700,0,28960,0,301871252,63
o,1723549328.090731,172.16.3.2,33509,172.16.1.2,5101,13042,28997,38,95680,65728,6,6,4,1460,127812,1,16778208,380000,66348,63452,65700,0,26064,0,301871252,63
i,1723549328.118943,172.16.3.2,33509,172.16.1.2,5101,13042,28997,38,95680,65728,6,6,4,1460,127812,1,16778208,380000,66348,66348,65700,0,28960,0,301871252,63
o,1723549328.119018,172.16.3.2,33509,172.16.1.2,5101,13042,28997,38,95680,65728,6,6,4,1460,124375,1,16778208,390000,66348,63452,65700,0,26064,0,301871252,63
i,1723549328.120540,172.16.3.2,33509,172.16.1.2,5101,13042,28997,38,95680,65728,6,6,4,1460,124375,1,16778208,390000,66348,66348,65700,0,28960,0,301871252,63
o,1723549328.120622,172.16.3.2,33509,172.16.1.2,5101,13042,28997,38,97152,65728,6,6,4,1460,121562,1,16778208,390000,66348,63452,65700,0,26064,0,301871252,63
i,1723549328.168971,172.16.3.2,33509,172.16.1.2,5101,13042,28997,38,97152,65728,6,6,4,1460,121562,1,16778208,390000,66348,66348,65700,0,28960,0,301871252,63
o,1723549328.169006,172.16.3.2,33509,172.16.1.2,5101,13042,28997,38,95680,65728,6,6,4,1460,124062,1,16778208,400000,66348,63452,65700,0,26064,0,301871252,63
i,1723549328.169145,172.16.3.2,33509,172.16.1.2,5101,13042,28997,38,95680,65728,6,6,4,1460,124062,1,16778208,400000,66348,63452,65700,0,28960,0,301871252,63
o,1723549328.169162,172.16.3.2,33509,172.16.1.2,5101,13042,28997,38,97152,65728,6,6,4,1460,126250,1,16778208,400000,66348,60556,65700,0,26064,0,301871252,63
i,1723549328.169290,172.16.3.2,33509,172.16.1.2,5101,13042,28997,38,97152,65728,6,6,4,1460,126250,1,16778208,400000,66348,60556,65700,0,28960,0,301871252,63
o,1723549328.169306,172.16.3.2,33509,172.16.1.2,5101,13042,28997,38,94272,65728,6,6,4,1460,125625,1,16778208,390000,66348,57660,65700,0,26064,0,301871252,63
i,1723549328.169456,172.16.3.2,33509,172.16.1.2,5101,13042,28997,38,94272,65728,6,6,4,1460,125625,1,16778208,390000,66348,57660,65700,0,28960,0,301871252,63
o,1723549328.169482,172.16.3.2,33509,172.16.1.2,5101,13042,28997,38,97152,65728,6,6,4,1460,125000,1,16778208,380000,66348,54764,65700,0,26064,0,301871252,63
i,1723549328.170644,172.16.3.2,33509,172.16.1.2,5101,13042,28997,38,97152,65728,6,6,4,1460,125000,1,16778208,380000,66348,66348,65700,0,28960,0,301871252,63
o,1723549328.170668,172.16.3.2,33509,172.16.1.2,5101,13042,28997,38,94272,65728,6,6,4,1460,124375,1,16778208,370000,66348,63452,65700,0,26064,0,301871252,63
i,1723549328.196352,172.16.3.2,33509,172.16.1.2,5101,13042,28997,38,94272,65728,6,6,4,1460,124375,1,16778208,370000,66348,66348,65700,0,28960,0,301871252,63
o,1723549328.196395,172.16.3.2,33509,172.16.1.2,5101,13042,28997,38,95680,65728,6,6,4,1460,127812,1,16778208,390000,66348,63452,65700,0,26064,0,301871252,63
i,1723549328.196635,172.16.3.2,33509,172.16.1.2,5101,13042,28997,38,95680,65728,6,6,4,1460,127812,1,16778208,390000,66348,63452,65700,0,28960,0,301871252,63
o,1723549328.196666,172.16.3.2,33509,172.16.1.2,5101,13042,28997,38,92800,65728,6,6,4,1460,130625,1,16778208,400000,66348,60556,65700,0,26064,0,301871252,63
o,1723549328.196799,172.16.3.2,33509,172.16.1.2,5101,13042,28997,38,92800,65728,6,6,4,1460,130625,1,16778208,400000,66348,60556,65700,0,27512,0,301871252,63
i,1723549328.196942,172.16.3.2,33509,172.16.1.2,5101,13042,28997,38,92800,65728,6,6,4,1460,130625,1,16778208,400000,66348,60556,65700,0,28960,0,301871252,63
o,1723549328.196977,172.16.3.2,33509,172.16.1.2,5101,13042,28997,38,95680,65728,6,6,4,1460,128125,1,16778208,400000,66348,57660,65700,0,26064,0,301871252,63
i,1723549328.219267,172.16.3.2,33509,172.16.1.2,5101,13042,28997,38,95680,65728,6,6,4,1460,128125,1,16778208,400000,66348,66348,65700,0,28960,0,301871252,63
o,1723549328.219471,172.16.3.2,33509,172.16.1.2,5101,13042,28997,38,95680,65728,6,6,4,1460,123437,1,16778208,410000,66348,63452,65700,0,26064,0,301871252,63
i,1723549328.238789,172.16.3.2,33509,172.16.1.2,5101,13042,28997,38,95680,65728,6,6,4,1460,123437,1,16778208,410000,66348,66348,65700,0,28960,0,301871252,63
o,1723549328.238916,172.16.3.2,33509,172.16.1.2,5101,13042,28997,38,97152,65728,6,6,4,1460,121875,1,16778208,400000,66348,63452,65700,0,26064,0,301871252,63
i,1723549328.287745,172.16.3.2,33509,172.16.1.2,5101,13042,28997,38,97152,65728,6,6,4,1460,121875,1,16778208,400000,66348,66348,65700,0,28960,0,301871252,63
o,1723549328.287825,172.16.3.2,33509,172.16.1.2,5101,13042,28997,38,97152,65728,6,6,4,1460,121875,1,16778208,380000,66348,63452,65700,0,26064,0,301871252,63
i,1723549328.288011,172.16.3.2,33509,172.16.1.2,5101,13042,28997,38,97152,65728,6,6,4,1460,121875,1,16778208,380000,66348,63452,65700,0,28960,0,301871252,63
o,1723549328.288039,172.16.3.2,33509,172.16.1.2,5101,13042,28997,38,94272,65728,6,6,4,1460,121875,1,16778208,370000,66348,60556,65700,0,26064,0,301871252,63
i,1723549328.288260,172.16.3.2,33509,172.16.1.2,5101,13042,28997,38,94272,65728,6,6,4,1460,121875,1,16778208,370000,66348,60556,65700,0,28960,0,301871252,63
o,1723549328.288285,172.16.3.2,33509,172.16.1.2,5101,13042,28997,38,97152,65728,6,6,4,1460,121875,1,16778208,350000,66348,57660,65700,0,26064,0,301871252,63
i,1723549328.289472,172.16.3.2,33509,172.16.1.2,5101,13042,28997,38,97152,65728,6,6,4,1460,121875,1,16778208,350000,66348,66348,65700,0,28960,0,301871252,63
o,1723549328.289490,172.16.3.2,33509,172.16.1.2,5101,13042,28997,38,95680,65728,6,6,4,1460,121875,1,16778208,350000,66348,63452,65700,0,26064,0,301871252,63
i,1723549328.289671,172.16.3.2,33509,172.16.1.2,5101,13042,28997,38,95680,65728,6,6,4,1460,121875,1,16778208,350000,66348,63452,65700,0,28960,0,301871252,63
o,1723549328.289688,172.16.3.2,33509,172.16.1.2,5101,13042,28997,38,92800,65728,6,6,4,1460,121875,1,16778208,340000,66348,60556,65700,0,26064,0,301871252,63
i,1723549328.319758,172.16.3.2,33509,172.16.1.2,5101,13042,28997,38,92800,65728,6,6,4,1460,121875,1,16778208,340000,66348,66348,65700,0,28960,0,301871252,63
o,1723549328.319806,172.16.3.2,33509,172.16.1.2,5101,13042,28997,38,97152,65728,6,6,4,1460,121875,1,16778208,330000,66348,63452,65700,0,26064,0,301871252,63
i,1723549328.320151,172.16.3.2,33509,172.16.1.2,5101,13042,28997,38,97152,65728,6,6,4,1460,121875,1,16778208,330000,66348,63452,65700,0,28960,0,301871252,63
o,1723549328.320227,172.16.3.2,33509,172.16.1.2,5101,13042,28997,38,95680,65728,6,6,4,1460,121875,1,16778208,330000,66348,60556,65700,0,26064,0,301871252,63
o,1723549328.320392,172.16.3.2,33509,172.16.1.2,5101,13042,28997,38,95680,65728,6,6,4,1460,121875,1,16778208,330000,66348,60556,65700,0,27512,0,301871252,63
i,1723549328.320695,172.16.3.2,33509,172.16.1.2,5101,13042,28997,38,95680,65728,6,6,4,1460,121875,1,16778208,330000,66348,60556,65700,0,28960,0,301871252,63
o,1723549328.320711,172.16.3.2,33509,172.16.1.2,5101,13042,28997,38,95680,65728,6,6,4,1460,121875,1,16778208,330000,66348,57660,65700,0,26064,0,301871252,63
i,1723549328.320854,172.16.3.2,33509,172.16.1.2,5101,13042,28997,38,95680,65728,6,6,4,1460,121875,1,16778208,330000,66348,57660,65700,0,28960,0,301871252,63
o,1723549328.320870,172.16.3.2,33509,172.16.1.2,5101,13042,28997,38,97152,65728,6,6,4,1460,119375,1,16778208,340000,66348,54764,65700,0,26064,0,301871252,63
i,1723549328.357645,172.16.3.2,33509,172.16.1.2,5101,13042,28997,38,97152,65728,6,6,4,1460,119375,1,16778208,340000,66348,66348,65700,0,28960,0,301871252,63
o,1723549328.357703,172.16.3.2,33509,172.16.1.2,5101,13042,28997,38,95680,65728,6,6,4,1460,119687,1,16778208,340000,66348,63452,65700,0,26064,0,301871252,63
i,1723549328.419305,172.16.3.2,33509,172.16.1.2,5101,13042,28997,38,95680,65728,6,6,4,1460,119687,1,16778208,340000,66348,66348,65700,0,28960,0,301871252,63
o,1723549328.419461,172.16.3.2,33509,172.16.1.2,5101,13042,28997,38,97152,65728,6,6,4,1460,121250,1,16778208,350000,66348,63452,65700,0,26064,0,301871252,63
i,1723549328.419742,172.16.3.2,33509,172.16.1.2,5101,13042,28997,38,97152,65728,6,6,4,1460,121250,1,16778208,350000,66348,63452,65700,0,28960,0,301871252,63
o,1723549328.419879,172.16.3.2,33509,172.16.1.2,5101,13042,28997,38,97152,65728,6,6,4,1460,122500,1,16778208,350000,66348,60556,65700,0,26064,0,301871252,63
i,1723549328.422448,172.16.3.2,33509,172.16.1.2,5101,13042,28997,38,97152,65728,6,6,4,1460,122500,1,16778208,350000,66348,66348,65700,0,28960,0,301871252,63
o,1723549328.422522,172.16.3.2,33509,172.16.1.2,5101,13042,28997,38,95680,65728,6,6,4,1460,123437,1,16778208,350000,66348,63452,65700,0,26064,0,301871252,63
i,1723549328.422673,172.16.3.2,33509,172.16.1.2,5101,13042,28997,38,95680,65728,6,6,4,1460,123437,1,16778208,350000,66348,63452,65700,0,28960,0,301871252,63
o,1723549328.422692,172.16.3.2,33509,172.16.1.2,5101,13042,28997,38,95680,65728,6,6,4,1460,124375,1,16778208,350000,66348,60556,65700,0,26064,0,301871252,63
i,1723549328.422989,172.16.3.2,33509,172.16.1.2,5101,13042,28997,38,95680,65728,6,6,4,1460,124375,1,16778208,350000,66348,60556,65700,0,28960,0,301871252,63
o,1723549328.423008,172.16.3.2,33509,172.16.1.2,5101,13042,28997,38,95680,65728,6,6,4,1460,125312,1,16778208,360000,66348,57660,65700,0,26064,0,301871252,63
i,1723549328.423142,172.16.3.2,33509,172.16.1.2,5101,13042,28997,38,95680,65728,6,6,4,1460,125312,1,16778208,360000,66348,57660,65700,0,28960,0,301871252,63
o,1723549328.423158,172.16.3.2,33509,172.16.1.2,5101,13042,28997,38,97152,65728,6,6,4,1460,122187,1,16778208,370000,66348,54764,65700,0,26064,0,301871252,63
i,1723549328.446791,172.16.3.2,33509,172.16.1.2,5101,13042,28997,38,97152,65728,6,6,4,1460,122187,1,16778208,370000,66348,66348,65700,0,28960,0,301871252,63
o,1723549328.446791,172.16.3.2,33509,172.16.1.2,5101,13042,28997,38,97152,65728,6,6,4,1460,123437,1,16778208,370000,66348,63452,65700,0,26064,0,301871252,63
o,1723549328.446791,172.16.3.2,33509,172.16.1.2,5101,13042,28997,38,97152,65728,6,6,4,1460,123437,1,16778208,370000,66348,63452,65700,0,27512,0,301871252,63
i,1723549328.446791,172.16.3.2,33509,172.16.1.2,5101,13042,28997,38,97152,65728,6,6,4,1460,123437,1,16778208,370000,66348,63452,65700,0,28960,0,301871252,63
o,1723549328.446791,172.16.3.2,33509,172.16.1.2,5101,13042,28997,38,97152,65728,6,6,4,1460,124375,1,16778208,360000,66348,60556,65700,0,26064,0,301871252,63
i,1723549328.461744,172.16.3.2,33509,172.16.1.2,5101,13042,28997,38,97152,65728,6,6,4,1460,124375,1,16778208,360000,66348,66348,65700,0,28960,0,301871252,63
o,1723549328.461832,172.16.3.2,33509,172.16.1.2,5101,13042,28997,38,95680,65728,6,6,4,1460,126562,1,16778208,370000,66348,63452,65700,0,26064,0,301871252,63
i,1723549328.474258,172.16.3.2,33509,172.16.1.2,5101,13042,28997,38,95680,65728,6,6,4,1460,126562,1,16778208,370000,66348,66348,65700,0,28960,0,301871252,63
o,1723549328.474408,172.16.3.2,33509,172.16.1.2,5101,13042,28997,38,95680,65728,6,6,4,1460,124687,1,16778208,370000,66348,63452,65700,0,26064,0,301871252,63
i,1723549328.538459,172.16.3.2,33509,172.16.1.2,5101,13042,28997,38,95680,65728,6,6,4,1460,124687,1,16778208,370000,66348,66348,65700,0,28960,0,301871252,63
o,1723549328.538560,172.16.3.2,33509,172.16.1.2,5101,13042,28997,38,95680,65728,6,6,4,1460,124375,1,16778208,360000,66348,63452,65700,0,26064,0,301871252,63
i,1723549328.538740,172.16.3.2,33509,172.16.1.2,5101,13042,28997,38,95680,65728,6,6,4,1460,124375,1,16778208,360000,66348,63452,65700,0,28960,0,301871252,63
o,1723549328.538768,172.16.3.2,33509,172.16.1.2,5101,13042,28997,38,92800,65728,6,6,4,1460,124062,1,16778208,360000,66348,60556,65700,0,26064,0,301871252,63
i,1723549328.540850,172.16.3.2,33509,172.16.1.2,5101,13042,28997,38,92800,65728,6,6,4,1460,124062,1,16778208,360000,66348,66348,65700,0,28960,0,301871252,63
o,1723549328.540916,172.16.3.2,33509,172.16.1.2,5101,13042,28997,38,97152,65728,6,6,4,1460,123750,1,16778208,350000,66348,63452,65700,0,26064,0,301871252,63
i,1723549328.556633,172.16.3.2,33509,172.16.1.2,5101,13042,28997,38,97152,65728,6,6,4,1460,123750,1,16778208,350000,66348,66348,65700,0,28960,0,301871252,63
o,1723549328.556782,172.16.3.2,33509,172.16.1.2,5101,13042,28997,38,95680,65728,6,6,4,1460,125937,1,16778208,360000,66348,63452,65700,0,26064,0,301871252,63
i,1723549328.582543,172.16.3.2,33509,172.16.1.2,5101,13042,28997,38,95680,65728,6,6,4,1460,125937,1,16778208,360000,66348,66348,65700,0,28960,0,301871252,63
o,1723549328.582573,172.16.3.2,33509,172.16.1.2,5101,13042,28997,38,97152,65728,6,6,4,1460,129062,1,16778208,380000,66348,63452,65700,0,26064,0,301871252,63
i,1723549328.583456,172.16.3.2,33509,172.16.1.2,5101,13042,28997,38,97152,65728,6,6,4,1460,129062,1,16778208,380000,66348,63452,65700,0,28960,0,301871252,63
o,1723549328.583520,172.16.3.2,33509,172.16.1.2,5101,13042,28997,38,95680,65728,6,6,4,1460,133125,1,16778208,410000,66348,60556,65700,0,26064,0,301871252,63
i,1723549328.583776,172.16.3.2,33509,172.16.1.2,5101,13042,28997,38,95680,65728,6,6,4,1460,133125,1,16778208,410000,66348,60556,65700,0,28960,0,301871252,63
o,1723549328.583828,172.16.3.2,33509,172.16.1.2,5101,13042,28997,38,95680,65728,6,6,4,1460,132812,1,16778208,390000,66348,57660,65700,0,26064,0,301871252,63
o,1723549328.584000,172.16.3.2,33509,172.16.1.2,5101,13042,28997,38,95680,65728,6,6,4,1460,132812,1,16778208,390000,66348,57660,65700,0,27512,0,301871252,63
i,1723549328.584274,172.16.3.2,33509,172.16.1.2,5101,13042,28997,38,95680,65728,6,6,4,1460,132812,1,16778208,390000,66348,57660,65700,0,28960,0,301871252,63
o,1723549328.584317,172.16.3.2,33509,172.16.1.2,5101,13042,28997,38,95680,65728,6,6,4,1460,132500,1,16778208,380000,66348,54764,65700,0,26064,0,301871252,63
i,1723549328.584576,172.16.3.2,33509,172.16.1.2,5101,13042,28997,38,95680,65728,6,6,4,1460,132500,1,16778208,380000,66348,54764,65700,0,28960,0,301871252,63
o,1723549328.584613,172.16.3.2,33509,172.16.1.2,5101,13042,28997,38,92800,65728,6,6,4,1460,132187,1,16778208,370000,66348,51868,65700,0,26064,0,301871252,63
i,1723549328.599788,172.16.3.2,33509,172.16.1.2,5101,13042,28997,38,92800,65728,6,6,4,1460,132187,1,16778208,370000,66348,66348,65700,0,28960,0,301871252,63
o,1723549328.599829,172.16.3.2,33509,172.16.1.2,5101,13042,28997,38,95680,65728,6,6,4,1460,130937,1,16778208,370000,66348,63452,65700,0,26064,0,301871252,63
i,1723549328.662619,172.16.3.2,33509,172.16.1.2,5101,13042,28997,38,95680,65728,6,6,4,1460,130937,1,16778208,370000,66348,66348,65700,0,28960,0,301871252,63
o,1723549328.662859,172.16.3.2,33509,172.16.1.2,5101,13042,28997,38,95680,65728,6,6,4,1460,129687,1,16778208,360000,66348,63452,65700,0,26064,0,301871252,63
i,1723549328.687279,172.16.3.2,33509,172.16.1.2,5101,13042,28997,38,95680,65728,6,6,4,1460,129687,1,16778208,360000,66348,66348,65700,0,28960,0,301871252,63
o,1723549328.687352,172.16.3.2,33509,172.16.1.2,5101,13042,28997,38,97152,65728,6,6,4,1460,132500,1,16778208,380000,66348,63452,65700,0,26064,0,301871252,63
i,1723549328.696406,172.16.3.2,33509,172.16.1.2,5101,13042,28997,38,97152,65728,6,6,4,1460,132500,1,16778208,380000,66348,66348,65700,0,28960,0,301871252,63
o,1723549328.696447,172.16.3.2,33509,172.16.1.2,5101,13042,28997,38,95680,65728,6,6,4,1460,135937,1,16778208,400000,66348,63452,65700,0,26064,0,301871252,63
i,1723549328.696661,172.16.3.2,33509,172.16.1.2,5101,13042,28997,38,95680,65728,6,6,4,1460,135937,1,16778208,400000,66348,63452,65700,0,28960,0,301871252,63
o,1723549328.696692,172.16.3.2,33509,172.16.1.2,5101,13042,28997,38,92800,65728,6,6,4,1460,136562,1,16778208,390000,66348,60556,65700,0,26064,0,301871252,63
i,1723549328.696871,172.16.3.2,33509,172.16.1.2,5101,13042,28997,38,92800,65728,6,6,4,1460,136562,1,16778208,390000,66348,60556,65700,0,28960,0,301871252,63
o,1723549328.696897,172.16.3.2,33509,172.16.1.2,5101,13042,28997,38,95680,65728,6,6,4,1460,134687,1,16778208,390000,66348,57660,65700,0,26064,0,301871252,63
i,1723549328.708019,172.16.3.2,33509,172.16.1.2,5101,13042,28997,38,95680,65728,6,6,4,1460,134687,1,16778208,390000,66348,66348,65700,0,28960,0,301871252,63
o,1723549328.708039,172.16.3.2,33509,172.16.1.2,5101,13042,28997,38,95680,65728,6,6,4,1460,133125,1,16778208,390000,66348,63452,65700,0,26064,0,301871252,63
i,1723549328.708209,172.16.3.2,33509,172.16.1.2,5101,13042,28997,38,95680,65728,6,6,4,1460,133125,1,16778208,390000,66348,63452,65700,0,28960,0,301871252,63
o,1723549328.708226,172.16.3.2,33509,172.16.1.2,5101,13042,28997,38,97152,65728,6,6,4,1460,131562,1,16778208,380000,66348,60556,65700,0,26064,0,301871252,63
o,1723549328.708327,172.16.3.2,33509,172.16.1.2,5101,13042,28997,38,97152,65728,6,6,4,1460,131562,1,16778208,380000,66348,60556,65700,0,27512,0,301871252,63
i,1723549328.708506,172.16.3.2,33509,172.16.1.2,5101,13042,28997,38,97152,65728,6,6,4,1460,131562,1,16778208,380000,66348,60556,65700,0,28960,0,301871252,63
o,1723549328.708521,172.16.3.2,33509,172.16.1.2,5101,13042,28997,38,94272,65728,6,6,4,1460,130312,1,16778208,380000,66348,57660,65700,0,26064,0,301871252,63
i,1723549328.709309,172.16.3.2,33509,172.16.1.2,5101,13042,28997,38,94272,65728,6,6,4,1460,130312,1,16778208,380000,66348,66348,65700,0,28960,0,301871252,63
o,1723549328.709326,172.16.3.2,33509,172.16.1.2,5101,13042,28997,38,95680,65728,6,6,4,1460,129062,1,16778208,380000,66348,63452,65700,0,26064,0,301871252,63
i,1723549328.709477,172.16.3.2,33509,172.16.1.2,5101,13042,28997,38,95680,65728,6,6,4,1460,129062,1,16778208,380000,66348,63452,65700,0,28960,0,301871252,63
o,1723549328.709492,172.16.3.2,33509,172.16.1.2,5101,13042,28997,38,95680,65728,6,6,4,1460,126875,1,16778208,380000,66348,60556,65700,0,26064,0,301871252,63
i,1723549328.786470,172.16.3.2,33509,172.16.1.2,5101,13042,28997,38,95680,65728,6,6,4,1460,126875,1,16778208,380000,66348,66348,65700,0,28960,0,301871252,63
o,1723549328.786504,172.16.3.2,33509,172.16.1.2,5101,13042,28997,38,95680,65728,6,6,4,1460,127500,1,16778208,370000,66348,63452,65700,0,26064,0,301871252,63
i,1723549328.799043,172.16.3.2,33509,172.16.1.2,5101,13042,28997,38,95680,65728,6,6,4,1460,127500,1,16778208,370000,66348,66348,65700,0,28960,0,301871252,63
o,1723549328.799074,172.16.3.2,33509,172.16.1.2,5101,13042,28997,38,95680,65728,6,6,4,1460,125312,1,16778208,380000,66348,63452,65700,0,26064,0,301871252,63
i,1723549328.800926,172.16.3.2,33509,172.16.1.2,5101,13042,28997,38,95680,65728,6,6,4,1460,125312,1,16778208,380000,66348,66348,65700,0,28960,0,301871252,63
o,1723549328.800947,172.16.3.2,33509,172.16.1.2,5101,13042,28997,38,95680,65728,6,6,4,1460,120937,1,16778208,390000,66348,63452,65700,0,26064,0,301871252,63
i,1723549328.830199,172.16.3.2,33509,172.16.1.2,5101,13042,28997,38,95680,65728,6,6,4,1460,120937,1,16778208,390000,66348,66348,65700,0,28960,0,301871252,63
o,1723549328.830221,172.16.3.2,33509,172.16.1.2,5101,13042,28997,38,97152,65728,6,6,4,1460,120937,1,16778208,380000,66348,63452,65700,0,26064,0,301871252,63
i,1723549328.830372,172.16.3.2,33509,172.16.1.2,5101,13042,28997,38,97152,65728,6,6,4,1460,120937,1,16778208,380000,66348,63452,65700,0,28960,0,301871252,63
o,1723549328.830389,172.16.3.2,33509,172.16.1.2,5101,13042,28997,38,97152,65728,6,6,4,1460,120937,1,16778208,360000,66348,60556,65700,0,26064,0,301871252,63
i,1723549328.830573,172.16.3.2,33509,172.16.1.2,5101,13042,28997,38,97152,65728,6,6,4,1460,120937,1,16778208,360000,66348,60556,65700,0,28960,0,301871252,63
o,1723549328.830590,172.16.3.2,33509,172.16.1.2,5101,13042,28997,38,95680,65728,6,6,4,1460,120937,1,16778208,350000,66348,57660,65700,0,26064,0,301871252,63
i,1723549328.830783,172.16.3.2,33509,172.16.1.2,5101,13042,28997,38,95680,65728,6,6,4,1460,120937,1,16778208,350000,66348,57660,65700,0,28960,0,301871252,63
o,1723549328.830808,172.16.3.2,33509,172.16.1.2,5101,13042,28997,38,92800,65728,6,6,4,1460,120937,1,16778208,340000,66348,54764,65700,0,26064,0,301871252,63
o,1723549328.830913,172.16.3.2,33509,172.16.1.2,5101,13042,28997,38,92800,65728,6,6,4,1460,120937,1,16778208,340000,66348,54764,65700,0,27512,0,301871252,63
i,1723549328.831053,172.16.3.2,33509,172.16.1.2,5101,13042,28997,38,92800,65728,6,6,4,1460,120937,1,16778208,340000,66348,54764,65700,0,28960,0,301871252,63
o,1723549328.831068,172.16.3.2,33509,172.16.1.2,5101,13042,28997,38,97152,65728,6,6,4,1460,120937,1,16778208,340000,66348,51868,65700,0,26064,0,301871252,63
i,1723549328.831180,172.16.3.2,33509,172.16.1.2,5101,13042,28997,38,97152,65728,6,6,4,1460,120937,1,16778208,340000,66348,51868,65700,0,28960,0,301871252,63
o,1723549328.831195,172.16.3.2,33509,172.16.1.2,5101,13042,28997,38,94272,65728,6,6,4,1460,120937,1,16778208,330000,66348,48972,65700,0,26064,0,301871252,63
i,1723549328.831370,172.16.3.2,33509,172.16.1.2,5101,13042,28997,38,94272,65728,6,6,4,1460,120937,1,16778208,330000,66348,48972,65700,0,28960,0,301871252,63
o,1723549328.831385,172.16.3.2,33509,172.16.1.2,5101,13042,28997,38,95680,65728,6,6,4,1460,120937,1,16778208,330000,66348,46076,65700,0,26064,0,301871252,63
i,1723549328.906240,172.16.3.2,33509,172.16.1.2,5101,13042,28997,38,95680,65728,6,6,4,1460,120937,1,16778208,330000,66348,66348,65700,0,28960,0,301871252,63
o,1723549328.906295,172.16.3.2,33509,172.16.1.2,5101,13042,28997,38,95680,65728,6,6,4,1460,120937,1,16778208,330000,66348,63452,65700,0,26064,0,301871252,63
i,1723549328.947944,172.16.3.2,33509,172.16.1.2,5101,13042,28997,38,95680,65728,6,6,4,1460,120937,1,16778208,330000,66348,66348,65700,0,28960,0,301871252,63
o,1723549328.947972,172.16.3.2,33509,172.16.1.2,5101,13042,28997,38,97152,65728,6,6,4,1460,124687,1,16778208,360000,66348,63452,65700,0,26064,0,301871252,63
i,1723549328.948379,172.16.3.2,33509,172.16.1.2,5101,13042,28997,38,97152,65728,6,6,4,1460,124687,1,16778208,360000,66348,63452,65700,0,28960,0,301871252,63
o,1723549328.948400,172.16.3.2,33509,172.16.1.2,5101,13042,28997,38,97152,65728,6,6,4,1460,128125,1,16778208,380000,66348,60556,65700,0,26064,0,301871252,63
i,1723549328.950698,172.16.3.2,33509,172.16.1.2,5101,13042,28997,38,97152,65728,6,6,4,1460,128125,1,16778208,380000,66348,66348,65700,0,28960,0,301871252,63
o,1723549328.950769,172.16.3.2,33509,172.16.1.2,5101,13042,28997,38,94272,65728,6,6,4,1460,127187,1,16778208,370000,66348,63452,65700,0,26064,0,301871252,63
i,1723549328.950949,172.16.3.2,33509,172.16.1.2,5101,13042,28997,38,94272,65728,6,6,4,1460,127187,1,16778208,370000,66348,63452,65700,0,28960,0,301871252,63
o,1723549328.950981,172.16.3.2,33509,172.16.1.2,5101,13042,28997,38,95680,65728,6,6,4,1460,126562,1,16778208,370000,66348,60556,65700,0,26064,0,301871252,63
i,1723549328.989622,172.16.3.2,33509,172.16.1.2,5101,13042,28997,38,95680,65728,6,6,4,1460,126562,1,16778208,370000,66348,66348,65700,0,28960,0,301871252,63
o,1723549328.989735,172.16.3.2,33509,172.16.1.2,5101,13042,28997,38,95680,65728,6,6,4,1460,130937,1,16778208,400000,66348,63452,65700,0,26064,0,301871252,63
i,1723549328.990415,172.16.3.2,33509,172.16.1.2,5101,13042,28997,38,95680,65728,6,6,4,1460,130937,1,16778208,400000,66348,63452,65700,0,28960,0,301871252,63
o,1723549328.990469,172.16.3.2,33509,172.16.1.2,5101,13042,28997,38,92800,65728,6,6,4,1460,134687,1,16778208,410000,66348,60556,65700,0,26064,0,301871252,63
o,1723549328.990612,172.16.3.2,33509,172.16.1.2,5101,13042,28997,38,92800,65728,6,6,4,1460,134687,1,16778208,410000,66348,60556,65700,0,27512,0,301871252,63
i,1723549328.990766,172.16.3.2,33509,172.16.1.2,5101,13042,28997,38,92800,65728,6,6,4,1460,134687,1,16778208,410000,66348,60556,65700,0,28960,0,301871252,63
o,1723549328.990783,172.16.3.2,33509,172.16.1.2,5101,13042,28997,38,89920,65728,6,6,4,1460,138125,1,16778208,420000,66348,57660,65700,0,26064,0,301871252,63
i,1723549328.990908,172.16.3.2,33509,172.16.1.2,5101,13042,28997,38,89920,65728,6,6,4,1460,138125,1,16778208,420000,66348,57660,65700,0,28960,0,301871252,63
o,1723549328.990924,172.16.3.2,33509,172.16.1.2,5101,13042,28997,38,87040,65728,6,6,4,1460,140937,1,16778208,430000,66348,54764,65700,0,26064,0,301871252,63
i,1723549328.991059,172.16.3.2,33509,172.16.1.2,5101,13042,28997,38,87040,65728,6,6,4,1460,140937,1,16778208,430000,66348,54764,65700,0,28960,0,301871252,63
o,1723549328.991075,172.16.3.2,33509,172.16.1.2,5101,13042,28997,38,97152,65728,6,6,4,1460,143437,1,16778208,430000,66348,51868,65700,0,26064,0,301871252,63
i,1723549329.020898,172.16.3.2,33509,172.16.1.2,5101,13042,28997,38,97152,65728,6,6,4,1460,143437,1,16778208,430000,66348,66348,65700,0,28960,0,301871252,63
o,1723549329.020975,172.16.3.2,33509,172.16.1.2,5101,13042,28997,38,95680,65728,6,6,4,1460,139375,1,16778208,430000,66348,63452,65700,0,26064,0,301871252,63
i,1723549329.087788,172.16.3.2,33509,172.16.1.2,5101,13042,28997,38,95680,65728,6,6,4,1460,139375,1,16778208,430000,66348,66348,65700,0,28960,0,301871252,63
o,1723549329.087815,172.16.3.2,33509,172.16.1.2,5101,13042,28997,38,95680,65728,6,6,4,1460,139687,1,16778208,410000,66348,63452,65700,0,26064,0,301871252,63
i,1723549329.088008,172.16.3.2,33509,172.16.1.2,5101,13042,28997,38,95680,65728,6,6,4,1460,139687,1,16778208,410000,66348,63452,65700,0,28960,0,301871252,63
o,1723549329.088033,172.16.3.2,33509,172.16.1.2,5101,13042,28997,38,95680,65728,6,6,4,1460,140000,1,16778208,400000,66348,60556,65700,0,26064,0,301871252,63
i,1723549329.117986,172.16.3.2,33509,172.16.1.2,5101,13042,28997,38,95680,65728,6,6,4,1460,140000,1,16778208,400000,66348,66348,65700,0,28960,0,301871252,63
o,1723549329.118043,172.16.3.2,33509,172.16.1.2,5101,13042,28997,38,95680,65728,6,6,4,1460,143750,1,16778208,420000,66348,63452,65700,0,26064,0,301871252,63
i,1723549329.118307,172.16.3.2,33509,172.16.1.2,5101,13042,28997,38,95680,65728,6,6,4,1460,143750,1,16778208,420000,66348,63452,65700,0,28960,0,301871252,63
o,1723549329.118352,172.16.3.2,33509,172.16.1.2,5101,13042,28997,38,95680,65728,6,6,4,1460,147187,1,16778208,430000,66348,60556,65700,0,26064,0,301871252,63
i,1723549329.118664,172.16.3.2,33509,172.16.1.2,5101,13042,28997,38,95680,65728,6,6,4,1460,147187,1,16778208,430000,66348,60556,65700,0,28960,0,301871252,63
o,1723549329.118714,172.16.3.2,33509,172.16.1.2,5101,13042,28997,38,95680,65728,6,6,4,1460,145312,1,16778208,420000,66348,57660,65700,0,26064,0,301871252,63
