enable_time_secs=1723549147	enable_time_usecs=642270	siftrver=1.3.0	sysname=FreeBSD	sysver=1401000	ipmode=4
o,1723549147.642610,10.0.2.15,22,10.0.2.2,52244,1073725440,17746,1026,65535,65700,0,0,4,1460,312,0,16777220,240000,33580,172,65700,0,0,0,973552566,63
o,1723549147.642792,10.0.2.15,22,10.0.2.2,52244,1073725440,17746,1026,65535,65700,0,0,4,1460,312,0,16777220,240000,33580,244,65700,0,172,0,973552566,63
i,1723549147.643226,10.0.2.15,22,10.0.2.2,52244,1073725440,17746,1026,65535,65700,0,0,4,1460,312,0,16777220,240000,33580,244,65700,0,244,0,973552566,63
i,1723549147.643531,10.0.2.15,22,10.0.2.2,52244,1073725440,17918,1026,65535,65700,0,0,4,1460,312,0,4,230000,33580,72,65700,0,72,0,973552566,63
i,1723549147.643933,10.0.2.15,22,10.0.2.2,52244,1073725440,17990,1026,65535,65700,0,0,4,1460,312,0,4,230000,33580,0,65700,0,0,0,973552566,63
i,1723549147.643952,10.0.2.15,22,10.0.2.2,52244,1073725440,17990,1026,65535,65700,0,0,4,1460,312,0,4,230000,33580,0,65700,96,0,0,973552566,63
o,1723549147.643973,10.0.2.15,22,10.0.2.2,52244,1073725440,17990,1026,65535,65604,0,0,5,1460,312,0,5,230000,33580,0,65700,96,0,0,973552566,63
o,1723549147.644928,10.0.2.15,22,10.0.2.2,52244,1073725440,17990,1026,65535,65604,0,0,8,1460,312,0,4,230000,33580,0,65700,0,0,0,973552566,63
i,1723549147.645285,10.0.2.15,22,10.0.2.2,52244,1073725440,17990,1026,65535,65604,0,0,8,1460,312,0,67108884,230000,33580,0,65700,0,1,0,973552566,63
i,1723549149.944184,10.0.2.15,22,10.0.2.2,52258,1073725440,14600,0,65535,65700,0,0,4,1460,312,0,16777216,270000,33580,0,65700,0,0,0,3716692975,63
o,1723549149.955115,10.0.2.15,22,10.0.2.2,52258,1073725440,14600,1026,65535,65700,0,0,4,1460,312,0,16777216,270000,33580,38,65700,42,0,0,3716692975,63
i,1723549149.955822,10.0.2.15,22,10.0.2.2,52258,1073725440,14600,1026,65535,65700,0,0,4,1460,312,0,16777216,270000,33580,38,65700,0,38,0,3716692975,63
i,1723549149.956663,10.0.2.15,22,10.0.2.2,52258,1073725440,14638,1026,65535,65700,0,0,4,1460,312,0,0,230000,33580,0,65700,0,0,0,3716692975,63
i,1723549149.956700,10.0.2.15,22,10.0.2.2,52258,1073725440,14638,1026,65535,65700,0,0,4,1460,312,0,0,230000,33580,0,65700,1460,0,0,3716692975,63
o,1723549149.956738,10.0.2.15,22,10.0.2.2,52258,1073725440,14638,1026,65535,65700,0,0,4,1460,312,0,1,230000,33580,0,65700,1536,0,0,3716692975,63
o,1723549149.957124,10.0.2.15,22,10.0.2.2,52258,1073725440,14638,1026,65535,65700,0,0,4,1460,312,0,16777216,230000,33580,1120,65700,1536,0,0,3716692975,63
i,1723549149.957683,10.0.2.15,22,10.0.2.2,52258,1073725440,14638,1026,65535,65700,0,0,4,1460,312,0,16777216,230000,33580,1120,65700,0,1120,0,3716692975,63
i,1723549149.959620,10.0.2.15,22,10.0.2.2,52258,1073725440,15758,1026,65535,65700,0,0,4,1460,312,0,0,240000,33580,0,65700,0,0,0,3716692975,63
o,1723549149.962526,10.0.2.15,22,10.0.2.2,52258,1073725440,15758,1026,65535,65700,0,0,4,1460,312,0,16777216,240000,33580,492,65700,0,0,0,3716692975,63
i,1723549149.963194,10.0.2.15,22,10.0.2.2,52258,1073725440,15758,1026,65535,65700,0,0,4,1460,312,0,16777216,240000,33580,492,65700,0,492,0,3716692975,63
i,1723549149.967114,10.0.2.15,22,10.0.2.2,52258,1073725440,16250,1026,65535,65700,0,0,4,1460,312,0,0,230000,33580,0,65700,0,0,0,3716692975,63
i,1723549149.967131,10.0.2.15,22,10.0.2.2,52258,1073725440,16250,1026,65535,65700,0,0,4,1460,312,0,0,230000,33580,0,65700,16,0,0,3716692975,63
o,1723549149.967160,10.0.2.15,22,10.0.2.2,52258,1073725440,16250,1026,65535,65700,0,0,4,1460,312,0,1,230000,33580,0,65700,60,0,0,3716692975,63
o,1723549149.967333,10.0.2.15,22,10.0.2.2,52258,1073725440,16250,1026,65535,65700,0,0,4,1460,312,0,16777216,230000,33580,44,65700,0,0,0,3716692975,63
i,1723549149.968150,10.0.2.15,22,10.0.2.2,52258,1073725440,16250,1026,65535,65700,0,0,4,1460,312,0,16777216,230000,33580,44,65700,0,44,0,3716692975,63
i,1723549149.968170,10.0.2.15,22,10.0.2.2,52258,1073725440,16294,1026,65535,65700,0,0,4,1460,312,0,0,230000,33580,0,65700,0,0,0,3716692975,63
o,1723549149.969280,10.0.2.15,22,10.0.2.2,52258,1073725440,16294,1026,65535,65700,0,0,4,1460,312,0,16777216,230000,33580,68,65700,0,0,0,3716692975,63
i,1723549149.970012,10.0.2.15,22,10.0.2.2,52258,1073725440,16294,1026,65535,65700,0,0,4,1460,312,0,16777216,230000,33580,68,65700,0,68,0,3716692975,63
i,1723549149.970036,10.0.2.15,22,10.0.2.2,52258,1073725440,16362,1026,65535,65700,0,0,4,1460,312,0,0,230000,33580,0,65700,0,0,0,3716692975,63
o,1723549149.971030,10.0.2.15,22,10.0.2.2,52258,1073725440,16362,1026,65535,65700,0,0,4,1460,312,0,16777216,230000,33580,332,65700,0,0,0,3716692975,63
i,1723549149.971854,10.0.2.15,22,10.0.2.2,52258,1073725440,16362,1026,65535,65700,0,0,4,1460,312,0,16777216,230000,33580,332,65700,0,332,0,3716692975,63
i,1723549149.973350,10.0.2.15,22,10.0.2.2,52258,1073725440,16694,1026,65535,65700,0,0,4,1460,312,0,0,230000,33580,0,65700,0,0,0,3716692975,63
o,1723549149.993130,10.0.2.15,22,10.0.2.2,52258,1073725440,16694,1026,65535,65700,0,0,4,1460,312,0,16777216,230000,33580,28,65700,0,0,0,3716692975,63
i,1723549149.994058,10.0.2.15,22,10.0.2.2,52258,1073725440,16694,1026,65535,65700,0,0,4,1460,312,0,16777216,230000,33580,28,65700,0,28,0,3716692975,63
i,1723549149.994816,10.0.2.15,22,10.0.2.2,52258,1073725440,16722,1026,65535,65700,0,0,4,1460,312,0,0,240000,33580,0,65700,0,0,0,3716692975,63
o,1723549149.996813,10.0.2.15,22,10.0.2.2,52258,1073725440,16722,1026,65535,65700,0,0,4,1460,312,0,16777216,240000,33580,768,65700,112,0,0,3716692975,63
i,1723549149.997720,10.0.2.15,22,10.0.2.2,52258,1073725440,16722,1026,65535,65700,0,0,4,1460,312,0,16777216,240000,33580,952,65700,0,768,0,3716692975,63
o,1723549149.997753,10.0.2.15,22,10.0.2.2,52258,1073725440,17490,1026,65535,65700,0,0,4,1460,312,0,16777216,240000,33580,184,65700,0,0,0,3716692975,63
i,1723549149.998261,10.0.2.15,22,10.0.2.2,52258,1073725440,17490,1026,65535,65700,0,0,4,1460,312,0,16777216,240000,33580,184,65700,0,184,0,3716692975,63
i,1723549149.999542,10.0.2.15,22,10.0.2.2,52258,1073725440,17674,1026,65535,65700,0,0,4,1460,312,0,0,240000,33580,0,65700,0,0,0,3716692975,63
o,1723549150.000600,10.0.2.15,22,10.0.2.2,52258,1073725440,17674,1026,65535,65700,0,0,4,1460,312,0,16777220,240000,33580,72,65700,0,0,0,3716692975,63
i,1723549150.001298,10.0.2.15,22,10.0.2.2,52258,1073725440,17674,1026,65535,65700,0,0,4,1460,312,0,16777220,240000,33580,72,65700,0,72,0,3716692975,63
o,1723549150.004898,10.0.2.15,22,10.0.2.2,52258,1073725440,17746,1026,65535,65700,0,0,4,1460,312,0,16777220,240000,33580,104,65700,0,0,0,3716692975,63
i,1723549150.006273,10.0.2.15,22,10.0.2.2,52258,1073725440,17746,1026,65535,65700,0,0,4,1460,312,0,16777220,240000,33580,104,65700,0,104,0,3716692975,63
o,1723549150.006657,10.0.2.15,22,10.0.2.2,52258,1073725440,17850,1026,65535,65700,0,0,4,1460,312,0,16777220,240000,33580,72,65700,0,0,0,3716692975,63
i,1723549150.007410,10.0.2.15,22,10.0.2.2,52258,1073725440,17850,1026,65535,65700,0,0,4,1460,312,0,16777220,240000,33580,72,65700,0,72,0,3716692975,63
i,1723549150.007436,10.0.2.15,22,10.0.2.2,52258,1073725440,17922,1026,65535,65700,0,0,4,1460,312,0,4,240000,33580,0,65700,0,0,0,3716692975,63
i,1723549150.007453,10.0.2.15,22,10.0.2.2,52258,1073725440,17922,1026,65535,65700,0,0,4,1460,312,0,4,240000,33580,0,65700,96,0,0,3716692975,63
o,1723549150.007472,10.0.2.15,22,10.0.2.2,52258,1073725440,17922,1026,65535,65604,0,0,5,1460,312,0,5,240000,33580,0,65700,96,0,0,3716692975,63
o,1723549150.008774,10.0.2.15,22,10.0.2.2,52258,1073725440,17922,1026,65535,65604,0,0,8,1460,312,0,4,240000,33580,0,65700,0,0,0,3716692975,63
i,1723549150.008823,10.0.2.15,22,10.0.2.2,52258,1073725440,17922,1026,65535,65604,0,0,8,1460,312,0,67108884,240000,33580,0,65700,0,1,0,3716692975,63
i,1723549152.172017,10.0.2.15,22,10.0.2.2,52262,1073725440,14600,0,65535,65700,0,0,4,1460,312,0,16777216,270000,33580,0,65700,0,0,0,1979468313,63
o,1723549152.187857,10.0.2.15,22,10.0.2.2,52262,1073725440,14600,1026,65535,65700,0,0,4,1460,312,0,16777216,270000,33580,38,65700,42,0,0,1979468313,63
i,1723549152.189118,10.0.2.15,22,10.0.2.2,52262,1073725440,14600,1026,65535,65700,0,0,4,1460,312,0,16777216,270000,33580,38,65700,0,38,0,1979468313,63
i,1723549152.189142,10.0.2.15,22,10.0.2.2,52262,1073725440,14638,1026,65535,65700,0,0,4,1460,312,0,0,240000,33580,0,65700,0,0,0,1979468313,63
i,1723549152.189157,10.0.2.15,22,10.0.2.2,52262,1073725440,14638,1026,65535,65700,0,0,4,1460,312,0,0,240000,33580,0,65700,1460,0,0,1979468313,63
o,1723549152.189176,10.0.2.15,22,10.0.2.2,52262,1073725440,14638,1026,65535,65700,0,0,4,1460,312,0,1,240000,33580,0,65700,1536,0,0,1979468313,63
o,1723549152.190361,10.0.2.15,22,10.0.2.2,52262,1073725440,14638,1026,65535,65700,0,0,4,1460,312,0,16777216,240000,33580,1120,65700,1536,0,0,1979468313,63
i,1723549152.190871,10.0.2.15,22,10.0.2.2,52262,1073725440,14638,1026,65535,65700,0,0,4,1460,312,0,16777216,240000,33580,1120,65700,0,1120,0,1979468313,63
i,1723549152.192517,10.0.2.15,22,10.0.2.2,52262,1073725440,15758,1026,65535,65700,0,0,4,1460,312,0,0,240000,33580,0,65700,0,0,0,1979468313,63
o,1723549152.196632,10.0.2.15,22,10.0.2.2,52262,1073725440,15758,1026,65535,65700,0,0,4,1460,312,0,16777216,240000,33580,492,65700,0,0,0,1979468313,63
i,1723549152.197758,10.0.2.15,22,10.0.2.2,52262,1073725440,15758,1026,65535,65700,0,0,4,1460,312,0,16777216,240000,33580,492,65700,0,492,0,1979468313,63
i,1723549152.202804,10.0.2.15,22,10.0.2.2,52262,1073725440,16250,1026,65535,65700,0,0,4,1460,312,0,0,240000,33580,0,65700,0,0,0,1979468313,63
i,1723549152.202816,10.0.2.15,22,10.0.2.2,52262,1073725440,16250,1026,65535,65700,0,0,4,1460,312,0,0,240000,33580,0,65700,16,0,0,1979468313,63
o,1723549152.203006,10.0.2.15,22,10.0.2.2,52262,1073725440,16250,1026,65535,65700,0,0,4,1460,312,0,1,240000,33580,0,65700,60,0,0,1979468313,63
o,1723549152.203408,10.0.2.15,22,10.0.2.2,52262,1073725440,16250,1026,65535,65700,0,0,4,1460,312,0,16777216,240000,33580,44,65700,0,0,0,1979468313,63
i,1723549152.204528,10.0.2.15,22,10.0.2.2,52262,1073725440,16250,1026,65535,65700,0,0,4,1460,312,0,16777216,240000,33580,44,65700,0,44,0,1979468313,63
i,1723549152.204550,10.0.2.15,22,10.0.2.2,52262,1073725440,16294,1026,65535,65700,0,0,4,1460,312,0,0,240000,33580,0,65700,0,0,0,1979468313,63
o,1723549152.206393,10.0.2.15,22,10.0.2.2,52262,1073725440,16294,1026,65535,65700,0,0,4,1460,312,0,16777216,240000,33580,68,65700,0,0,0,1979468313,63
i,1723549152.206998,10.0.2.15,22,10.0.2.2,52262,1073725440,16294,1026,65535,65700,0,0,4,1460,312,0,16777216,240000,33580,68,65700,0,68,0,1979468313,63
i,1723549152.207023,10.0.2.15,22,10.0.2.2,52262,1073725440,16362,1026,65535,65700,0,0,4,1460,312,0,0,240000,33580,0,65700,0,0,0,1979468313,63
o,1723549152.209297,10.0.2.15,22,10.0.2.2,52262,1073725440,16362,1026,65535,65700,0,0,4,1460,312,0,16777216,240000,33580,332,65700,0,0,0,1979468313,63
i,1723549152.210307,10.0.2.15,22,10.0.2.2,52262,1073725440,16362,1026,65535,65700,0,0,4,1460,312,0,16777216,240000,33580,332,65700,0,332,0,1979468313,63
i,1723549152.211593,10.0.2.15,22,10.0.2.2,52262,1073725440,16694,1026,65535,65700,0,0,4,1460,312,0,0,240000,33580,0,65700,0,0,0,1979468313,63
o,1723549152.229290,10.0.2.15,22,10.0.2.2,52262,1073725440,16694,1026,65535,65700,0,0,4,1460,312,0,16777216,240000,33580,28,65700,0,0,0,1979468313,63
i,1723549152.230242,10.0.2.15,22,10.0.2.2,52262,1073725440,16694,1026,65535,65700,0,0,4,1460,312,0,16777216,240000,33580,28,65700,0,28,0,1979468313,63
i,1723549152.230269,10.0.2.15,22,10.0.2.2,52262,1073725440,16722,1026,65535,65700,0,0,4,1460,312,0,0,240000,33580,0,65700,0,0,0,1979468313,63
o,1723549152.232007,10.0.2.15,22,10.0.2.2,52262,1073725440,16722,1026,65535,65700,0,0,4,1460,312,0,16777216,240000,33580,768,65700,112,0,0,1979468313,63
i,1723549152.233309,10.0.2.15,22,10.0.2.2,52262,1073725440,16722,1026,65535,65700,0,0,4,1460,312,0,16777216,240000,33580,908,65700,112,768,0,1979468313,63
o,1723549152.233348,10.0.2.15,22,10.0.2.2,52262,1073725440,17490,1026,65535,65700,0,0,4,1460,312,0,16777216,240000,33580,140,65700,112,0,0,1979468313,63
i,1723549152.233789,10.0.2.15,22,10.0.2.2,52262,1073725440,17490,1026,65535,65700,0,0,4,1460,312,0,16777216,240000,33580,140,65700,112,140,0,1979468313,63
o,1723549152.235156,10.0.2.15,22,10.0.2.2,52262,1073725440,17630,1026,65535,65700,0,0,4,1460,312,0,16777216,240000,33580,44,65700,0,0,0,1979468313,63
i,1723549152.235705,10.0.2.15,22,10.0.2.2,52262,1073725440,17630,1026,65535,65700,0,0,4,1460,312,0,16777216,240000,33580,44,65700,0,44,0,1979468313,63
i,1723549152.235726,10.0.2.15,22,10.0.2.2,52262,1073725440,17674,1026,65535,65700,0,0,4,1460,312,0,0,240000,33580,0,65700,0,0,0,1979468313,63
o,1723549152.236898,10.0.2.15,22,10.0.2.2,52262,1073725440,17674,1026,65535,65700,0,0,4,1460,312,0,16777220,240000,33580,72,65700,0,0,0,1979468313,63
i,1723549152.237395,10.0.2.15,22,10.0.2.2,52262,1073725440,17674,1026,65535,65700,0,0,4,1460,312,0,16777220,240000,33580,72,65700,0,72,0,1979468313,63
i,1723549152.237416,10.0.2.15,22,10.0.2.2,52262,1073725440,17746,1026,65535,65700,0,0,4,1460,312,0,4,240000,33580,0,65700,0,0,0,1979468313,63
o,1723549152.273742,10.0.2.15,22,10.0.2.2,52262,1073725440,17746,1026,65535,65700,0,0,4,1460,312,0,5,240000,33580,0,65700,0,0,0,1979468313,63
o,1723549152.366137,172.16.3.2,41508,172.16.1.2,5101,20085,14480,34,65535,65700,6,6,4,1460,153125,1,16778209,520000,33580,0,65700,0,0,0,798179956,63
o,1723549152.367114,172.16.3.2,41508,172.16.1.2,5101,20085,14480,34,65535,65700,6,6,4,1460,153125,1,16778212,520000,33580,37,65700,0,0,0,798179956,63
i,1723549152.487659,172.16.3.2,41508,172.16.1.2,5101,20085,14480,34,65535,65700,6,6,4,1460,153125,1,16778212,520000,33580,37,65700,0,37,0,798179956,63
o,1723549152.488146,172.16.3.2,41508,172.16.1.2,5101,20085,14517,1058,65728,65728,6,6,4,1460,147812,1,16778212,520000,33580,4,65700,0,0,0,798179956,63
o,1723549152.488686,172.16.3.2,41508,172.16.1.2,5101,20085,14517,1058,65728,65728,6,6,4,1460,147812,1,16778212,520000,33580,130,65700,0,4,0,798179956,63
i,1723549152.609986,172.16.3.2,41508,172.16.1.2,5101,20085,14517,1058,65728,65728,6,6,4,1460,147812,1,16778212,520000,33580,130,65700,0,130,0,798179956,63
i,1723549152.610035,172.16.3.2,41508,172.16.1.2,5101,20085,14647,1058,65600,65728,6,6,4,1460,144375,1,996,500000,33580,0,65700,0,0,0,798179956,63
o,1723549152.643677,172.16.3.2,41508,172.16.1.2,5101,20085,14647,1058,65728,65728,6,6,4,1460,144375,1,997,500000,33580,0,65700,0,0,0,798179956,63
o,1723549152.731635,172.16.3.2,17524,172.16.1.2,5101,20085,14480,34,65535,65700,6,6,4,1460,153125,1,16778209,520000,33580,0,65700,0,0,0,1810416036,63
o,1723549152.732155,172.16.3.2,17524,172.16.1.2,5101,20085,14480,34,65535,65700,6,6,4,1460,153125,1,16778208,520000,33580,37,65700,0,0,0,1810416036,63
i,1723549152.848442,172.16.3.2,41508,172.16.1.2,5101,20085,14647,1058,65728,65728,6,6,4,1460,144375,1,996,500000,33580,0,65700,0,0,0,798179956,63
i,1723549152.849414,172.16.3.2,41508,172.16.1.2,5101,20085,14647,1058,65728,65728,6,6,4,1460,144375,1,996,500000,33580,0,65700,0,0,0,798179956,63
o,1723549152.849621,172.16.3.2,41508,172.16.1.2,5101,20085,14647,1058,65728,65728,6,6,4,1460,144375,1,997,500000,33580,0,65700,1,0,0,798179956,63
o,1723549152.850565,172.16.3.2,17524,172.16.1.2,5101,20085,14480,38,65535,65700,6,6,4,1460,153125,1,16778208,520000,33580,33580,65700,0,37,0,1810416036,63
i,1723549152.895807,172.16.3.2,17524,172.16.1.2,5101,20085,14480,38,65535,65700,6,6,4,1460,153125,1,16778208,520000,33580,33580,65700,0,13069,0,1810416036,63
o,1723549152.895842,172.16.3.2,17524,172.16.1.2,5101,20085,14517,38,65728,65728,6,6,4,1460,154062,1,16778208,490000,33580,33543,65700,0,13032,0,1810416036,63
i,1723549153.204133,172.16.3.2,17524,172.16.1.2,5101,20085,14517,38,65728,65728,6,6,4,1460,154062,1,16778208,490000,33580,33543,65700,0,14480,0,1810416036,63
o,1723549153.204211,172.16.3.2,17524,172.16.1.2,5101,20085,15965,38,65728,65728,6,6,4,1460,178750,1,16778208,680000,33580,32095,65700,0,13032,0,1810416036,63
i,1723549153.237223,172.16.3.2,17524,172.16.1.2,5101,20085,15965,38,65728,65728,6,6,4,1460,178750,1,16778208,680000,33580,32095,65700,0,15928,0,1810416036,63
o,1723549153.237655,172.16.3.2,17524,172.16.1.2,5101,20085,18861,38,64256,65728,6,6,4,1460,204062,1,16778208,830000,33580,29199,65700,0,13032,0,1810416036,63
i,1723549153.308312,172.16.3.2,17524,172.16.1.2,5101,20085,18861,38,64256,65728,6,6,4,1460,204062,1,16778208,830000,41772,41772,65700,0,18824,0,1810416036,63
o,1723549153.308412,172.16.3.2,17524,172.16.1.2,5101,20085,21757,38,64256,65728,6,6,4,1460,235000,1,16778208,1000000,41772,38876,65700,0,15928,0,1810416036,63
i,1723549153.337109,172.16.3.2,17524,172.16.1.2,5101,20085,21757,38,64256,65728,6,6,4,1460,235000,1,16778208,1000000,49964,49964,65700,0,21720,0,1810416036,63
o,1723549153.337131,172.16.3.2,17524,172.16.1.2,5101,20085,24653,38,64256,65728,6,6,4,1460,265625,1,16778208,1130000,49964,47068,65700,0,18824,0,1810416036,63
i,1723549153.390750,172.16.3.2,17524,172.16.1.2,5101,20085,24653,38,64256,65728,6,6,4,1460,265625,1,16778208,1130000,58156,58156,65700,0,24616,0,1810416036,63
o,1723549153.390936,172.16.3.2,17524,172.16.1.2,5101,20085,27549,38,64256,65728,6,6,4,1460,300000,1,16778208,1280000,58156,55260,65700,0,21720,0,1810416036,63
i,1723549153.458029,172.16.3.2,17524,172.16.1.2,5101,20085,27549,38,64256,65728,6,6,4,1460,300000,1,16778208,1280000,58156,58156,65700,0,27512,0,1810416036,63
o,1723549153.458122,172.16.3.2,17524,172.16.1.2,5101,20085,27549,38,65728,65728,6,6,4,1460,332500,1,16778208,1370000,58156,56708,65700,0,26064,0,1810416036,63
i,1723549153.648380,172.16.3.2,17524,172.16.1.2,5101,20085,27549,38,65728,65728,6,6,4,1460,332500,1,16778208,1370000,58156,56708,65700,0,27512,0,1810416036,63
o,1723549153.648472,172.16.3.2,17524,172.16.1.2,5101,13774,27512,38,64256,65728,6,6,4,1460,345937,1,553649120,1280000,58156,53812,65700,0,24616,0,1810416036,63
i,1723549153.807355,172.16.3.2,17524,172.16.1.2,5101,13774,27512,38,64256,65728,6,6,4,1460,345937,1,553649120,1280000,58156,58156,65700,0,27512,0,1810416036,63
o,1723549153.807445,172.16.3.2,17524,172.16.1.2,5101,13774,26064,34,64256,65728,6,6,4,1460,374062,1,553649120,1350000,58156,55260,65700,0,24616,0,1810416036,63
i,1723549153.867386,172.16.3.2,17524,172.16.1.2,5101,13774,26064,34,64256,65728,6,6,4,1460,374062,1,553649120,1350000,58156,58156,65700,0,26064,0,1810416036,63
o,1723549153.867469,172.16.3.2,17524,172.16.1.2,5101,13774,24616,34,64256,65728,6,6,4,1460,406250,1,553649120,1450000,58156,55260,65700,0,23168,0,1810416036,63
i,1723549153.963710,172.16.3.2,17524,172.16.1.2,5101,13774,24616,34,64256,65728,6,6,4,1460,406250,1,553649120,1450000,58156,58156,65700,0,24616,0,1810416036,63
o,1723549153.963755,172.16.3.2,17524,172.16.1.2,5101,13774,23168,34,64256,65728,6,6,4,1460,438125,1,553649120,1520000,58156,55260,65700,0,21720,0,1810416036,63
i,1723549153.967990,172.16.3.2,17524,172.16.1.2,5101,13774,23168,34,64256,65728,6,6,4,1460,438125,1,553649120,1520000,58156,58156,65700,0,23168,0,1810416036,63
o,1723549153.968012,172.16.3.2,17524,172.16.1.2,5101,13774,21720,34,64256,65728,6,6,4,1460,465937,1,553649120,1550000,58156,55260,65700,0,20272,0,1810416036,63
i,1723549154.008377,172.16.3.2,17524,172.16.1.2,5101,13774,21720,34,64256,65728,6,6,4,1460,465937,1,553649120,1550000,58156,58156,65700,0,21720,0,1810416036,63
o,1723549154.008450,172.16.3.2,17524,172.16.1.2,5101,13774,20272,34,62848,65728,6,6,4,1460,491562,1,553649120,1560000,58156,55260,65700,0,18824,0,1810416036,63
i,1723549154.049330,172.16.3.2,17524,172.16.1.2,5101,13774,20272,34,62848,65728,6,6,4,1460,491562,1,553649120,1560000,58156,58156,65700,0,20272,0,1810416036,63
o,1723549154.049403,172.16.3.2,17524,172.16.1.2,5101,13774,18824,34,64256,65728,6,6,4,1460,519062,1,553649120,1590000,58156,55260,65700,0,17376,0,1810416036,63
i,1723549154.068244,172.16.3.2,17524,172.16.1.2,5101,13774,18824,34,64256,65728,6,6,4,1460,519062,1,553649120,1590000,58156,58156,65700,0,18824,0,1810416036,63
o,1723549154.068324,172.16.3.2,17524,172.16.1.2,5101,13774,17376,34,62848,65728,6,6,4,1460,538125,1,553649120,1540000,58156,55260,65700,0,15928,0,1810416036,63
i,1723549154.159955,172.16.3.2,17524,172.16.1.2,5101,13774,17376,34,62848,65728,6,6,4,1460,538125,1,553649120,1540000,58156,58156,65700,0,17376,0,1810416036,63
o,1723549154.160067,172.16.3.2,17524,172.16.1.2,5101,13774,15928,34,64256,65728,6,6,4,1460,565937,1,553649120,1590000,58156,55260,65700,0,14480,0,1810416036,63
i,1723549154.235167,172.16.3.2,17524,172.16.1.2,5101,13774,15928,34,64256,65728,6,6,4,1460,565937,1,553649120,1590000,58156,58156,65700,0,15928,0,1810416036,63
i,1723549154.283744,172.16.3.2,17524,172.16.1.2,5101,13774,14480,34,65728,65728,6,6,4,1460,592812,1,536871904,1630000,58156,56708,65700,0,14480,0,1810416036,63
i,1723549154.333325,172.16.3.2,17524,172.16.1.2,5101,8582,13032,98,65728,65728,6,6,4,1460,598750,1,536871904,1470000,58156,58156,65700,0,13032,0,1810416036,63
i,1723549154.368880,172.16.3.2,17524,172.16.1.2,5101,8582,11584,98,65728,65728,6,6,4,1460,609062,1,536871904,1400000,58156,56708,65700,0,11584,0,1810416036,63
i,1723549154.439175,172.16.3.2,17524,172.16.1.2,5101,8582,8688,98,64256,65728,6,6,4,1460,603125,1,536871904,1290000,58156,58156,65700,0,8688,0,1810416036,63
i,1723549154.487885,172.16.3.2,17524,172.16.1.2,5101,8582,5792,98,64256,65728,6,6,4,1460,586562,1,536871904,1280000,58156,58156,65700,0,5792,0,1810416036,63
o,1723549154.487995,172.16.3.2,17524,172.16.1.2,5101,8582,4344,34,64256,65728,6,6,4,1460,573437,1,553649120,1250000,58156,55260,65700,0,2896,0,1810416036,63
i,1723549154.528345,172.16.3.2,17524,172.16.1.2,5101,8582,4344,34,64256,65728,6,6,4,1460,573437,1,553649120,1250000,58156,58156,65700,0,4344,0,1810416036,63
o,1723549154.528429,172.16.3.2,17524,172.16.1.2,5101,8582,4344,38,64256,65728,6,6,4,1460,558125,1,553649120,1240000,58156,55260,65700,0,1448,0,1810416036,63
i,1723549154.649435,172.16.3.2,17524,172.16.1.2,5101,8582,4344,38,64256,65728,6,6,4,1460,558125,1,553649120,1240000,58156,58156,65700,0,4344,0,1810416036,63
o,1723549154.649535,172.16.3.2,17524,172.16.1.2,5101,8582,4344,34,65728,65728,6,6,4,1460,508437,1,16778208,1470000,58156,56708,65700,0,2896,0,1810416036,63
i,1723549154.749736,172.16.3.2,17524,172.16.1.2,5101,8582,4344,34,65728,65728,6,6,4,1460,508437,1,16778208,1470000,58156,56708,65700,0,4344,0,1810416036,63
o,1723549154.749857,172.16.3.2,17524,172.16.1.2,5101,8582,7240,38,64256,65728,6,6,4,1460,472500,1,16778208,1530000,58156,53812,65700,0,1448,0,1810416036,63
i,1723549154.848736,172.16.3.2,17524,172.16.1.2,5101,8582,7240,38,64256,65728,6,6,4,1460,472500,1,16778208,1530000,58156,58156,65700,0,7240,0,1810416036,63
o,1723549154.848812,172.16.3.2,17524,172.16.1.2,5101,8582,8688,38,65728,65728,6,6,4,1460,438437,1,16778208,1550000,58156,56708,65700,0,5792,0,1810416036,63
o,1723549154.849180,172.16.3.2,17524,172.16.1.2,5101,8582,8688,34,65728,65728,6,6,4,1460,438437,1,16778208,1550000,58156,56708,65700,0,7240,0,1810416036,63
i,1723549154.958890,172.16.3.2,17524,172.16.1.2,5101,8582,8688,34,65728,65728,6,6,4,1460,438437,1,16778208,1550000,58156,56708,65700,0,8688,0,1810416036,63
o,1723549154.958960,172.16.3.2,17524,172.16.1.2,5101,8582,10814,38,64256,65728,6,6,4,1460,410000,1,16778208,1520000,58156,53812,65700,0,5792,0,1810416036,63
i,1723549155.015533,172.16.3.2,17524,172.16.1.2,5101,8582,10814,38,64256,65728,6,6,4,1460,410000,1,16778208,1520000,58156,58156,65700,0,10136,0,1810416036,63
o,1723549155.015625,172.16.3.2,17524,172.16.1.2,5101,8582,10814,38,64256,65728,6,6,4,1460,392500,1,16778208,1420000,58156,55260,65700,0,7240,0,1810416036,63
i,1723549155.159365,172.16.3.2,17524,172.16.1.2,5101,8582,10814,38,64256,65728,6,6,4,1460,392500,1,16778208,1420000,58156,58156,65700,0,10136,0,1810416036,63
o,1723549155.159452,172.16.3.2,17524,172.16.1.2,5101,8582,10814,38,65728,65728,6,6,4,1460,382187,1,16778208,1280000,58156,56708,65700,0,8688,0,1810416036,63
i,1723549155.212219,172.16.3.2,17524,172.16.1.2,5101,8582,10814,38,65728,65728,6,6,4,1460,382187,1,16778208,1280000,58156,56708,65700,0,10136,0,1810416036,63
o,1723549155.212319,172.16.3.2,17524,172.16.1.2,5101,8582,10814,38,65728,65728,6,6,4,1460,379687,1,16778208,1120000,58156,55260,65700,0,8688,0,1810416036,63
i,1723549155.290061,172.16.3.2,17524,172.16.1.2,5101,8582,10814,38,65728,65728,6,6,4,1460,379687,1,16778208,1120000,58156,58156,65700,0,10136,0,1810416036,63
o,1723549155.290275,172.16.3.2,17524,172.16.1.2,5101,8582,10814,38,64256,65728,6,6,4,1460,373750,1,16778208,1030000,58156,55260,65700,0,7240,0,1810416036,63
i,1723549155.356637,172.16.3.2,17524,172.16.1.2,5101,8582,10814,38,64256,65728,6,6,4,1460,373750,1,16778208,1030000,58156,57224,65700,0,10136,0,1810416036,63
o,1723549155.356675,172.16.3.2,17524,172.16.1.2,5101,8582,10814,38,64256,65728,6,6,4,1460,377187,1,16778208,940000,58156,54328,65700,0,7240,0,1810416036,63
i,1723549155.398872,172.16.3.2,17524,172.16.1.2,5101,8582,10814,38,64256,65728,6,6,4,1460,377187,1,16778208,940000,58156,58156,65700,0,10136,0,1810416036,63
o,1723549155.398947,172.16.3.2,17524,172.16.1.2,5101,8582,10814,38,65728,65728,6,6,4,1460,377812,1,16778208,860000,58156,56708,65700,0,8688,0,1810416036,63
i,1723549155.535577,172.16.3.2,17524,172.16.1.2,5101,8582,10814,38,65728,65728,6,6,4,1460,377812,1,16778208,860000,58156,56708,65700,0,10136,0,1810416036,63
o,1723549155.535612,172.16.3.2,17524,172.16.1.2,5101,8582,10814,38,64256,65728,6,6,4,1460,378125,1,16778208,790000,58156,53812,65700,0,7240,0,1810416036,63
o,1723549155.535738,172.16.3.2,17524,172.16.1.2,5101,8582,10814,38,64256,65728,6,6,4,1460,378125,1,16778208,790000,58156,53812,65700,0,8688,0,1810416036,63
i,1723549155.616819,172.16.3.2,17524,172.16.1.2,5101,8582,10814,38,64256,65728,6,6,4,1460,378125,1,16778208,790000,58156,58156,65700,0,10136,0,1810416036,63
o,1723549155.616887,172.16.3.2,17524,172.16.1.2,5101,8582,10814,38,64256,65728,6,6,4,1460,372187,1,16778208,780000,58156,55260,65700,0,7240,0,1810416036,63
i,1723549155.691202,172.16.3.2,17524,172.16.1.2,5101,8582,10814,38,64256,65728,6,6,4,1460,372187,1,16778208,780000,58156,58156,65700,0,10136,0,1810416036,63
o,1723549155.691335,172.16.3.2,17524,172.16.1.2,5101,8582,10814,38,64256,65728,6,6,4,1460,365937,1,16778208,770000,58156,55260,65700,0,7240,0,1810416036,63
i,1723549155.776592,172.16.3.2,17524,172.16.1.2,5101,8582,10814,38,64256,65728,6,6,4,1460,365937,1,16778208,770000,58156,58156,65700,0,10136,0,1810416036,63
o,1723549155.776720,172.16.3.2,17524,172.16.1.2,5101,8582,10814,38,65728,65728,6,6,4,1460,367812,1,16778208,740000,58156,56708,65700,0,8688,0,1810416036,63
i,1723549155.856855,172.16.3.2,17524,172.16.1.2,5101,8582,10814,38,65728,65728,6,6,4,1460,367812,1,16778208,740000,58156,56708,65700,0,10136,0,1810416036,63
o,1723549155.857018,172.16.3.2,17524,172.16.1.2,5101,8582,10814,38,64256,65728,6,6,4,1460,361875,1,16778208,730000,58156,53812,65700,0,7240,0,1810416036,63
o,1723549155.857256,172.16.3.2,17524,172.16.1.2,5101,8582,10814,38,64256,65728,6,6,4,1460,361875,1,16778208,730000,58156,53812,65700,0,8688,0,1810416036,63
i,1723549155.948421,172.16.3.2,17524,172.16.1.2,5101,8582,10814,38,64256,65728,6,6,4,1460,361875,1,16778208,730000,58156,58156,65700,0,10136,0,1810416036,63
o,1723549155.948540,172.16.3.2,17524,172.16.1.2,5101,8582,10814,38,64256,65728,6,6,4,1460,358125,1,16778208,720000,58156,55260,65700,0,7240,0,1810416036,63
i,1723549156.023691,172.16.3.2,17524,172.16.1.2,5101,8582,10814,38,64256,65728,6,6,4,1460,358125,1,16778208,720000,58156,58156,65700,0,10136,0,1810416036,63
o,1723549156.023691,172.16.3.2,17524,172.16.1.2,5101,8582,10814,38,64256,65728,6,6,4,1460,355937,1,16778208,690000,58156,55260,65700,0,7240,0,1810416036,63
i,1723549156.140312,172.16.3.2,17524,172.16.1.2,5101,8582,10814,38,64256,65728,6,6,4,1460,355937,1,16778208,690000,58156,58156,65700,0,10136,0,1810416036,63
o,1723549156.140393,172.16.3.2,17524,172.16.1.2,5101,8582,10814,38,65728,65728,6,6,4,1460,355312,1,16778208,660000,58156,56708,65700,0,8688,0,1810416036,63
i,1723549156.207201,172.16.3.2,17524,172.16.1.2,5101,8582,10814,38,65728,65728,6,6,4,1460,355312,1,16778208,660000,58156,56708,65700,0,10136,0,1810416036,63
o,1723549156.207576,172.16.3.2,17524,172.16.1.2,5101,6409,8688,34,64256,65728,6,6,4,1460,354687,1,553649120,640000,58156,53812,65700,0,7240,0,1810416036,63
i,1723549156.309814,172.16.3.2,17524,172.16.1.2,5101,6409,8688,34,64256,65728,6,6,4,1460,354687,1,553649120,640000,58156,58156,65700,0,8688,0,1810416036,63
i,1723549156.419621,172.16.3.2,17524,172.16.1.2,5101,6409,5792,34,64256,65728,6,6,4,1460,355625,1,553649120,630000,58156,58156,65700,0,5792,0,1810416036,63
i,1723549156.477010,172.16.3.2,17524,172.16.1.2,5101,6409,2896,34,64256,65728,6,6,4,1460,360000,1,553649120,650000,58156,58156,65700,0,2896,0,1810416036,63
o,1723549156.477047,172.16.3.2,17524,172.16.1.2,5101,6409,4344,34,64256,65728,6,6,4,1460,360000,1,553649120,650000,58156,58156,65700,0,2896,0,1810416036,63
o,1723549156.477242,172.16.3.2,17524,172.16.1.2,5101,6409,4344,34,65728,65728,6,6,4,1460,357500,1,553649120,640000,58156,56708,65700,0,2896,0,1810416036,63
i,1723549156.487766,172.16.3.2,17524,172.16.1.2,5101,6409,4344,34,65728,65728,6,6,4,1460,357500,1,553649120,640000,58156,56708,65700,0,4344,0,1810416036,63
o,1723549156.487849,172.16.3.2,17524,172.16.1.2,5101,6409,4344,34,65728,65728,6,6,4,1460,347812,1,16778208,690000,58156,55260,65700,0,2896,0,1810416036,63
i,1723549156.676916,172.16.3.2,17524,172.16.1.2,5101,6409,4344,34,65728,65728,6,6,4,1460,347812,1,16778208,690000,58156,58156,65700,0,4344,0,1810416036,63
o,1723549156.677218,172.16.3.2,17524,172.16.1.2,5101,6409,7240,38,64256,65728,6,6,4,1460,329375,1,16778208,780000,58156,55260,65700,0,1448,0,1810416036,63
i,1723549156.747906,172.16.3.2,17524,172.16.1.2,5101,6409,7240,38,64256,65728,6,6,4,1460,329375,1,16778208,780000,58156,58156,65700,0,7240,0,1810416036,63
o,1723549156.747947,172.16.3.2,17524,172.16.1.2,5101,6409,7706,38,65728,65728,6,6,4,1460,319687,1,16778208,790000,58156,56708,65700,0,5792,0,1810416036,63
i,1723549156.937867,172.16.3.2,17524,172.16.1.2,5101,6409,7706,38,65728,65728,6,6,4,1460,319687,1,16778208,790000,58156,56708,65700,0,7240,0,1810416036,63
o,1723549156.937930,172.16.3.2,17524,172.16.1.2,5101,6409,7706,38,64256,65728,6,6,4,1460,311250,1,16778208,780000,58156,53812,65700,0,4344,0,1810416036,63
i,1723549156.997985,172.16.3.2,17524,172.16.1.2,5101,6409,7706,38,64256,65728,6,6,4,1460,311250,1,16778208,780000,58156,58156,65700,0,7240,0,1810416036,63
o,1723549156.998021,172.16.3.2,17524,172.16.1.2,5101,6409,7706,38,65728,65728,6,6,4,1460,311250,1,16778208,710000,58156,56708,65700,0,5792,0,1810416036,63
i,1723549156.998174,172.16.3.2,17524,172.16.1.2,5101,6409,7706,38,65728,65728,6,6,4,1460,311250,1,16778208,710000,58156,56708,65700,0,7240,0,1810416036,63
o,1723549156.998191,172.16.3.2,17524,172.16.1.2,5101,6409,7706,38,64256,65728,6,6,4,1460,311250,1,16778208,660000,58156,53812,65700,0,4344,0,1810416036,63
o,1723549156.998297,172.16.3.2,17524,172.16.1.2,5101,6409,7706,38,64256,65728,6,6,4,1460,311250,1,16778208,660000,58156,53812,65700,0,5792,0,1810416036,63
i,1723549157.117108,172.16.3.2,17524,172.16.1.2,5101,6409,7706,38,64256,65728,6,6,4,1460,311250,1,16778208,660000,58156,58156,65700,0,7240,0,1810416036,63
o,1723549157.117266,172.16.3.2,17524,172.16.1.2,5101,6409,7706,38,64256,65728,6,6,4,1460,295000,1,16778208,740000,58156,55260,65700,0,4344,0,1810416036,63
i,1723549157.250122,172.16.3.2,17524,172.16.1.2,5101,6409,7706,38,64256,65728,6,6,4,1460,295000,1,16778208,740000,58156,58156,65700,0,7240,0,1810416036,63
o,1723549157.250159,172.16.3.2,17524,172.16.1.2,5101,6409,7706,38,62848,65728,6,6,4,1460,289375,1,16778208,720000,58156,55260,65700,0,4344,0,1810416036,63
o,1723549157.250303,172.16.3.2,17524,172.16.1.2,5101,6409,7706,38,62848,65728,6,6,4,1460,289375,1,16778208,720000,58156,55260,65700,0,5792,0,1810416036,63
i,1723549157.308635,172.16.3.2,17524,172.16.1.2,5101,6409,7706,38,62848,65728,6,6,4,1460,289375,1,16778208,720000,58156,58156,65700,0,7240,0,1810416036,63
o,1723549157.308744,172.16.3.2,17524,172.16.1.2,5101,6409,7706,38,64256,65728,6,6,4,1460,292187,1,16778208,680000,58156,55260,65700,0,4344,0,1810416036,63
i,1723549157.355633,172.16.3.2,17524,172.16.1.2,5101,6409,7706,38,64256,65728,6,6,4,1460,292187,1,16778208,680000,58156,58156,65700,0,7240,0,1810416036,63
o,1723549157.355681,172.16.3.2,17524,172.16.1.2,5101,6409,7706,38,65728,65728,6,6,4,1460,285937,1,16778208,680000,58156,56708,65700,0,5792,0,1810416036,63
i,1723549157.423058,172.16.3.2,17524,172.16.1.2,5101,6409,7706,38,65728,65728,6,6,4,1460,285937,1,16778208,680000,58156,56708,65700,0,7240,0,1810416036,63
o,1723549157.423093,172.16.3.2,17524,172.16.1.2,5101,6409,7807,38,64256,65728,6,6,4,1460,271562,1,16778208,730000,58156,53812,65700,0,4344,0,1810416036,63
o,1723549157.423234,172.16.3.2,17524,172.16.1.2,5101,6409,7807,38,64256,65728,6,6,4,1460,271562,1,16778208,730000,58156,53812,65700,0,5792,0,1810416036,63
i,1723549157.497919,172.16.3.2,17524,172.16.1.2,5101,6409,7807,38,64256,65728,6,6,4,1460,271562,1,16778208,730000,58156,58156,65700,0,7240,0,1810416036,63
o,1723549157.498045,172.16.3.2,17524,172.16.1.2,5101,6409,7951,38,65728,65728,6,6,4,1460,260312,1,16778208,750000,58156,56708,65700,0,5792,0,1810416036,63
i,1723549157.548511,172.16.3.2,17524,172.16.1.2,5101,6409,7951,38,65728,65728,6,6,4,1460,260312,1,16778208,750000,58156,56708,65700,0,7240,0,1810416036,63
o,1723549157.548600,172.16.3.2,17524,172.16.1.2,5101,6409,8054,38,65728,65728,6,6,4,1460,256562,1,16778208,700000,58156,55260,65700,0,5792,0,1810416036,63
i,1723549157.609096,172.16.3.2,17524,172.16.1.2,5101,6409,8054,38,65728,65728,6,6,4,1460,256562,1,16778208,700000,58156,58156,65700,0,7240,0,1810416036,63
o,1723549157.609174,172.16.3.2,17524,172.16.1.2,5101,6409,8177,38,64256,65728,6,6,4,1460,254687,1,16778208,650000,58156,55260,65700,0,4344,0,1810416036,63
o,1723549157.609324,172.16.3.2,17524,172.16.1.2,5101,6409,8177,38,64256,65728,6,6,4,1460,254687,1,16778208,650000,58156,55260,65700,0,5792,0,1810416036,63
i,1723549157.695537,172.16.3.2,17524,172.16.1.2,5101,6409,8177,38,64256,65728,6,6,4,1460,254687,1,16778208,650000,58156,58156,65700,0,7240,0,1810416036,63
o,1723549157.695653,172.16.3.2,17524,172.16.1.2,5101,6409,8362,38,65728,65728,6,6,4,1460,256875,1,16778208,620000,58156,56708,65700,0,5792,0,1810416036,63
i,1723549157.799344,172.16.3.2,17524,172.16.1.2,5101,6409,8362,38,65728,65728,6,6,4,1460,256875,1,16778208,620000,58156,56708,65700,0,7240,0,1810416036,63
o,1723549157.799428,172.16.3.2,17524,172.16.1.2,5101,6409,8568,38,65728,65728,6,6,4,1460,262500,1,16778208,630000,58156,55260,65700,0,5792,0,1810416036,63
i,1723549157.896686,172.16.3.2,17524,172.16.1.2,5101,6409,8568,38,65728,65728,6,6,4,1460,262500,1,16778208,630000,58156,58156,65700,0,7240,0,1810416036,63
o,1723549157.896856,172.16.3.2,17524,172.16.1.2,5101,6409,8773,38,65728,65728,6,6,4,1460,273437,1,16778208,690000,58156,56708,65700,0,5792,0,1810416036,63
i,1723549157.934913,172.16.3.2,17524,172.16.1.2,5101,6409,8773,38,65728,65728,6,6,4,1460,273437,1,16778208,690000,58156,56708,65700,0,8688,0,1810416036,63
o,1723549157.935007,172.16.3.2,17524,172.16.1.2,5101,6409,8856,38,64256,65728,6,6,4,1460,280625,1,16778208,700000,58156,53812,65700,0,5792,0,1810416036,63
o,1723549157.935178,172.16.3.2,17524,172.16.1.2,5101,6409,8856,38,64256,65728,6,6,4,1460,280625,1,16778208,700000,58156,53812,65700,0,7240,0,1810416036,63
i,1723549157.980405,172.16.3.2,17524,172.16.1.2,5101,6409,8856,38,64256,65728,6,6,4,1460,280625,1,16778208,700000,58156,58156,65700,0,8688,0,1810416036,63
o,1723549157.980495,172.16.3.2,17524,172.16.1.2,5101,6409,8938,38,64256,65728,6,6,4,1460,280625,1,16778208,640000,58156,55260,65700,0,5792,0,1810416036,63
i,1723549158.089353,172.16.3.2,17524,172.16.1.2,5101,6409,8938,38,64256,65728,6,6,4,1460,280625,1,16778208,640000,58156,58156,65700,0,8688,0,1810416036,63
o,1723549158.089528,172.16.3.2,17524,172.16.1.2,5101,6409,9166,38,65728,65728,6,6,4,1460,269375,1,16778208,680000,58156,56708,65700,0,7240,0,1810416036,63
i,1723549158.179941,172.16.3.2,17524,172.16.1.2,5101,6409,9166,38,65728,65728,6,6,4,1460,269375,1,16778208,680000,58156,56708,65700,0,8688,0,1810416036,63
o,1723549158.180064,172.16.3.2,17524,172.16.1.2,5101,6409,9349,38,65728,65728,6,6,4,1460,270937,1,16778208,640000,58156,55260,65700,0,7240,0,1810416036,63
i,1723549158.240213,172.16.3.2,17524,172.16.1.2,5101,6409,9349,38,65728,65728,6,6,4,1460,270937,1,16778208,640000,58156,58156,65700,0,8688,0,1810416036,63
o,1723549158.240301,172.16.3.2,17524,172.16.1.2,5101,6409,9472,38,64256,65728,6,6,4,1460,274687,1,16778208,630000,58156,55260,65700,0,5792,0,1810416036,63
o,1723549158.240460,172.16.3.2,17524,172.16.1.2,5101,6409,9472,38,64256,65728,6,6,4,1460,274687,1,16778208,630000,58156,55260,65700,0,7240,0,1810416036,63
i,1723549158.271063,172.16.3.2,17524,172.16.1.2,5101,6409,9472,38,64256,65728,6,6,4,1460,274687,1,16778208,630000,58156,58156,65700,0,8688,0,1810416036,63
o,1723549158.271142,172.16.3.2,17524,172.16.1.2,5101,6409,9534,38,65728,65728,6,6,4,1460,276875,1,16778208,610000,58156,56708,65700,0,7240,0,1810416036,63
i,1723549158.328650,172.16.3.2,17524,172.16.1.2,5101,6409,9534,38,65728,65728,6,6,4,1460,276875,1,16778208,610000,58156,56708,65700,0,8688,0,1810416036,63
o,1723549158.328749,172.16.3.2,17524,172.16.1.2,5101,6409,9657,38,65728,65728,6,6,4,1460,286250,1,16778208,660000,58156,55260,65700,0,7240,0,1810416036,63
i,1723549158.384475,172.16.3.2,17524,172.16.1.2,5101,6409,9657,38,65728,65728,6,6,4,1460,286250,1,16778208,660000,58156,58156,65700,0,8688,0,1810416036,63
o,1723549158.384719,172.16.3.2,17524,172.16.1.2,5101,6409,9781,38,65728,65728,6,6,4,1460,286875,1,16778208,620000,58156,56708,65700,0,7240,0,1810416036,63
i,1723549158.458853,172.16.3.2,17524,172.16.1.2,5101,6409,9781,38,65728,65728,6,6,4,1460,286875,1,16778208,620000,58156,56708,65700,0,8688,0,1810416036,63
o,1723549158.458932,172.16.3.2,17524,172.16.1.2,5101,6409,9925,38,65728,65728,6,6,4,1460,286250,1,16778208,590000,58156,55260,65700,0,7240,0,1810416036,63
i,1723549158.487243,172.16.3.2,17524,172.16.1.2,5101,6409,9925,38,65728,65728,6,6,4,1460,286250,1,16778208,590000,58156,58156,65700,0,8688,0,1810416036,63
o,1723549158.487332,172.16.3.2,17524,172.16.1.2,5101,6409,9986,38,64256,65728,6,6,4,1460,281875,1,16778208,600000,58156,55260,65700,0,5792,0,1810416036,63
o,1723549158.487486,172.16.3.2,17524,172.16.1.2,5101,6409,9986,38,64256,65728,6,6,4,1460,281875,1,16778208,600000,58156,55260,65700,0,7240,0,1810416036,63
i,1723549158.548417,172.16.3.2,17524,172.16.1.2,5101,6409,9986,38,64256,65728,6,6,4,1460,281875,1,16778208,600000,58156,58156,65700,0,8688,0,1810416036,63
o,1723549158.548417,172.16.3.2,17524,172.16.1.2,5101,6409,10110,38,65728,65728,6,6,4,1460,281875,1,16778208,570000,58156,56708,65700,0,7240,0,1810416036,63
i,1723549158.618471,172.16.3.2,17524,172.16.1.2,5101,6409,10110,38,65728,65728,6,6,4,1460,281875,1,16778208,570000,58156,56708,65700,0,8688,0,1810416036,63
o,1723549158.618569,172.16.3.2,17524,172.16.1.2,5101,6409,10254,38,65728,65728,6,6,4,1460,281875,1,16778208,540000,58156,55260,65700,0,7240,0,1810416036,63
i,1723549158.697006,172.16.3.2,17524,172.16.1.2,5101,6409,10254,38,65728,65728,6,6,4,1460,281875,1,16778208,540000,58156,58156,65700,0,10136,0,1810416036,63
o,1723549158.697101,172.16.3.2,17524,172.16.1.2,5101,6409,10418,38,65728,65728,6,6,4,1460,285625,1,16778208,560000,58156,56708,65700,0,8688,0,1810416036,63
i,1723549158.757281,172.16.3.2,17524,172.16.1.2,5101,6409,10418,38,65728,65728,6,6,4,1460,285625,1,16778208,560000,58156,56708,65700,0,10136,0,1810416036,63
o,1723549158.757399,172.16.3.2,17524,172.16.1.2,5101,6409,10542,38,65728,65728,6,6,4,1460,286250,1,16778208,550000,58156,55260,65700,0,8688,0,1810416036,63
i,1723549158.791927,172.16.3.2,17524,172.16.1.2,5101,6409,10542,38,65728,65728,6,6,4,1460,286250,1,16778208,550000,58156,58156,65700,0,10136,0,1810416036,63
o,1723549158.792026,172.16.3.2,17524,172.16.1.2,5101,6409,10603,38,64256,65728,6,6,4,1460,288125,1,16778208,550000,58156,55260,65700,0,7240,0,1810416036,63
o,1723549158.792158,172.16.3.2,17524,172.16.1.2,5101,6409,10603,38,64256,65728,6,6,4,1460,288125,1,16778208,550000,58156,55260,65700,0,8688,0,1810416036,63
i,1723549158.907260,172.16.3.2,17524,172.16.1.2,5101,6409,10603,38,64256,65728,6,6,4,1460,288125,1,16778208,550000,58156,58156,65700,0,10136,0,1810416036,63
o,1723549158.907437,172.16.3.2,17524,172.16.1.2,5101,6409,10850,38,65728,65728,6,6,4,1460,297187,1,16778208,620000,58156,56708,65700,0,8688,0,1810416036,63
i,1723549158.938324,172.16.3.2,17524,172.16.1.2,5101,6409,10850,38,65728,65728,6,6,4,1460,297187,1,16778208,620000,58156,56708,65700,0,10136,0,1810416036,63
o,1723549158.938388,172.16.3.2,17524,172.16.1.2,5101,6409,10912,38,65728,65728,6,6,4,1460,300312,1,16778208,620000,58156,55260,65700,0,8688,0,1810416036,63
i,1723549159.000595,172.16.3.2,17524,172.16.1.2,5101,6409,10912,38,65728,65728,6,6,4,1460,300312,1,16778208,620000,58156,58156,65700,0,10136,0,1810416036,63
o,1723549159.000703,172.16.3.2,17524,172.16.1.2,5101,6409,11035,38,65728,65728,6,6,4,1460,310312,1,16778208,680000,58156,56708,65700,0,8688,0,1810416036,63
i,1723549159.053638,172.16.3.2,17524,172.16.1.2,5101,6409,11035,38,65728,65728,6,6,4,1460,310312,1,16778208,680000,58156,56708,65700,0,10136,0,1810416036,63
o,1723549159.053856,172.16.3.2,17524,172.16.1.2,5101,6409,11159,38,64256,65728,6,6,4,1460,316562,1,16778208,690000,58156,53812,65700,0,7240,0,1810416036,63
i,1723549159.156835,172.16.3.2,17524,172.16.1.2,5101,6409,11159,38,64256,65728,6,6,4,1460,316562,1,16778208,690000,58156,58156,65700,0,10136,0,1810416036,63
o,1723549159.156945,172.16.3.2,17524,172.16.1.2,5101,6409,11364,38,64256,65728,6,6,4,1460,323437,1,16778208,710000,58156,55260,65700,0,7240,0,1810416036,63
o,1723549159.157080,172.16.3.2,17524,172.16.1.2,5101,6409,11364,38,64256,65728,6,6,4,1460,323437,1,16778208,710000,58156,55260,65700,0,8688,0,1810416036,63
i,1723549159.257446,172.16.3.2,17524,172.16.1.2,5101,6409,11364,38,64256,65728,6,6,4,1460,323437,1,16778208,710000,58156,58156,65700,0,10136,0,1810416036,63
o,1723549159.258530,172.16.3.2,17524,172.16.1.2,5101,6409,11570,38,65728,65728,6,6,4,1460,325625,1,16778208,680000,58156,56708,65700,0,8688,0,1810416036,63
i,1723549159.308180,172.16.3.2,17524,172.16.1.2,5101,6409,11570,38,65728,65728,6,6,4,1460,325625,1,16778208,680000,58156,56708,65700,0,10136,0,1810416036,63
o,1723549159.308291,172.16.3.2,17524,172.16.1.2,5101,6409,11673,38,64256,65728,6,6,4,1460,331250,1,16778208,690000,58156,53812,65700,0,7240,0,1810416036,63
i,1723549159.377498,172.16.3.2,17524,172.16.1.2,5101,6409,11673,38,64256,65728,6,6,4,1460,331250,1,16778208,690000,58156,58156,65700,0,11584,0,1810416036,63
o,1723549159.377598,172.16.3.2,17524,172.16.1.2,5101,6409,11817,38,64256,65728,6,6,4,1460,330000,1,16778208,660000,58156,55260,65700,0,8688,0,1810416036,63
i,1723549159.419089,172.16.3.2,17524,172.16.1.2,5101,6409,11817,38,64256,65728,6,6,4,1460,330000,1,16778208,660000,58156,58156,65700,0,11584,0,1810416036,63
o,1723549159.419186,172.16.3.2,17524,172.16.1.2,5101,6409,11899,38,64256,65728,6,6,4,1460,320000,1,16778208,700000,58156,55260,65700,0,8688,0,1810416036,63
o,1723549159.419307,172.16.3.2,17524,172.16.1.2,5101,6409,11899,38,64256,65728,6,6,4,1460,320000,1,16778208,700000,58156,55260,65700,0,10136,0,1810416036,63
i,1723549159.548057,172.16.3.2,17524,172.16.1.2,5101,6409,11899,38,64256,65728,6,6,4,1460,320000,1,16778208,700000,58156,58156,65700,0,11584,0,1810416036,63
o,1723549159.548132,172.16.3.2,17524,172.16.1.2,5101,6409,12166,38,65728,65728,6,6,4,1460,316250,1,16778208,680000,58156,56708,65700,0,10136,0,1810416036,63
i,1723549159.583296,172.16.3.2,17524,172.16.1.2,5101,6409,12166,38,65728,65728,6,6,4,1460,316250,1,16778208,680000,58156,56708,65700,0,11584,0,1810416036,63
o,1723549159.583372,172.16.3.2,17524,172.16.1.2,5101,6409,12248,38,64256,65728,6,6,4,1460,310625,1,16778208,680000,58156,53812,65700,0,8688,0,1810416036,63
i,1723549159.661395,172.16.3.2,17524,172.16.1.2,5101,6409,12248,38,64256,65728,6,6,4,1460,310625,1,16778208,680000,58156,58156,65700,0,11584,0,1810416036,63
o,1723549159.661550,172.16.3.2,17524,172.16.1.2,5101,6409,12392,38,64256,65728,6,6,4,1460,315625,1,16778208,680000,58156,55260,65700,0,8688,0,1810416036,63
i,1723549159.708082,172.16.3.2,17524,172.16.1.2,5101,6409,12392,38,64256,65728,6,6,4,1460,315625,1,16778208,680000,58156,58156,65700,0,11584,0,1810416036,63
o,1723549159.708254,172.16.3.2,17524,172.16.1.2,5101,6409,12495,38,64256,65728,6,6,4,1460,317500,1,16778208,660000,58156,55260,65700,0,8688,0,1810416036,63
o,1723549159.708631,172.16.3.2,17524,172.16.1.2,5101,6409,12495,38,64256,65728,6,6,4,1460,317500,1,16778208,660000,58156,55260,65700,0,10136,0,1810416036,63
i,1723549159.709031,172.16.3.2,17524,172.16.1.2,5101,6409,12495,38,64256,65728,6,6,4,1460,317500,1,16778208,660000,58156,55260,65700,0,11584,0,1810416036,63
o,1723549159.709117,172.16.3.2,17524,172.16.1.2,5101,6409,12495,38,65728,65728,6,6,4,1460,314062,1,16778208,640000,58156,53812,65700,0,10136,0,1810416036,63
i,1723549159.848123,172.16.3.2,17524,172.16.1.2,5101,6409,12495,38,65728,65728,6,6,4,1460,314062,1,16778208,640000,58156,56528,65700,0,11584,0,1810416036,63
o,1723549159.849445,172.16.3.2,17524,172.16.1.2,5101,6409,12783,38,65728,65728,6,6,4,1460,312500,1,16778208,620000,58156,55080,65700,0,10136,0,1810416036,63
i,1723549159.885687,172.16.3.2,17524,172.16.1.2,5101,6409,12783,38,65728,65728,6,6,4,1460,312500,1,16778208,620000,58156,58156,65700,0,11584,0,1810416036,63
o,1723549159.885785,172.16.3.2,17524,172.16.1.2,5101,6409,12865,38,64256,65728,6,6,4,1460,310937,1,16778208,610000,58156,55260,65700,0,8688,0,1810416036,63
i,1723549159.992832,172.16.3.2,17524,172.16.1.2,5101,6409,12865,38,64256,65728,6,6,4,1460,310937,1,16778208,610000,58156,58156,65700,0,11584,0,1810416036,63
o,1723549159.993070,172.16.3.2,17524,172.16.1.2,5101,6409,13071,38,64256,65728,6,6,4,1460,313437,1,16778208,600000,58156,55260,65700,0,8688,0,1810416036,63
i,1723549159.997957,172.16.3.2,17524,172.16.1.2,5101,6409,13071,38,64256,65728,6,6,4,1460,313437,1,16778208,600000,58156,58156,65700,0,13032,0,1810416036,63
o,1723549159.998036,172.16.3.2,17524,172.16.1.2,5101,6409,13091,38,64256,65728,6,6,4,1460,309375,1,16778208,610000,58156,55260,65700,0,10136,0,1810416036,63
o,1723549159.998175,172.16.3.2,17524,172.16.1.2,5101,6409,13091,38,64256,65728,6,6,4,1460,309375,1,16778208,610000,58156,55260,65700,0,11584,0,1810416036,63
i,1723549160.107035,172.16.3.2,17524,172.16.1.2,5101,6409,13091,38,64256,65728,6,6,4,1460,309375,1,16778208,610000,58156,58156,65700,0,13032,0,1810416036,63
o,1723549160.107129,172.16.3.2,17524,172.16.1.2,5101,6409,13546,38,65728,65728,6,6,4,1460,319687,1,16778208,680000,58156,56708,65700,0,11584,0,1810416036,63
i,1723549160.187977,172.16.3.2,17524,172.16.1.2,5101,6409,13546,38,65728,65728,6,6,4,1460,319687,1,16778208,680000,58156,56708,65700,0,13032,0,1810416036,63
o,1723549160.188004,172.16.3.2,17524,172.16.1.2,5101,6409,13546,38,65728,65728,6,6,4,1460,322500,1,16778208,660000,58156,55260,65700,0,11584,0,1810416036,63
i,1723549160.261426,172.16.3.2,17524,172.16.1.2,5101,6409,13546,38,65728,65728,6,6,4,1460,322500,1,16778208,660000,58156,58156,65700,0,13032,0,1810416036,63
o,1723549160.261670,172.16.3.2,17524,172.16.1.2,5101,6409,15006,38,64256,65728,6,6,4,1460,327187,1,16778208,670000,58156,55260,65700,0,10136,0,1810416036,63
i,1723549160.313002,172.16.3.2,17524,172.16.1.2,5101,6409,15006,38,64256,65728,6,6,4,1460,327187,1,16778208,670000,58156,58156,65700,0,14480,0,1810416036,63
o,1723549160.313042,172.16.3.2,17524,172.16.1.2,5101,6409,15006,38,64256,65728,6,6,4,1460,326562,1,16778208,640000,58156,55260,65700,0,11584,0,1810416036,63
i,1723549160.337855,172.16.3.2,17524,172.16.1.2,5101,6409,15006,38,64256,65728,6,6,4,1460,326562,1,16778208,640000,58156,58156,65700,0,14480,0,1810416036,63
o,1723549160.337946,172.16.3.2,17524,172.16.1.2,5101,6409,15006,38,64256,65728,6,6,4,1460,328437,1,16778208,630000,58156,55260,65700,0,11584,0,1810416036,63
o,1723549160.338126,172.16.3.2,17524,172.16.1.2,5101,6409,15006,38,64256,65728,6,6,4,1460,328437,1,16778208,630000,58156,55260,65700,0,13032,0,1810416036,63
i,1723549160.367419,172.16.3.2,17524,172.16.1.2,5101,6409,15006,38,64256,65728,6,6,4,1460,328437,1,16778208,630000,58156,58156,65700,0,14480,0,1810416036,63
o,1723549160.367497,172.16.3.2,17524,172.16.1.2,5101,6409,15006,38,64256,65728,6,6,4,1460,333750,1,16778208,650000,58156,55260,65700,0,11584,0,1810416036,63
i,1723549160.475828,172.16.3.2,17524,172.16.1.2,5101,6409,15006,38,64256,65728,6,6,4,1460,333750,1,16778208,650000,58156,58156,65700,0,14480,0,1810416036,63
o,1723549160.476026,172.16.3.2,17524,172.16.1.2,5101,6409,16466,38,64256,65728,6,6,4,1460,327187,1,16778208,670000,58156,55260,65700,0,11584,0,1810416036,63
i,1723549160.587609,172.16.3.2,17524,172.16.1.2,5101,6409,16466,38,64256,65728,6,6,4,1460,327187,1,16778208,670000,58156,58156,65700,0,15928,0,1810416036,63
o,1723549160.587680,172.16.3.2,17524,172.16.1.2,5101,6409,17926,38,64256,65728,6,6,4,1460,327812,1,16778208,640000,58156,55260,65700,0,13032,0,1810416036,63
i,1723549160.729573,172.16.3.2,17524,172.16.1.2,5101,6409,17926,38,64256,65728,6,6,4,1460,327812,1,16778208,640000,58156,58156,65700,0,17376,0,1810416036,63
o,1723549160.729674,172.16.3.2,17524,172.16.1.2,5101,6409,19386,38,64256,65728,6,6,4,1460,338125,1,16778208,700000,58156,55260,65700,0,14480,0,1810416036,63
i,1723549160.792503,172.16.3.2,17524,172.16.1.2,5101,6409,19386,38,64256,65728,6,6,4,1460,338125,1,16778208,700000,58156,58156,65700,0,18824,0,1810416036,63
o,1723549160.792596,172.16.3.2,17524,172.16.1.2,5101,6409,20846,38,64256,65728,6,6,4,1460,352187,1,16778208,790000,58156,55260,65700,0,15928,0,1810416036,63
o,1723549160.792752,172.16.3.2,17524,172.16.1.2,5101,6409,20846,38,64256,65728,6,6,4,1460,352187,1,16778208,790000,58156,55260,65700,0,17376,0,1810416036,63
i,1723549160.817808,172.16.3.2,17524,172.16.1.2,5101,6409,20846,38,64256,65728,6,6,4,1460,352187,1,16778208,790000,58156,58156,65700,0,20272,0,1810416036,63
o,1723549160.817844,172.16.3.2,17524,172.16.1.2,5101,6409,20846,38,65728,65728,6,6,4,1460,364687,1,16778208,840000,58156,56708,65700,0,18824,0,1810416036,63
i,1723549160.858627,172.16.3.2,17524,172.16.1.2,5101,6409,20846,38,65728,65728,6,6,4,1460,364687,1,16778208,840000,58156,56708,65700,0,20272,0,1810416036,63
o,1723549160.858679,172.16.3.2,17524,172.16.1.2,5101,6409,20846,38,64256,65728,6,6,4,1460,379375,1,16778208,900000,58156,53812,65700,0,17376,0,1810416036,63
i,1723549160.887569,172.16.3.2,17524,172.16.1.2,5101,6409,20846,38,64256,65728,6,6,4,1460,379375,1,16778208,900000,58156,58156,65700,0,20272,0,1810416036,63
o,1723549160.888015,172.16.3.2,17524,172.16.1.2,5101,6409,22306,38,64256,65728,6,6,4,1460,383437,1,16778208,860000,58156,55260,65700,0,17376,0,1810416036,63
i,1723549161.017895,172.16.3.2,17524,172.16.1.2,5101,6409,22306,38,64256,65728,6,6,4,1460,383437,1,16778208,860000,58156,58156,65700,0,21720,0,1810416036,63
o,1723549161.018020,172.16.3.2,17524,172.16.1.2,5101,6409,23766,38,64256,65728,6,6,4,1460,388125,1,16778208,830000,58156,55260,65700,0,18824,0,1810416036,63
i,1723549161.067169,172.16.3.2,17524,172.16.1.2,5101,6409,23766,38,64256,65728,6,6,4,1460,388125,1,16778208,830000,58156,58156,65700,0,23168,0,1810416036,63
o,1723549161.067246,172.16.3.2,17524,172.16.1.2,5101,6409,23766,38,65728,65728,6,6,4,1460,398437,1,16778208,860000,58156,56708,65700,0,21720,0,1810416036,63
i,1723549161.178710,172.16.3.2,17524,172.16.1.2,5101,6409,23766,38,65728,65728,6,6,4,1460,398437,1,16778208,860000,58156,56708,65700,0,23168,0,1810416036,63
o,1723549161.178891,172.16.3.2,17524,172.16.1.2,5101,6409,26686,38,65728,65728,6,6,4,1460,403750,1,16778208,840000,58156,55260,65700,0,21720,0,1810416036,63
i,1723549161.231180,172.16.3.2,17524,172.16.1.2,5101,6409,26686,38,65728,65728,6,6,4,1460,403750,1,16778208,840000,58156,58156,65700,0,26064,0,1810416036,63
o,1723549161.231251,172.16.3.2,17524,172.16.1.2,5101,6409,26686,38,65728,65728,6,6,4,1460,414687,1,16778208,880000,58156,56708,65700,0,24616,0,1810416036,63
i,1723549161.267822,172.16.3.2,17524,172.16.1.2,5101,6409,26686,38,65728,65728,6,6,4,1460,414687,1,16778208,880000,58156,56708,65700,0,26064,0,1810416036,63
o,1723549161.267864,172.16.3.2,17524,172.16.1.2,5101,18659,26064,38,64256,65728,6,6,4,1460,429375,1,553649120,950000,58156,53812,65700,0,23168,0,1810416036,63
o,1723549161.268104,172.16.3.2,17524,172.16.1.2,5101,18659,26064,34,64256,65728,6,6,4,1460,429375,1,553649120,950000,58156,53812,65700,0,24616,0,1810416036,63
i,1723549161.296800,172.16.3.2,17524,172.16.1.2,5101,18659,26064,34,64256,65728,6,6,4,1460,429375,1,553649120,950000,58156,58156,65700,0,26064,0,1810416036,63
o,1723549161.296818,172.16.3.2,17524,172.16.1.2,5101,18659,26064,34,65728,65728,6,6,4,1460,439687,1,553649120,960000,58156,56708,65700,0,24616,0,1810416036,63
i,1723549161.377881,172.16.3.2,17524,172.16.1.2,5101,18659,26064,34,65728,65728,6,6,4,1460,439687,1,553649120,960000,58156,56708,65700,0,26064,0,1810416036,63
o,1723549161.377955,172.16.3.2,17524,172.16.1.2,5101,18659,24616,34,64256,65728,6,6,4,1460,458750,1,553649120,1050000,58156,53812,65700,0,23168,0,1810416036,63
i,1723549161.378079,172.16.3.2,17524,172.16.1.2,5101,18659,24616,34,64256,65728,6,6,4,1460,458750,1,553649120,1050000,58156,53812,65700,0,24616,0,1810416036,63
o,1723549161.378096,172.16.3.2,17524,172.16.1.2,5101,18659,23168,34,64256,65728,6,6,4,1460,466562,1,553649120,1020000,58156,50916,65700,0,21720,0,1810416036,63
i,1723549161.406799,172.16.3.2,17524,172.16.1.2,5101,18659,23168,34,64256,65728,6,6,4,1460,466562,1,553649120,1020000,58156,58156,65700,0,23168,0,1810416036,63
o,1723549161.406864,172.16.3.2,17524,172.16.1.2,5101,18659,23168,38,64256,65728,6,6,4,1460,472187,1,553649120,980000,58156,55260,65700,0,20272,0,1810416036,63
i,1723549161.448883,172.16.3.2,17524,172.16.1.2,5101,18659,23168,38,64256,65728,6,6,4,1460,472187,1,553649120,980000,58156,58156,65700,0,23168,0,1810416036,63
i,1723549161.517120,172.16.3.2,17524,172.16.1.2,5101,18659,21720,38,65728,65728,6,6,4,1460,482187,1,553649120,1000000,58156,56708,65700,0,21720,0,1810416036,63
o,1723549161.517312,172.16.3.2,17524,172.16.1.2,5101,18659,21720,38,64256,65728,6,6,4,1460,484687,1,553649120,940000,58156,53812,65700,0,18824,0,1810416036,63
i,1723549161.588450,172.16.3.2,17524,172.16.1.2,5101,18659,21720,38,64256,65728,6,6,4,1460,484687,1,553649120,940000,58156,58156,65700,0,21720,0,1810416036,63
o,1723549161.588522,172.16.3.2,17524,172.16.1.2,5101,18659,20272,34,64256,65728,6,6,4,1460,495625,1,553649120,970000,58156,55260,65700,0,18824,0,1810416036,63
i,1723549161.708283,172.16.3.2,17524,172.16.1.2,5101,18659,20272,34,64256,65728,6,6,4,1460,495625,1,553649120,970000,58156,58156,65700,0,20272,0,1810416036,63
o,1723549161.708318,172.16.3.2,17524,172.16.1.2,5101,18659,18824,34,64256,65728,6,6,4,1460,500000,1,553649120,940000,58156,55260,65700,0,17376,0,1810416036,63
i,1723549161.726595,172.16.3.2,17524,172.16.1.2,5101,18659,18824,34,64256,65728,6,6,4,1460,500000,1,553649120,940000,58156,58156,65700,0,18824,0,1810416036,63
o,1723549161.726629,172.16.3.2,17524,172.16.1.2,5101,18659,18824,34,65728,65728,6,6,4,1460,506250,1,553649120,940000,58156,56708,65700,0,17376,0,1810416036,63
i,1723549161.778261,172.16.3.2,17524,172.16.1.2,5101,18659,18824,34,65728,65728,6,6,4,1460,506250,1,553649120,940000,58156,56708,65700,0,18824,0,1810416036,63
o,1723549161.778287,172.16.3.2,17524,172.16.1.2,5101,18659,18824,34,65728,65728,6,6,4,1460,511875,1,553649120,930000,58156,55260,65700,0,17376,0,1810416036,63
i,1723549161.807904,172.16.3.2,17524,172.16.1.2,5101,18659,18824,34,65728,65728,6,6,4,1460,511875,1,553649120,930000,58156,58156,65700,0,18824,0,1810416036,63
i,1723549161.840089,172.16.3.2,17524,172.16.1.2,5101,11156,17376,98,65728,65728,6,6,4,1460,515625,1,536871904,910000,58156,56708,65700,0,17376,0,1810416036,63
i,1723549161.863994,172.16.3.2,17524,172.16.1.2,5101,11156,14480,98,64256,65728,6,6,4,1460,522500,1,536871904,920000,58156,58156,65700,0,14480,0,1810416036,63
i,1723549161.902006,172.16.3.2,17524,172.16.1.2,5101,11156,11584,98,64256,65728,6,6,4,1460,518437,1,536871904,900000,58156,58156,65700,0,11584,0,1810416036,63
i,1723549161.948876,172.16.3.2,17524,172.16.1.2,5101,11156,8688,98,64256,65728,6,6,4,1460,515000,1,536871904,880000,58156,58156,65700,0,8688,0,1810416036,63
o,1723549161.949020,172.16.3.2,17524,172.16.1.2,5101,11156,7240,34,64256,65728,6,6,4,1460,504375,1,553649120,910000,58156,55260,65700,0,5792,0,1810416036,63
i,1723549162.039107,172.16.3.2,17524,172.16.1.2,5101,11156,7240,34,64256,65728,6,6,4,1460,504375,1,553649120,910000,58156,58156,65700,0,7240,0,1810416036,63
o,1723549162.039195,172.16.3.2,17524,172.16.1.2,5101,11156,7240,38,64256,65728,6,6,4,1460,497812,1,553649120,910000,58156,55260,65700,0,4344,0,1810416036,63
i,1723549162.097452,172.16.3.2,17524,172.16.1.2,5101,11156,7240,38,64256,65728,6,6,4,1460,497812,1,553649120,910000,58156,58156,65700,0,7240,0,1810416036,63
o,1723549162.097494,172.16.3.2,17524,172.16.1.2,5101,11156,8688,34,64256,65728,6,6,4,1460,497812,1,553649120,910000,58156,58156,65700,0,7240,0,1810416036,63
o,1723549162.097720,172.16.3.2,17524,172.16.1.2,5101,11156,8688,34,65728,65728,6,6,4,1460,481875,1,553649120,960000,58156,56708,65700,0,7240,0,1810416036,63
i,1723549162.127385,172.16.3.2,17524,172.16.1.2,5101,11156,8688,34,65728,65728,6,6,4,1460,481875,1,553649120,960000,58156,56708,65700,0,8688,0,1810416036,63
o,1723549162.127456,172.16.3.2,17524,172.16.1.2,5101,11156,8688,38,64256,65728,6,6,4,1460,465625,1,16778208,1010000,58156,53812,65700,0,5792,0,1810416036,63
o,1723549162.127587,172.16.3.2,17524,172.16.1.2,5101,11156,8688,34,64256,65728,6,6,4,1460,465625,1,16778208,1010000,58156,53812,65700,0,7240,0,1810416036,63
i,1723549162.292453,172.16.3.2,17524,172.16.1.2,5101,11156,8688,34,64256,65728,6,6,4,1460,465625,1,16778208,1010000,58156,58156,65700,0,8688,0,1810416036,63
o,1723549162.292557,172.16.3.2,17524,172.16.1.2,5101,11156,11584,38,64256,65728,6,6,4,1460,438750,1,16778208,1110000,58156,55260,65700,0,5792,0,1810416036,63
i,1723549162.377940,172.16.3.2,17524,172.16.1.2,5101,11156,11584,38,64256,65728,6,6,4,1460,438750,1,16778208,1110000,58156,58156,65700,0,11584,0,1810416036,63
o,1723549162.378038,172.16.3.2,17524,172.16.1.2,5101,11156,13036,38,64256,65728,6,6,4,1460,419062,1,16778208,1130000,58156,55260,65700,0,8688,0,1810416036,63
i,1723549162.428319,172.16.3.2,17524,172.16.1.2,5101,11156,13036,38,64256,65728,6,6,4,1460,419062,1,16778208,1130000,58156,58156,65700,0,13032,0,1810416036,63
o,1723549162.428460,172.16.3.2,17524,172.16.1.2,5101,11156,13036,38,64256,65728,6,6,4,1460,403125,1,16778208,1120000,58156,55260,65700,0,10136,0,1810416036,63
o,1723549162.428661,172.16.3.2,17524,172.16.1.2,5101,11156,13036,34,64256,65728,6,6,4,1460,403125,1,16778208,1120000,58156,55260,65700,0,11584,0,1810416036,63
i,1723549162.657164,172.16.3.2,17524,172.16.1.2,5101,11156,13036,34,64256,65728,6,6,4,1460,403125,1,16778208,1120000,58156,58156,65700,0,13032,0,1810416036,63
o,1723549162.657266,172.16.3.2,17524,172.16.1.2,5101,11156,14496,38,64256,65728,6,6,4,1460,399062,1,16778208,1020000,58156,55260,65700,0,10136,0,1810416036,63
i,1723549162.778489,172.16.3.2,17524,172.16.1.2,5101,11156,14496,38,64256,65728,6,6,4,1460,399062,1,16778208,1020000,58156,58156,65700,0,14480,0,1810416036,63
o,1723549162.778564,172.16.3.2,17524,172.16.1.2,5101,11156,14496,38,64256,65728,6,6,4,1460,410625,1,16778208,1020000,58156,55260,65700,0,11584,0,1810416036,63
i,1723549162.779019,172.16.3.2,17524,172.16.1.2,5101,11156,14496,38,64256,65728,6,6,4,1460,410625,1,16778208,1020000,58156,55260,65700,0,14480,0,1810416036,63
o,1723549162.779061,172.16.3.2,17524,172.16.1.2,5101,11156,14496,38,64256,65728,6,6,4,1460,408125,1,16778208,930000,58156,52364,65700,0,11584,0,1810416036,63
i,1723549162.807975,172.16.3.2,17524,172.16.1.2,5101,11156,14496,38,64256,65728,6,6,4,1460,408125,1,16778208,930000,58156,58156,65700,0,14480,0,1810416036,63
