enable_time_secs=1723545543	enable_time_usecs=540578	siftrver=1.3.0	sysname=FreeBSD	sysver=1401000	ipmode=4
o,1723545543.540747,10.0.2.15,22,10.0.2.2,52238,1073725440,17746,1026,65535,65700,0,0,4,1460,312,0,16777220,230000,33580,60,65700,0,0,0,1422458076,63
o,1723545543.541411,10.0.2.15,22,10.0.2.2,52238,1073725440,17746,1026,65535,65700,0,0,4,1460,312,0,16777220,230000,33580,208,65700,0,60,0,1422458076,63
o,1723545543.542289,10.0.2.15,22,10.0.2.2,52238,1073725440,17746,1026,65535,65700,0,0,4,1460,312,0,16777220,230000,33580,280,65700,0,208,0,1422458076,63
i,1723545543.542387,10.0.2.15,22,10.0.2.2,52238,1073725440,17746,1026,65535,65700,0,0,4,1460,312,0,16777220,230000,33580,280,65700,0,280,0,1422458076,63
i,1723545543.542443,10.0.2.15,22,10.0.2.2,52238,1073725440,17806,1026,65535,65700,0,0,4,1460,312,0,4,240000,33580,220,65700,0,220,0,1422458076,63
i,1723545543.543077,10.0.2.15,22,10.0.2.2,52238,1073725440,17954,1026,65535,65700,0,0,4,1460,312,0,4,240000,33580,72,65700,0,72,0,1422458076,63
i,1723545543.543096,10.0.2.15,22,10.0.2.2,52238,1073725440,18026,1026,65535,65700,0,0,4,1460,312,0,4,240000,33580,0,65700,0,0,0,1422458076,63
i,1723545543.543111,10.0.2.15,22,10.0.2.2,52238,1073725440,18026,1026,65535,65700,0,0,4,1460,312,0,4,240000,33580,0,65700,96,0,0,1422458076,63
o,1723545543.543127,10.0.2.15,22,10.0.2.2,52238,1073725440,18026,1026,65535,65604,0,0,5,1460,312,0,5,240000,33580,0,65700,96,0,0,1422458076,63
o,1723545543.543722,10.0.2.15,22,10.0.2.2,52238,1073725440,18026,1026,65535,65604,0,0,8,1460,312,0,4,240000,33580,0,65700,0,0,0,1422458076,63
i,1723545543.544839,10.0.2.15,22,10.0.2.2,52238,1073725440,18026,1026,65535,65604,0,0,8,1460,312,0,67108884,240000,33580,0,65700,0,1,0,1422458076,63
i,1723545546.698124,10.0.2.15,22,10.0.2.2,52252,1073725440,14600,0,65535,65700,0,0,4,1460,312,0,16777216,280000,33580,0,65700,0,0,0,3996975949,63
o,1723545546.709853,10.0.2.15,22,10.0.2.2,52252,1073725440,14600,1026,65535,65700,0,0,4,1460,312,0,16777216,280000,33580,38,65700,42,0,0,3996975949,63
i,1723545546.710722,10.0.2.15,22,10.0.2.2,52252,1073725440,14600,1026,65535,65700,0,0,4,1460,312,0,16777216,280000,33580,38,65700,0,38,0,3996975949,63
i,1723545546.711215,10.0.2.15,22,10.0.2.2,52252,1073725440,14638,1026,65535,65700,0,0,4,1460,312,0,0,240000,33580,0,65700,0,0,0,3996975949,63
i,1723545546.711231,10.0.2.15,22,10.0.2.2,52252,1073725440,14638,1026,65535,65700,0,0,4,1460,312,0,0,240000,33580,0,65700,1460,0,0,3996975949,63
o,1723545546.711248,10.0.2.15,22,10.0.2.2,52252,1073725440,14638,1026,65535,65700,0,0,4,1460,312,0,1,240000,33580,0,65700,1536,0,0,3996975949,63
o,1723545546.713748,10.0.2.15,22,10.0.2.2,52252,1073725440,14638,1026,65535,65700,0,0,4,1460,312,0,16777216,240000,33580,1120,65700,1536,0,0,3996975949,63
i,1723545546.714645,10.0.2.15,22,10.0.2.2,52252,1073725440,14638,1026,65535,65700,0,0,4,1460,312,0,16777216,240000,33580,1120,65700,0,1120,0,3996975949,63
i,1723545546.715809,10.0.2.15,22,10.0.2.2,52252,1073725440,15758,1026,65535,65700,0,0,4,1460,312,0,0,240000,33580,0,65700,0,0,0,3996975949,63
o,1723545546.720699,10.0.2.15,22,10.0.2.2,52252,1073725440,15758,1026,65535,65700,0,0,4,1460,312,0,16777216,240000,33580,492,65700,0,0,0,3996975949,63
i,1723545546.722082,10.0.2.15,22,10.0.2.2,52252,1073725440,15758,1026,65535,65700,0,0,4,1460,312,0,16777216,240000,33580,492,65700,0,492,0,3996975949,63
i,1723545546.725721,10.0.2.15,22,10.0.2.2,52252,1073725440,16250,1026,65535,65700,0,0,4,1460,312,0,0,240000,33580,0,65700,0,0,0,3996975949,63
i,1723545546.725737,10.0.2.15,22,10.0.2.2,52252,1073725440,16250,1026,65535,65700,0,0,4,1460,312,0,0,240000,33580,0,65700,16,0,0,3996975949,63
o,1723545546.725752,10.0.2.15,22,10.0.2.2,52252,1073725440,16250,1026,65535,65700,0,0,4,1460,312,0,1,240000,33580,0,65700,44,0,0,3996975949,63
o,1723545546.725867,10.0.2.15,22,10.0.2.2,52252,1073725440,16250,1026,65535,65700,0,0,4,1460,312,0,16777216,240000,33580,44,65700,0,0,0,3996975949,63
i,1723545546.726852,10.0.2.15,22,10.0.2.2,52252,1073725440,16250,1026,65535,65700,0,0,4,1460,312,0,16777216,240000,33580,44,65700,0,44,0,3996975949,63
i,1723545546.726868,10.0.2.15,22,10.0.2.2,52252,1073725440,16294,1026,65535,65700,0,0,4,1460,312,0,0,240000,33580,0,65700,0,0,0,3996975949,63
o,1723545546.728547,10.0.2.15,22,10.0.2.2,52252,1073725440,16294,1026,65535,65700,0,0,4,1460,312,0,16777216,240000,33580,68,65700,0,0,0,3996975949,63
i,1723545546.729214,10.0.2.15,22,10.0.2.2,52252,1073725440,16294,1026,65535,65700,0,0,4,1460,312,0,16777216,240000,33580,68,65700,0,68,0,3996975949,63
i,1723545546.729235,10.0.2.15,22,10.0.2.2,52252,1073725440,16362,1026,65535,65700,0,0,4,1460,312,0,0,240000,33580,0,65700,0,0,0,3996975949,63
o,1723545546.730350,10.0.2.15,22,10.0.2.2,52252,1073725440,16362,1026,65535,65700,0,0,4,1460,312,0,16777216,240000,33580,332,65700,0,0,0,3996975949,63
i,1723545546.731221,10.0.2.15,22,10.0.2.2,52252,1073725440,16362,1026,65535,65700,0,0,4,1460,312,0,16777216,240000,33580,332,65700,0,332,0,3996975949,63
i,1723545546.732648,10.0.2.15,22,10.0.2.2,52252,1073725440,16694,1026,65535,65700,0,0,4,1460,312,0,0,240000,33580,0,65700,0,0,0,3996975949,63
o,1723545546.750298,10.0.2.15,22,10.0.2.2,52252,1073725440,16694,1026,65535,65700,0,0,4,1460,312,0,16777216,240000,33580,28,65700,0,0,0,3996975949,63
i,1723545546.750845,10.0.2.15,22,10.0.2.2,52252,1073725440,16694,1026,65535,65700,0,0,4,1460,312,0,16777216,240000,33580,28,65700,0,28,0,3996975949,63
i,1723545546.750897,10.0.2.15,22,10.0.2.2,52252,1073725440,16722,1026,65535,65700,0,0,4,1460,312,0,0,240000,33580,0,65700,0,0,0,3996975949,63
o,1723545546.751796,10.0.2.15,22,10.0.2.2,52252,1073725440,16722,1026,65535,65700,0,0,4,1460,312,0,16777216,240000,33580,768,65700,112,0,0,3996975949,63
i,1723545546.752693,10.0.2.15,22,10.0.2.2,52252,1073725440,16722,1026,65535,65700,0,0,4,1460,312,0,16777216,240000,33580,908,65700,112,768,0,3996975949,63
o,1723545546.752710,10.0.2.15,22,10.0.2.2,52252,1073725440,17490,1026,65535,65700,0,0,4,1460,312,0,16777216,240000,33580,140,65700,112,0,0,3996975949,63
i,1723545546.753422,10.0.2.15,22,10.0.2.2,52252,1073725440,17490,1026,65535,65700,0,0,4,1460,312,0,16777216,240000,33580,140,65700,0,140,0,3996975949,63
o,1723545546.753517,10.0.2.15,22,10.0.2.2,52252,1073725440,17630,1026,65535,65700,0,0,4,1460,312,0,16777216,240000,33580,44,65700,0,0,0,3996975949,63
i,1723545546.754003,10.0.2.15,22,10.0.2.2,52252,1073725440,17630,1026,65535,65700,0,0,4,1460,312,0,16777216,240000,33580,44,65700,0,44,0,3996975949,63
i,1723545546.754477,10.0.2.15,22,10.0.2.2,52252,1073725440,17674,1026,65535,65700,0,0,4,1460,312,0,0,240000,33580,0,65700,0,0,0,3996975949,63
o,1723545546.755636,10.0.2.15,22,10.0.2.2,52252,1073725440,17674,1026,65535,65700,0,0,4,1460,312,0,16777220,240000,33580,72,65700,0,0,0,3996975949,63
i,1723545546.756549,10.0.2.15,22,10.0.2.2,52252,1073725440,17674,1026,65535,65700,0,0,4,1460,312,0,16777220,240000,33580,72,65700,0,72,0,3996975949,63
o,1723545546.758866,10.0.2.15,22,10.0.2.2,52252,1073725440,17746,1026,65535,65700,0,0,4,1460,312,0,16777220,240000,33580,104,65700,0,0,0,3996975949,63
o,1723545546.759022,10.0.2.15,22,10.0.2.2,52252,1073725440,17746,1026,65535,65700,0,0,4,1460,312,0,16777220,240000,33580,176,65700,0,104,0,3996975949,63
i,1723545546.759487,10.0.2.15,22,10.0.2.2,52252,1073725440,17746,1026,65535,65700,0,0,4,1460,312,0,16777220,240000,33580,176,65700,0,176,0,3996975949,63
i,1723545546.759504,10.0.2.15,22,10.0.2.2,52252,1073725440,17850,1026,65535,65700,0,0,4,1460,312,0,4,240000,33580,72,65700,0,72,0,3996975949,63
i,1723545546.759916,10.0.2.15,22,10.0.2.2,52252,1073725440,17922,1026,65535,65700,0,0,4,1460,312,0,4,240000,33580,0,65700,0,0,0,3996975949,63
i,1723545546.759931,10.0.2.15,22,10.0.2.2,52252,1073725440,17922,1026,65535,65700,0,0,4,1460,312,0,4,240000,33580,0,65700,96,0,0,3996975949,63
o,1723545546.759947,10.0.2.15,22,10.0.2.2,52252,1073725440,17922,1026,65535,65604,0,0,5,1460,312,0,5,240000,33580,0,65700,96,0,0,3996975949,63
o,1723545546.760260,10.0.2.15,22,10.0.2.2,52252,1073725440,17922,1026,65535,65604,0,0,8,1460,312,0,4,240000,33580,0,65700,0,0,0,3996975949,63
i,1723545546.761208,10.0.2.15,22,10.0.2.2,52252,1073725440,17922,1026,65535,65604,0,0,8,1460,312,0,67108884,240000,33580,0,65700,0,1,0,3996975949,63
i,1723545547.078412,172.16.1.2,5102,172.16.5.2,64229,1073725440,14480,32,65728,65700,6,6,4,1460,140000,1,16778208,620000,33580,0,65700,0,0,0,1301079208,63
i,1723545547.078676,172.16.1.2,5101,172.16.3.2,19486,1073725440,14480,32,65728,65700,6,6,4,1460,140000,1,16778208,620000,33580,0,65700,0,0,0,1938540035,63
o,1723545547.079039,172.16.1.2,5102,172.16.5.2,64229,1073725440,14480,1058,65728,65700,6,6,4,1460,140000,1,16778212,620000,33580,1,65700,0,0,0,1301079208,63
o,1723545547.079042,172.16.1.2,5101,172.16.3.2,19486,1073725440,14480,1058,65728,65700,6,6,4,1460,140000,1,16778212,620000,33580,1,65700,0,0,0,1938540035,63
i,1723545547.192895,172.16.1.2,5101,172.16.3.2,19486,1073725440,14480,1058,65728,65700,6,6,4,1460,140000,1,16778212,620000,33580,1,65700,0,1,0,1938540035,63
i,1723545547.192991,172.16.1.2,5101,172.16.3.2,19486,1073725440,14481,1058,65728,65728,6,6,4,1460,136250,1,996,570000,33580,0,65700,4,0,0,1938540035,63
o,1723545547.193036,172.16.1.2,5101,172.16.3.2,19486,1073725440,14481,1058,65728,65728,6,6,4,1460,136250,1,997,570000,33580,0,65700,130,0,0,1938540035,63
i,1723545547.193261,172.16.1.2,5102,172.16.5.2,64229,1073725440,14480,1058,65728,65700,6,6,4,1460,140000,1,16778212,620000,33580,1,65700,0,1,0,1301079208,63
i,1723545547.193342,172.16.1.2,5102,172.16.5.2,64229,1073725440,14481,1058,65728,65728,6,6,4,1460,136250,1,996,570000,33580,0,65700,4,0,0,1301079208,63
o,1723545547.193368,172.16.1.2,5102,172.16.5.2,64229,1073725440,14481,1058,65728,65728,6,6,4,1460,136250,1,997,570000,33580,0,65700,130,0,0,1301079208,63
o,1723545547.193704,172.16.1.2,5101,172.16.3.2,19486,1073725440,14481,1058,65728,65728,6,6,4,1460,136250,1,16778212,570000,33580,1,65700,0,0,0,1938540035,63
o,1723545547.193711,172.16.1.2,5102,172.16.5.2,64229,1073725440,14481,1058,65728,65728,6,6,4,1460,136250,1,16778212,570000,33580,1,65700,0,0,0,1301079208,63
o,1723545547.194529,10.0.2.15,22,10.0.2.2,52280,1073725440,14600,1026,65535,65700,0,0,4,1460,312,0,16777220,240000,33580,84,65700,0,0,0,3007839365,63
i,1723545547.195179,10.0.2.15,22,10.0.2.2,52280,1073725440,14600,1026,65535,65700,0,0,4,1460,312,0,16777220,240000,33580,84,65700,0,84,0,3007839365,63
o,1723545547.195283,10.0.2.15,22,10.0.2.2,52288,1073725440,14600,1026,65535,65700,0,0,4,1460,312,0,16777220,240000,33580,84,65700,0,0,0,48828706,63
i,1723545547.195830,10.0.2.15,22,10.0.2.2,52288,1073725440,14600,1026,65535,65700,0,0,4,1460,312,0,16777220,240000,33580,84,65700,0,84,0,48828706,63
i,1723545547.348565,172.16.1.2,5102,172.16.5.2,64229,1073725440,14481,1058,65728,65728,6,6,4,1460,136250,1,16778212,570000,33580,1,65700,0,1,0,1301079208,63
i,1723545547.348643,172.16.1.2,5101,172.16.3.2,19486,1073725440,14481,1058,65728,65728,6,6,4,1460,136250,1,16778212,570000,33580,1,65700,0,1,0,1938540035,63
i,1723545547.433162,172.16.1.2,5101,172.16.3.2,33156,1073725440,14480,32,65728,65700,6,6,4,1460,130000,1,16778208,590000,33580,0,65700,0,0,0,631110028,63
i,1723545547.433342,172.16.1.2,5102,172.16.5.2,45705,1073725440,14480,32,65728,65700,6,6,4,1460,130000,1,16778208,590000,33580,0,65700,0,0,0,2816858619,63
o,1723545547.438318,172.16.1.2,5101,172.16.3.2,19486,1073725440,14482,1058,65728,65728,6,6,4,1460,138125,1,16778212,530000,33580,1,65700,0,0,0,1938540035,63
o,1723545547.438757,172.16.1.2,5101,172.16.3.2,19486,1073725440,14482,1058,65728,65728,6,6,4,1460,138125,1,16778212,530000,33580,2,65700,0,1,0,1938540035,63
o,1723545547.439151,10.0.2.15,22,10.0.2.2,52288,1073725440,14600,1026,65535,65700,0,0,4,1460,312,0,16777220,240000,33580,108,65700,0,0,0,48828706,63
i,1723545547.439899,10.0.2.15,22,10.0.2.2,52288,1073725440,14600,1026,65535,65700,0,0,4,1460,312,0,16777220,240000,33580,108,65700,0,108,0,48828706,63
o,1723545547.440506,172.16.1.2,5102,172.16.5.2,64229,1073725440,14482,1058,65728,65728,6,6,4,1460,138125,1,16778212,530000,33580,1,65700,0,0,0,1301079208,63
o,1723545547.440739,10.0.2.15,22,10.0.2.2,52280,1073725440,14600,1026,65535,65700,0,0,4,1460,312,0,16777220,240000,33580,108,65700,0,0,0,3007839365,63
i,1723545547.441999,10.0.2.15,22,10.0.2.2,52280,1073725440,14600,1026,65535,65700,0,0,4,1460,312,0,16777220,240000,33580,108,65700,0,108,0,3007839365,63
o,1723545547.442073,172.16.1.2,5102,172.16.5.2,64229,1073725440,14482,1058,65728,65728,6,6,4,1460,138125,1,16778212,530000,33580,2,65700,0,1,0,1301079208,63
o,1723545547.468042,172.16.1.2,5102,172.16.5.2,45705,1073725440,14480,34,65728,65700,6,6,4,1460,130000,1,16778209,590000,33580,0,65700,0,0,0,2816858619,63
o,1723545547.468170,172.16.1.2,5101,172.16.3.2,33156,1073725440,14480,34,65728,65700,6,6,4,1460,130000,1,16778209,590000,33580,0,65700,0,0,0,631110028,63
i,1723545547.577160,172.16.1.2,5101,172.16.3.2,19486,1073725440,14482,1058,65728,65728,6,6,4,1460,138125,1,16778212,530000,33580,2,65700,0,2,0,1938540035,63
i,1723545547.577202,172.16.1.2,5102,172.16.5.2,64229,1073725440,14482,1058,65728,65728,6,6,4,1460,138125,1,16778212,530000,33580,2,65700,0,2,0,1301079208,63
i,1723545547.771832,172.16.1.2,5101,172.16.3.2,33156,1073725440,14480,34,65728,65700,6,6,4,1460,130000,1,16778208,590000,33580,0,65700,0,0,0,631110028,63
i,1723545547.784637,172.16.1.2,5102,172.16.5.2,45705,1073725440,14480,34,65728,65700,6,6,4,1460,130000,1,16778208,590000,33580,0,65700,0,0,0,2816858619,63
i,1723545547.794898,172.16.1.2,5101,172.16.3.2,33156,1073725440,14480,162,65728,65700,6,6,4,1460,130000,1,16778208,590000,33580,0,65700,0,0,0,631110028,63
o,1723545547.794964,172.16.1.2,5101,172.16.3.2,33156,1073725440,14480,162,65728,65700,6,6,4,1460,130000,1,16778209,590000,33580,0,65700,1448,0,0,631110028,63
i,1723545547.812613,172.16.1.2,5102,172.16.5.2,45705,1073725440,14480,34,65728,65700,6,6,4,1460,130000,1,16778208,590000,33580,0,65700,0,0,0,2816858619,63
o,1723545547.812675,172.16.1.2,5102,172.16.5.2,45705,1073725440,14480,34,65728,65700,6,6,4,1460,130000,1,16778209,590000,33580,0,65700,1448,0,0,2816858619,63
i,1723545547.823555,172.16.1.2,5101,172.16.3.2,33156,1073725440,14480,162,65728,65700,6,6,4,1460,130000,1,16778208,590000,33580,0,65700,0,0,0,631110028,63
i,1723545547.832957,172.16.1.2,5102,172.16.5.2,45705,1073725440,14480,34,65728,65700,6,6,4,1460,130000,1,16778208,590000,33580,0,65700,0,0,0,2816858619,63
i,1723545547.846421,172.16.1.2,5101,172.16.3.2,33156,1073725440,14480,162,65728,65700,6,6,4,1460,130000,1,16778208,590000,33580,0,65700,0,0,0,631110028,63
o,1723545547.846483,172.16.1.2,5101,172.16.3.2,33156,1073725440,14480,162,65728,65700,6,6,4,1460,130000,1,16778209,590000,33580,0,65700,1448,0,0,631110028,63
i,1723545547.853379,172.16.1.2,5102,172.16.5.2,45705,1073725440,14480,34,65728,65700,6,6,4,1460,130000,1,16778208,590000,33580,0,65700,0,0,0,2816858619,63
o,1723545547.853446,172.16.1.2,5102,172.16.5.2,45705,1073725440,14480,162,65728,65700,6,6,4,1460,130000,1,16778209,590000,33580,0,65700,1448,0,0,2816858619,63
i,1723545547.872279,172.16.1.2,5101,172.16.3.2,33156,1073725440,14480,162,65728,65700,6,6,4,1460,130000,1,16778208,590000,33580,0,65700,0,0,0,631110028,63
i,1723545547.882966,172.16.1.2,5102,172.16.5.2,45705,1073725440,14480,162,65728,65700,6,6,4,1460,130000,1,16778208,590000,33580,0,65700,0,0,0,2816858619,63
i,1723545547.892219,172.16.1.2,5101,172.16.3.2,33156,1073725440,14480,162,65728,65700,6,6,4,1460,130000,1,16778208,590000,33580,0,65700,0,0,0,631110028,63
o,1723545547.892240,172.16.1.2,5101,172.16.3.2,33156,1073725440,14480,162,65728,65700,6,6,4,1460,130000,1,16778209,590000,33580,0,65700,1448,0,0,631110028,63
i,1723545547.902777,172.16.1.2,5102,172.16.5.2,45705,1073725440,14480,162,65728,65700,6,6,4,1460,130000,1,16778208,590000,33580,0,65700,0,0,0,2816858619,63
o,1723545547.902840,172.16.1.2,5102,172.16.5.2,45705,1073725440,14480,162,65728,65700,6,6,4,1460,130000,1,16778209,590000,33580,0,65700,1448,0,0,2816858619,63
i,1723545547.930449,172.16.1.2,5101,172.16.3.2,33156,1073725440,14480,162,65728,65700,6,6,4,1460,130000,1,16778208,590000,33580,0,65700,0,0,0,631110028,63
i,1723545547.935826,172.16.1.2,5102,172.16.5.2,45705,1073725440,14480,162,65728,65700,6,6,4,1460,130000,1,16778208,590000,33580,0,65700,0,0,0,2816858619,63
i,1723545547.942890,172.16.1.2,5101,172.16.3.2,33156,1073725440,14480,162,65728,65700,6,6,4,1460,130000,1,16778208,590000,33580,0,65700,0,0,0,631110028,63
o,1723545547.942954,172.16.1.2,5101,172.16.3.2,33156,1073725440,14480,162,65728,65700,6,6,4,1460,130000,1,16778209,590000,33580,0,65700,1448,0,0,631110028,63
i,1723545547.952710,172.16.1.2,5102,172.16.5.2,45705,1073725440,14480,162,65728,65700,6,6,4,1460,130000,1,16778208,590000,33580,0,65700,0,0,0,2816858619,63
o,1723545547.952791,172.16.1.2,5102,172.16.5.2,45705,1073725440,14480,162,65728,65700,6,6,4,1460,130000,1,16778209,590000,33580,0,65700,1448,0,0,2816858619,63
i,1723545547.973580,172.16.1.2,5101,172.16.3.2,33156,1073725440,14480,162,65728,65700,6,6,4,1460,130000,1,16778208,590000,33580,0,65700,0,0,0,631110028,63
i,1723545547.982833,172.16.1.2,5102,172.16.5.2,45705,1073725440,14480,162,65728,65700,6,6,4,1460,130000,1,16778208,590000,33580,0,65700,0,0,0,2816858619,63
i,1723545547.993126,172.16.1.2,5101,172.16.3.2,33156,1073725440,14480,162,65728,65700,6,6,4,1460,130000,1,16778208,590000,33580,0,65700,0,0,0,631110028,63
o,1723545547.993217,172.16.1.2,5101,172.16.3.2,33156,1073725440,14480,162,65728,65700,6,6,4,1460,130000,1,16778209,590000,33580,0,65700,1448,0,0,631110028,63
i,1723545548.003790,172.16.1.2,5102,172.16.5.2,45705,1073725440,14480,162,65728,65700,6,6,4,1460,130000,1,16778208,590000,33580,0,65700,0,0,0,2816858619,63
o,1723545548.004021,172.16.1.2,5102,172.16.5.2,45705,1073725440,14480,162,65728,65700,6,6,4,1460,130000,1,16778209,590000,33580,0,65700,1448,0,0,2816858619,63
i,1723545548.149675,172.16.1.2,5101,172.16.3.2,33156,1073725440,14480,162,65728,65700,6,6,4,1460,130000,1,16778208,590000,33580,0,65700,0,0,0,631110028,63
o,1723545548.149834,172.16.1.2,5101,172.16.3.2,33156,1073725440,14480,162,65728,65700,6,6,4,1460,130000,1,16778209,590000,33580,0,65700,0,0,0,631110028,63
i,1723545548.163294,172.16.1.2,5101,172.16.3.2,33156,1073725440,14480,162,65728,65700,6,6,4,1460,130000,1,16778208,590000,33580,0,65700,0,0,0,631110028,63
o,1723545548.163561,172.16.1.2,5101,172.16.3.2,33156,1073725440,14480,162,65728,65700,6,6,4,1460,130000,1,16778209,590000,33580,0,65700,0,0,0,631110028,63
i,1723545548.221608,172.16.1.2,5101,172.16.3.2,33156,1073725440,14480,162,65728,65700,6,6,4,1460,130000,1,16778208,590000,33580,0,65700,0,0,0,631110028,63
i,1723545548.232055,172.16.1.2,5102,172.16.5.2,45705,1073725440,14480,162,65728,65700,6,6,4,1460,130000,1,16778208,590000,33580,0,65700,0,0,0,2816858619,63
i,1723545548.242981,172.16.1.2,5101,172.16.3.2,33156,1073725440,14480,162,65728,65700,6,6,4,1460,130000,1,16778208,590000,33580,0,65700,0,0,0,631110028,63
o,1723545548.243063,172.16.1.2,5101,172.16.3.2,33156,1073725440,14480,162,65728,65700,6,6,4,1460,130000,1,16778209,590000,33580,0,65700,1448,0,0,631110028,63
i,1723545548.253216,172.16.1.2,5102,172.16.5.2,45705,1073725440,14480,162,65728,65700,6,6,4,1460,130000,1,16778208,590000,33580,0,65700,0,0,0,2816858619,63
o,1723545548.253234,172.16.1.2,5102,172.16.5.2,45705,1073725440,14480,162,65728,65700,6,6,4,1460,130000,1,16778209,590000,33580,0,65700,1448,0,0,2816858619,63
i,1723545548.263197,172.16.1.2,5101,172.16.3.2,33156,1073725440,14480,162,65728,65700,6,6,4,1460,130000,1,16778208,590000,33580,0,65700,0,0,0,631110028,63
i,1723545548.282789,172.16.1.2,5101,172.16.3.2,33156,1073725440,14480,162,65728,65700,6,6,4,1460,130000,1,16778208,590000,33580,0,65700,0,0,0,631110028,63
o,1723545548.282811,172.16.1.2,5101,172.16.3.2,33156,1073725440,14480,162,65728,65700,6,6,4,1460,130000,1,16778209,590000,33580,0,65700,1448,0,0,631110028,63
i,1723545548.302745,172.16.1.2,5102,172.16.5.2,45705,1073725440,14480,162,65728,65700,6,6,4,1460,130000,1,16778208,590000,33580,0,65700,0,0,0,2816858619,63
i,1723545548.315932,172.16.1.2,5102,172.16.5.2,45705,1073725440,14480,162,65728,65700,6,6,4,1460,130000,1,16778208,590000,33580,0,65700,0,0,0,2816858619,63
o,1723545548.315951,172.16.1.2,5102,172.16.5.2,45705,1073725440,14480,162,65728,65700,6,6,4,1460,130000,1,16778209,590000,33580,0,65700,1448,0,0,2816858619,63
i,1723545548.322127,172.16.1.2,5102,172.16.5.2,45705,1073725440,14480,162,65728,65700,6,6,4,1460,130000,1,16778208,590000,33580,0,65700,0,0,0,2816858619,63
o,1723545548.322248,172.16.1.2,5102,172.16.5.2,45705,1073725440,14480,162,65728,65700,6,6,4,1460,130000,1,16778209,590000,33580,0,65700,0,0,0,2816858619,63
i,1723545548.333466,172.16.1.2,5102,172.16.5.2,45705,1073725440,14480,162,65728,65700,6,6,4,1460,130000,1,16778208,590000,33580,0,65700,0,0,0,2816858619,63
o,1723545548.333629,172.16.1.2,5102,172.16.5.2,45705,1073725440,14480,162,65728,65700,6,6,4,1460,130000,1,16778209,590000,33580,0,65700,0,0,0,2816858619,63
i,1723545548.353459,172.16.1.2,5102,172.16.5.2,45705,1073725440,14480,162,65728,65700,6,6,4,1460,130000,1,16778208,590000,33580,0,65700,0,0,0,2816858619,63
i,1723545548.362286,172.16.1.2,5102,172.16.5.2,45705,1073725440,14480,162,65728,65700,6,6,4,1460,130000,1,16778208,590000,33580,0,65700,0,0,0,2816858619,63
o,1723545548.362462,172.16.1.2,5102,172.16.5.2,45705,1073725440,14480,162,65728,65700,6,6,4,1460,130000,1,16778209,590000,33580,0,65700,1448,0,0,2816858619,63
i,1723545548.373117,172.16.1.2,5102,172.16.5.2,45705,1073725440,14480,162,65728,65700,6,6,4,1460,130000,1,16778208,590000,33580,0,65700,0,0,0,2816858619,63
o,1723545548.409740,172.16.1.2,5102,172.16.5.2,45705,1073725440,14480,162,65728,65700,6,6,4,1460,130000,1,16778209,590000,33580,0,65700,0,0,0,2816858619,63
i,1723545548.426300,172.16.1.2,5102,172.16.5.2,45705,1073725440,14480,162,65728,65700,6,6,4,1460,130000,1,16778208,590000,33580,0,65700,0,0,0,2816858619,63
i,1723545548.434088,172.16.1.2,5101,172.16.3.2,33156,1073725440,14480,162,65728,65700,6,6,4,1460,130000,1,16778208,590000,33580,0,65700,0,0,0,631110028,63
o,1723545548.434118,172.16.1.2,5101,172.16.3.2,33156,1073725440,14480,34,65728,65700,6,6,4,1460,130000,1,16778209,590000,33580,0,65700,0,0,0,631110028,63
o,1723545548.459939,172.16.1.2,5102,172.16.5.2,45705,1073725440,14480,162,65728,65700,6,6,4,1460,130000,1,16778209,590000,33580,0,65700,0,0,0,2816858619,63
o,1723545548.461234,10.0.2.15,22,10.0.2.2,52288,1073725440,14600,1026,65535,65700,0,0,4,1460,312,0,16777220,240000,33580,156,65700,0,0,0,48828706,63
o,1723545548.461238,10.0.2.15,22,10.0.2.2,52280,1073725440,14600,1026,65535,65700,0,0,4,1460,312,0,16777220,240000,33580,156,65700,0,0,0,3007839365,63
i,1723545548.462011,172.16.1.2,5102,172.16.5.2,45705,1073725440,14480,162,65728,65700,6,6,4,1460,130000,1,16778208,590000,33580,0,65700,0,0,0,2816858619,63
i,1723545548.462955,10.0.2.15,22,10.0.2.2,52288,1073725440,14600,1026,65535,65700,0,0,4,1460,312,0,16777220,240000,33580,156,65700,0,156,0,48828706,63
i,1723545548.463019,10.0.2.15,22,10.0.2.2,52280,1073725440,14600,1026,65535,65700,0,0,4,1460,312,0,16777220,240000,33580,156,65700,0,156,0,3007839365,63
i,1723545548.493269,172.16.1.2,5102,172.16.5.2,45705,1073725440,14480,162,65728,65700,6,6,4,1460,130000,1,16778208,590000,33580,0,65700,0,0,0,2816858619,63
o,1723545548.493366,172.16.1.2,5102,172.16.5.2,45705,1073725440,14480,34,65728,65700,6,6,4,1460,130000,1,16778209,590000,33580,0,65700,1448,0,0,2816858619,63
i,1723545548.535249,172.16.1.2,5102,172.16.5.2,45705,1073725440,14480,34,65728,65700,6,6,4,1460,130000,1,16778208,590000,33580,0,65700,0,0,0,2816858619,63
o,1723545548.570579,172.16.1.2,5102,172.16.5.2,45705,1073725440,14480,34,65728,65700,6,6,4,1460,130000,1,16778209,590000,33580,0,65700,0,0,0,2816858619,63
i,1723545548.593230,172.16.1.2,5101,172.16.3.2,33156,1073725440,14480,34,65728,65700,6,6,4,1460,130000,1,16778208,590000,33580,0,65700,0,0,0,631110028,63
i,1723545548.622524,172.16.1.2,5102,172.16.5.2,45705,1073725440,14480,34,65728,65700,6,6,4,1460,130000,1,16778208,590000,33580,0,65700,0,0,0,2816858619,63
o,1723545548.628056,172.16.1.2,5101,172.16.3.2,33156,1073725440,14480,34,65728,65700,6,6,4,1460,130000,1,16778209,590000,33580,0,65700,0,0,0,631110028,63
i,1723545548.632448,172.16.1.2,5102,172.16.5.2,45705,1073725440,14480,34,65728,65700,6,6,4,1460,130000,1,16778208,590000,33580,0,65700,0,0,0,2816858619,63
o,1723545548.632510,172.16.1.2,5102,172.16.5.2,45705,1073725440,14480,34,65728,65700,6,6,4,1460,130000,1,16778209,590000,33580,0,65700,1448,0,0,2816858619,63
i,1723545548.643670,172.16.1.2,5102,172.16.5.2,45705,1073725440,14480,34,65728,65700,6,6,4,1460,130000,1,16778208,590000,33580,0,65700,0,0,0,2816858619,63
o,1723545548.677871,172.16.1.2,5102,172.16.5.2,45705,1073725440,14480,34,65728,65700,6,6,4,1460,130000,1,16778209,590000,33580,0,65700,0,0,0,2816858619,63
i,1723545548.699271,172.16.1.2,5102,172.16.5.2,45705,1073725440,14480,34,65728,65700,6,6,4,1460,130000,1,16778208,590000,33580,0,65700,0,0,0,2816858619,63
o,1723545548.739653,172.16.1.2,5102,172.16.5.2,45705,1073725440,14480,34,65728,65700,6,6,4,1460,130000,1,16778209,590000,33580,0,65700,0,0,0,2816858619,63
i,1723545548.783905,172.16.1.2,5101,172.16.3.2,33156,1073725440,14480,34,65728,65700,6,6,4,1460,130000,1,16778208,590000,33580,0,65700,0,0,0,631110028,63
i,1723545548.802238,172.16.1.2,5101,172.16.3.2,33156,1073725440,14480,34,65728,65700,6,6,4,1460,130000,1,16778208,590000,33580,0,65700,0,0,0,631110028,63
o,1723545548.802304,172.16.1.2,5101,172.16.3.2,33156,1073725440,14480,34,65728,65700,6,6,4,1460,130000,1,16778209,590000,33580,0,65700,1448,0,0,631110028,63
i,1723545548.827222,172.16.1.2,5102,172.16.5.2,45705,1073725440,14480,34,65728,65700,6,6,4,1460,130000,1,16778208,590000,33580,0,65700,0,0,0,2816858619,63
i,1723545548.847791,172.16.1.2,5102,172.16.5.2,45705,1073725440,14480,34,65728,65700,6,6,4,1460,130000,1,16778208,590000,33580,0,65700,0,0,0,2816858619,63
o,1723545548.847872,172.16.1.2,5102,172.16.5.2,45705,1073725440,14480,34,65728,65700,6,6,4,1460,130000,1,16778209,590000,33580,0,65700,1448,0,0,2816858619,63
i,1723545548.854825,172.16.1.2,5102,172.16.5.2,45705,1073725440,14480,34,65728,65700,6,6,4,1460,130000,1,16778208,590000,33580,0,65700,0,0,0,2816858619,63
i,1723545548.874310,172.16.1.2,5102,172.16.5.2,45705,1073725440,14480,34,65728,65700,6,6,4,1460,130000,1,16778208,590000,33580,0,65700,0,0,0,2816858619,63
o,1723545548.874375,172.16.1.2,5102,172.16.5.2,45705,1073725440,14480,34,65728,65700,6,6,4,1460,130000,1,16778209,590000,33580,0,65700,1448,0,0,2816858619,63
i,1723545548.902884,172.16.1.2,5102,172.16.5.2,45705,1073725440,14480,34,65728,65700,6,6,4,1460,130000,1,16778208,590000,33580,0,65700,0,0,0,2816858619,63
o,1723545548.938491,172.16.1.2,5102,172.16.5.2,45705,1073725440,14480,34,65728,65700,6,6,4,1460,130000,1,16778209,590000,33580,0,65700,0,0,0,2816858619,63
i,1723545549.012668,172.16.1.2,5101,172.16.3.2,33156,1073725440,14480,34,65728,65700,6,6,4,1460,130000,1,16778208,590000,33580,0,65700,0,0,0,631110028,63
i,1723545549.023671,172.16.1.2,5102,172.16.5.2,45705,1073725440,14480,34,65728,65700,6,6,4,1460,130000,1,16778208,590000,33580,0,65700,0,0,0,2816858619,63
i,1723545549.033514,172.16.1.2,5101,172.16.3.2,33156,1073725440,14480,34,65728,65700,6,6,4,1460,130000,1,16778208,590000,33580,0,65700,0,0,0,631110028,63
o,1723545549.033591,172.16.1.2,5101,172.16.3.2,33156,1073725440,14480,34,65728,65700,6,6,4,1460,130000,1,16778209,590000,33580,0,65700,1448,0,0,631110028,63
i,1723545549.044779,172.16.1.2,5102,172.16.5.2,45705,1073725440,14480,34,65728,65700,6,6,4,1460,130000,1,16778208,590000,33580,0,65700,0,0,0,2816858619,63
o,1723545549.044840,172.16.1.2,5102,172.16.5.2,45705,1073725440,14480,34,65728,65700,6,6,4,1460,130000,1,16778209,590000,33580,0,65700,1448,0,0,2816858619,63
i,1723545549.062459,172.16.1.2,5101,172.16.3.2,33156,1073725440,14480,34,65728,65700,6,6,4,1460,130000,1,16778208,590000,33580,0,65700,0,0,0,631110028,63
i,1723545549.076900,172.16.1.2,5102,172.16.5.2,45705,1073725440,14480,34,65728,65700,6,6,4,1460,130000,1,16778208,590000,33580,0,65700,0,0,0,2816858619,63
i,1723545549.082630,172.16.1.2,5101,172.16.3.2,33156,1073725440,14480,34,65728,65700,6,6,4,1460,130000,1,16778208,590000,33580,0,65700,0,0,0,631110028,63
o,1723545549.082652,172.16.1.2,5101,172.16.3.2,33156,1073725440,14480,34,65728,65700,6,6,4,1460,130000,1,16778209,590000,33580,0,65700,1448,0,0,631110028,63
i,1723545549.093155,172.16.1.2,5102,172.16.5.2,45705,1073725440,14480,34,65728,65700,6,6,4,1460,130000,1,16778208,590000,33580,0,65700,0,0,0,2816858619,63
o,1723545549.093219,172.16.1.2,5102,172.16.5.2,45705,1073725440,14480,34,65728,65700,6,6,4,1460,130000,1,16778209,590000,33580,0,65700,1448,0,0,2816858619,63
i,1723545549.161282,172.16.1.2,5102,172.16.5.2,45705,1073725440,14480,34,65728,65700,6,6,4,1460,130000,1,16778208,590000,33580,0,65700,0,0,0,2816858619,63
i,1723545549.182801,172.16.1.2,5101,172.16.3.2,33156,1073725440,14480,34,65728,65700,6,6,4,1460,130000,1,16778208,590000,33580,0,65700,0,0,0,631110028,63
i,1723545549.195146,172.16.1.2,5101,172.16.3.2,33156,1073725440,14480,34,65728,65700,6,6,4,1460,130000,1,16778208,590000,33580,0,65700,0,0,0,631110028,63
o,1723545549.195221,172.16.1.2,5101,172.16.3.2,33156,1073725440,14480,34,65728,65700,6,6,4,1460,130000,1,16778209,590000,33580,0,65700,1448,0,0,631110028,63
o,1723545549.198546,172.16.1.2,5102,172.16.5.2,45705,1073725440,14480,34,65728,65700,6,6,4,1460,130000,1,16778209,590000,33580,0,65700,0,0,0,2816858619,63
i,1723545549.244377,172.16.1.2,5102,172.16.5.2,45705,1073725440,14480,34,65728,65700,6,6,4,1460,130000,1,16778208,590000,33580,0,65700,0,0,0,2816858619,63
i,1723545549.254491,172.16.1.2,5101,172.16.3.2,33156,1073725440,14480,34,65728,65700,6,6,4,1460,130000,1,16778208,590000,33580,0,65700,0,0,0,631110028,63
o,1723545549.279788,172.16.1.2,5102,172.16.5.2,45705,1073725440,14480,34,65728,65700,6,6,4,1460,130000,1,16778209,590000,33580,0,65700,0,0,0,2816858619,63
i,1723545549.283305,172.16.1.2,5101,172.16.3.2,33156,1073725440,14480,34,65728,65700,6,6,4,1460,130000,1,16778208,590000,33580,0,65700,0,0,0,631110028,63
o,1723545549.283407,172.16.1.2,5101,172.16.3.2,33156,1073725440,14480,34,65728,65700,6,6,4,1460,130000,1,16778209,590000,33580,0,65700,1448,0,0,631110028,63
i,1723545549.312158,172.16.1.2,5102,172.16.5.2,45705,1073725440,14480,34,65728,65700,6,6,4,1460,130000,1,16778208,590000,33580,0,65700,0,0,0,2816858619,63
o,1723545549.349135,172.16.1.2,5102,172.16.5.2,45705,1073725440,14480,34,65728,65700,6,6,4,1460,130000,1,16778209,590000,33580,0,65700,0,0,0,2816858619,63
i,1723545549.349577,172.16.1.2,5102,172.16.5.2,45705,1073725440,14480,34,65728,65700,6,6,4,1460,130000,1,16778208,590000,33580,0,65700,0,0,0,2816858619,63
i,1723545549.355098,172.16.1.2,5101,172.16.3.2,33156,1073725440,14480,34,65728,65700,6,6,4,1460,130000,1,16778208,590000,33580,0,65700,0,0,0,631110028,63
i,1723545549.364629,172.16.1.2,5102,172.16.5.2,45705,1073725440,14480,34,65728,65700,6,6,4,1460,130000,1,16778208,590000,33580,0,65700,0,0,0,2816858619,63
o,1723545549.364863,172.16.1.2,5102,172.16.5.2,45705,1073725440,14480,162,65728,65700,6,6,4,1460,130000,1,16778209,590000,33580,0,65700,1448,0,0,2816858619,63
i,1723545549.373981,172.16.1.2,5101,172.16.3.2,33156,1073725440,14480,34,65728,65700,6,6,4,1460,130000,1,16778208,590000,33580,0,65700,0,0,0,631110028,63
o,1723545549.374045,172.16.1.2,5101,172.16.3.2,33156,1073725440,14480,34,65728,65700,6,6,4,1460,130000,1,16778209,590000,33580,0,65700,1448,0,0,631110028,63
i,1723545549.412646,172.16.1.2,5102,172.16.5.2,45705,1073725440,14480,162,65728,65700,6,6,4,1460,130000,1,16778208,590000,33580,0,65700,0,0,0,2816858619,63
o,1723545549.450824,172.16.1.2,5102,172.16.5.2,45705,1073725440,14480,162,65728,65700,6,6,4,1460,130000,1,16778209,590000,33580,0,65700,0,0,0,2816858619,63
o,1723545549.451454,10.0.2.15,22,10.0.2.2,52288,1073725440,14600,1026,65535,65700,0,0,4,1460,312,0,16777220,240000,33580,108,65700,0,0,0,48828706,63
i,1723545549.452543,10.0.2.15,22,10.0.2.2,52288,1073725440,14600,1026,65535,65700,0,0,4,1460,312,0,16777220,240000,33580,108,65700,0,108,0,48828706,63
i,1723545549.453523,172.16.1.2,5101,172.16.3.2,33156,1073725440,14480,34,65728,65700,6,6,4,1460,130000,1,16778208,590000,33580,0,65700,0,0,0,631110028,63
o,1723545549.458854,10.0.2.15,22,10.0.2.2,52280,1073725440,14600,1026,65535,65700,0,0,4,1460,312,0,16777220,240000,33580,108,65700,0,0,0,3007839365,63
i,1723545549.459807,10.0.2.15,22,10.0.2.2,52280,1073725440,14600,1026,65535,65700,0,0,4,1460,312,0,16777220,240000,33580,108,65700,0,108,0,3007839365,63
i,1723545549.472855,172.16.1.2,5101,172.16.3.2,33156,1073725440,14480,34,65728,65700,6,6,4,1460,130000,1,16778208,590000,33580,0,65700,0,0,0,631110028,63
o,1723545549.472920,172.16.1.2,5101,172.16.3.2,33156,1073725440,14480,34,65728,65700,6,6,4,1460,130000,1,16778209,590000,33580,0,65700,1448,0,0,631110028,63
i,1723545549.481916,172.16.1.2,5102,172.16.5.2,45705,1073725440,14480,162,65728,65700,6,6,4,1460,130000,1,16778208,590000,33580,0,65700,0,0,0,2816858619,63
o,1723545549.518087,172.16.1.2,5102,172.16.5.2,45705,1073725440,14480,162,65728,65700,6,6,4,1460,130000,1,16778209,590000,33580,0,65700,0,0,0,2816858619,63
i,1723545549.556478,172.16.1.2,5101,172.16.3.2,33156,1073725440,14480,34,65728,65700,6,6,4,1460,130000,1,16778208,590000,33580,0,65700,0,0,0,631110028,63
i,1723545549.567295,172.16.1.2,5102,172.16.5.2,45705,1073725440,14480,162,65728,65700,6,6,4,1460,130000,1,16778208,590000,33580,0,65700,0,0,0,2816858619,63
i,1723545549.577529,172.16.1.2,5101,172.16.3.2,33156,1073725440,14480,34,65728,65700,6,6,4,1460,130000,1,16778208,590000,33580,0,65700,0,0,0,631110028,63
o,1723545549.577549,172.16.1.2,5101,172.16.3.2,33156,1073725440,14480,34,65728,65700,6,6,4,1460,130000,1,16778209,590000,33580,0,65700,1448,0,0,631110028,63
i,1723545549.584795,172.16.1.2,5102,172.16.5.2,45705,1073725440,14480,162,65728,65700,6,6,4,1460,130000,1,16778208,590000,33580,0,65700,0,0,0,2816858619,63
o,1723545549.584859,172.16.1.2,5102,172.16.5.2,45705,1073725440,14480,162,65728,65700,6,6,4,1460,130000,1,16778209,590000,33580,0,65700,1448,0,0,2816858619,63
i,1723545549.633643,172.16.1.2,5102,172.16.5.2,45705,1073725440,14480,162,65728,65700,6,6,4,1460,130000,1,16778208,590000,33580,0,65700,0,0,0,2816858619,63
i,1723545549.645145,172.16.1.2,5101,172.16.3.2,33156,1073725440,14480,34,65728,65700,6,6,4,1460,130000,1,16778208,590000,33580,0,65700,0,0,0,631110028,63
i,1723545549.664280,172.16.1.2,5102,172.16.5.2,45705,1073725440,14480,162,65728,65700,6,6,4,1460,130000,1,16778208,590000,33580,0,65700,0,0,0,2816858619,63
o,1723545549.664347,172.16.1.2,5102,172.16.5.2,45705,1073725440,14480,34,65728,65700,6,6,4,1460,130000,1,16778209,590000,33580,0,65700,1448,0,0,2816858619,63
i,1723545549.674621,172.16.1.2,5101,172.16.3.2,33156,1073725440,14480,34,65728,65700,6,6,4,1460,130000,1,16778208,590000,33580,0,65700,0,0,0,631110028,63
o,1723545549.674685,172.16.1.2,5101,172.16.3.2,33156,1073725440,14480,34,65728,65700,6,6,4,1460,130000,1,16778209,590000,33580,0,65700,1448,0,0,631110028,63
i,1723545549.702755,172.16.1.2,5102,172.16.5.2,45705,1073725440,14480,34,65728,65700,6,6,4,1460,130000,1,16778208,590000,33580,0,65700,0,0,0,2816858619,63
o,1723545549.738873,172.16.1.2,5102,172.16.5.2,45705,1073725440,14480,162,65728,65700,6,6,4,1460,130000,1,16778209,590000,33580,0,65700,0,0,0,2816858619,63
i,1723545549.743446,172.16.1.2,5101,172.16.3.2,33156,1073725440,14480,34,65728,65700,6,6,4,1460,130000,1,16778208,590000,33580,0,65700,0,0,0,631110028,63
i,1723545549.771162,172.16.1.2,5101,172.16.3.2,33156,1073725440,14480,34,65728,65700,6,6,4,1460,130000,1,16778208,590000,33580,0,65700,0,0,0,631110028,63
o,1723545549.771460,172.16.1.2,5101,172.16.3.2,33156,1073725440,14480,34,65728,65700,6,6,4,1460,130000,1,16778209,590000,33580,0,65700,1448,0,0,631110028,63
i,1723545549.782527,172.16.1.2,5102,172.16.5.2,45705,1073725440,14480,162,65728,65700,6,6,4,1460,130000,1,16778208,590000,33580,0,65700,0,0,0,2816858619,63
o,1723545549.817927,172.16.1.2,5102,172.16.5.2,45705,1073725440,14480,162,65728,65700,6,6,4,1460,130000,1,16778209,590000,33580,0,65700,0,0,0,2816858619,63
i,1723545549.842259,172.16.1.2,5101,172.16.3.2,33156,1073725440,14480,34,65728,65700,6,6,4,1460,130000,1,16778208,590000,33580,0,65700,0,0,0,631110028,63
i,1723545549.852416,172.16.1.2,5102,172.16.5.2,45705,1073725440,14480,162,65728,65700,6,6,4,1460,130000,1,16778208,590000,33580,0,65700,0,0,0,2816858619,63
i,1723545549.863476,172.16.1.2,5101,172.16.3.2,33156,1073725440,14480,34,65728,65700,6,6,4,1460,130000,1,16778208,590000,33580,0,65700,0,0,0,631110028,63
o,1723545549.863543,172.16.1.2,5101,172.16.3.2,33156,1073725440,14480,34,65728,65700,6,6,4,1460,130000,1,16778209,590000,33580,0,65700,1448,0,0,631110028,63
i,1723545549.882320,172.16.1.2,5102,172.16.5.2,45705,1073725440,14480,162,65728,65700,6,6,4,1460,130000,1,16778208,590000,33580,0,65700,0,0,0,2816858619,63
o,1723545549.882391,172.16.1.2,5102,172.16.5.2,45705,1073725440,14480,162,65728,65700,6,6,4,1460,130000,1,16778209,590000,33580,0,65700,1448,0,0,2816858619,63
i,1723545549.902954,172.16.1.2,5102,172.16.5.2,45705,1073725440,14480,162,65728,65700,6,6,4,1460,130000,1,16778208,590000,33580,0,65700,0,0,0,2816858619,63
o,1723545549.939654,172.16.1.2,5102,172.16.5.2,45705,1073725440,14480,162,65728,65700,6,6,4,1460,130000,1,16778209,590000,33580,0,65700,0,0,0,2816858619,63
i,1723545549.942024,172.16.1.2,5101,172.16.3.2,33156,1073725440,14480,34,65728,65700,6,6,4,1460,130000,1,16778208,590000,33580,0,65700,0,0,0,631110028,63
i,1723545549.953433,172.16.1.2,5102,172.16.5.2,45705,1073725440,14480,162,65728,65700,6,6,4,1460,130000,1,16778208,590000,33580,0,65700,0,0,0,2816858619,63
i,1723545549.963220,172.16.1.2,5101,172.16.3.2,33156,1073725440,14480,34,65728,65700,6,6,4,1460,130000,1,16778208,590000,33580,0,65700,0,0,0,631110028,63
o,1723545549.963336,172.16.1.2,5101,172.16.3.2,33156,1073725440,14480,34,65728,65700,6,6,4,1460,130000,1,16778209,590000,33580,0,65700,1448,0,0,631110028,63
i,1723545549.972919,172.16.1.2,5102,172.16.5.2,45705,1073725440,14480,162,65728,65700,6,6,4,1460,130000,1,16778208,590000,33580,0,65700,0,0,0,2816858619,63
o,1723545549.973005,172.16.1.2,5102,172.16.5.2,45705,1073725440,14480,34,65728,65700,6,6,4,1460,130000,1,16778209,590000,33580,0,65700,1448,0,0,2816858619,63
i,1723545550.062929,172.16.1.2,5101,172.16.3.2,33156,1073725440,14480,34,65728,65700,6,6,4,1460,130000,1,16778208,590000,33580,0,65700,0,0,0,631110028,63
i,1723545550.074474,172.16.1.2,5102,172.16.5.2,45705,1073725440,14480,34,65728,65700,6,6,4,1460,130000,1,16778208,590000,33580,0,65700,0,0,0,2816858619,63
i,1723545550.082621,172.16.1.2,5101,172.16.3.2,33156,1073725440,14480,34,65728,65700,6,6,4,1460,130000,1,16778208,590000,33580,0,65700,0,0,0,631110028,63
o,1723545550.082689,172.16.1.2,5101,172.16.3.2,33156,1073725440,14480,34,65728,65700,6,6,4,1460,130000,1,16778209,590000,33580,0,65700,1448,0,0,631110028,63
i,1723545550.103462,172.16.1.2,5102,172.16.5.2,45705,1073725440,14480,34,65728,65700,6,6,4,1460,130000,1,16778208,590000,33580,0,65700,0,0,0,2816858619,63
o,1723545550.103529,172.16.1.2,5102,172.16.5.2,45705,1073725440,14480,34,65728,65700,6,6,4,1460,130000,1,16778209,590000,33580,0,65700,1448,0,0,2816858619,63
i,1723545550.164450,172.16.1.2,5101,172.16.3.2,33156,1073725440,14480,34,65728,65700,6,6,4,1460,130000,1,16778208,590000,33580,0,65700,0,0,0,631110028,63
i,1723545550.172487,172.16.1.2,5102,172.16.5.2,45705,1073725440,14480,34,65728,65700,6,6,4,1460,130000,1,16778208,590000,33580,0,65700,0,0,0,2816858619,63
i,1723545550.182773,172.16.1.2,5101,172.16.3.2,33156,1073725440,14480,34,65728,65700,6,6,4,1460,130000,1,16778208,590000,33580,0,65700,0,0,0,631110028,63
o,1723545550.183132,172.16.1.2,5101,172.16.3.2,33156,1073725440,14480,34,65728,65700,6,6,4,1460,130000,1,16778209,590000,33580,0,65700,1448,0,0,631110028,63
i,1723545550.193364,172.16.1.2,5102,172.16.5.2,45705,1073725440,14480,34,65728,65700,6,6,4,1460,130000,1,16778208,590000,33580,0,65700,0,0,0,2816858619,63
o,1723545550.193427,172.16.1.2,5102,172.16.5.2,45705,1073725440,14480,34,65728,65700,6,6,4,1460,130000,1,16778209,590000,33580,0,65700,1448,0,0,2816858619,63
i,1723545550.223386,172.16.1.2,5101,172.16.3.2,33156,1073725440,14480,34,65728,65700,6,6,4,1460,130000,1,16778208,590000,33580,0,65700,0,0,0,631110028,63
i,1723545550.223498,172.16.1.2,5102,172.16.5.2,45705,1073725440,14480,34,65728,65700,6,6,4,1460,130000,1,16778208,590000,33580,0,65700,0,0,0,2816858619,63
o,1723545550.262066,172.16.1.2,5102,172.16.5.2,45705,1073725440,14480,34,65728,65700,6,6,4,1460,130000,1,16778209,590000,33580,0,65700,0,0,0,2816858619,63
o,1723545550.262782,172.16.1.2,5101,172.16.3.2,33156,1073725440,14480,34,65728,65700,6,6,4,1460,130000,1,16778209,590000,33580,0,65700,0,0,0,631110028,63
i,1723545550.285727,172.16.1.2,5101,172.16.3.2,33156,1073725440,14480,34,65728,65700,6,6,4,1460,130000,1,16778208,590000,33580,0,65700,0,0,0,631110028,63
i,1723545550.293008,172.16.1.2,5102,172.16.5.2,45705,1073725440,14480,34,65728,65700,6,6,4,1460,130000,1,16778208,590000,33580,0,65700,0,0,0,2816858619,63
i,1723545550.303303,172.16.1.2,5101,172.16.3.2,33156,1073725440,14480,34,65728,65700,6,6,4,1460,130000,1,16778208,590000,33580,0,65700,0,0,0,631110028,63
o,1723545550.303372,172.16.1.2,5101,172.16.3.2,33156,1073725440,14480,34,65728,65700,6,6,4,1460,130000,1,16778209,590000,33580,0,65700,1448,0,0,631110028,63
o,1723545550.328834,172.16.1.2,5102,172.16.5.2,45705,1073725440,14480,34,65728,65700,6,6,4,1460,130000,1,16778209,590000,33580,0,65700,0,0,0,2816858619,63
i,1723545550.374713,172.16.1.2,5102,172.16.5.2,45705,1073725440,14480,34,65728,65700,6,6,4,1460,130000,1,16778208,590000,33580,0,65700,0,0,0,2816858619,63
i,1723545550.394404,172.16.1.2,5102,172.16.5.2,45705,1073725440,14480,34,65728,65700,6,6,4,1460,130000,1,16778208,590000,33580,0,65700,0,0,0,2816858619,63
o,1723545550.394474,172.16.1.2,5102,172.16.5.2,45705,1073725440,14480,34,65728,65700,6,6,4,1460,130000,1,16778209,590000,33580,0,65700,1448,0,0,2816858619,63
i,1723545550.402670,172.16.1.2,5101,172.16.3.2,33156,1073725440,14480,34,65728,65700,6,6,4,1460,130000,1,16778208,590000,33580,0,65700,0,0,0,631110028,63
o,1723545550.439922,172.16.1.2,5101,172.16.3.2,33156,1073725440,14480,34,65728,65700,6,6,4,1460,130000,1,16778209,590000,33580,0,65700,0,0,0,631110028,63
i,1723545550.440604,172.16.1.2,5101,172.16.3.2,33156,1073725440,14480,34,65728,65700,6,6,4,1460,130000,1,16778208,590000,33580,0,65700,0,0,0,631110028,63
o,1723545550.448626,10.0.2.15,22,10.0.2.2,52288,1073725440,14600,1026,65535,65700,0,0,4,1460,312,0,16777220,240000,33580,108,65700,0,0,0,48828706,63
i,1723545550.449621,10.0.2.15,22,10.0.2.2,52288,1073725440,14600,1026,65535,65700,0,0,4,1460,312,0,16777220,240000,33580,108,65700,0,108,0,48828706,63
o,1723545550.458591,10.0.2.15,22,10.0.2.2,52280,1073725440,14600,1026,65535,65700,0,0,4,1460,312,0,16777220,240000,33580,108,65700,0,0,0,3007839365,63
i,1723545550.459549,10.0.2.15,22,10.0.2.2,52280,1073725440,14600,1026,65535,65700,0,0,4,1460,312,0,16777220,240000,33580,108,65700,0,108,0,3007839365,63
i,1723545550.462689,172.16.1.2,5102,172.16.5.2,45705,1073725440,14480,34,65728,65700,6,6,4,1460,130000,1,16778208,590000,33580,0,65700,0,0,0,2816858619,63
o,1723545550.479049,172.16.1.2,5101,172.16.3.2,33156,1073725440,14480,34,65728,65700,6,6,4,1460,130000,1,16778209,590000,33580,0,65700,0,0,0,631110028,63
o,1723545550.500248,172.16.1.2,5102,172.16.5.2,45705,1073725440,14480,162,65728,65700,6,6,4,1460,130000,1,16778209,590000,33580,0,65700,0,0,0,2816858619,63
i,1723545550.503143,172.16.1.2,5101,172.16.3.2,33156,1073725440,14480,34,65728,65700,6,6,4,1460,130000,1,16778208,590000,33580,0,65700,0,0,0,631110028,63
i,1723545550.514870,172.16.1.2,5102,172.16.5.2,45705,1073725440,14480,162,65728,65700,6,6,4,1460,130000,1,16778208,590000,33580,0,65700,0,0,0,2816858619,63
i,1723545550.534667,172.16.1.2,5101,172.16.3.2,33156,1073725440,14480,34,65728,65700,6,6,4,1460,130000,1,16778208,590000,33580,0,65700,0,0,0,631110028,63
o,1723545550.534692,172.16.1.2,5101,172.16.3.2,33156,1073725440,14480,34,65728,65700,6,6,4,1460,130000,1,16778209,590000,33580,0,65700,1448,0,0,631110028,63
i,1723545550.543056,172.16.1.2,5102,172.16.5.2,45705,1073725440,14480,162,65728,65700,6,6,4,1460,130000,1,16778208,590000,33580,0,65700,0,0,0,2816858619,63
o,1723545550.543119,172.16.1.2,5102,172.16.5.2,45705,1073725440,14480,162,65728,65700,6,6,4,1460,130000,1,16778209,590000,33580,0,65700,1448,0,0,2816858619,63
i,1723545550.553935,172.16.1.2,5101,172.16.3.2,33156,1073725440,14480,34,65728,65700,6,6,4,1460,130000,1,16778208,590000,33580,0,65700,0,0,0,631110028,63
o,1723545550.589580,172.16.1.2,5101,172.16.3.2,33156,1073725440,14480,34,65728,65700,6,6,4,1460,130000,1,16778209,590000,33580,0,65700,0,0,0,631110028,63
i,1723545550.613399,172.16.1.2,5102,172.16.5.2,45705,1073725440,14480,162,65728,65700,6,6,4,1460,130000,1,16778208,590000,33580,0,65700,0,0,0,2816858619,63
i,1723545550.643234,172.16.1.2,5102,172.16.5.2,45705,1073725440,14480,162,65728,65700,6,6,4,1460,130000,1,16778208,590000,33580,0,65700,0,0,0,2816858619,63
o,1723545550.643266,172.16.1.2,5102,172.16.5.2,45705,1073725440,14480,162,65728,65700,6,6,4,1460,130000,1,16778209,590000,33580,0,65700,1448,0,0,2816858619,63
i,1723545550.652601,172.16.1.2,5101,172.16.3.2,33156,1073725440,14480,34,65728,65700,6,6,4,1460,130000,1,16778208,590000,33580,0,65700,0,0,0,631110028,63
o,1723545550.689824,172.16.1.2,5101,172.16.3.2,33156,1073725440,14480,34,65728,65700,6,6,4,1460,130000,1,16778209,590000,33580,0,65700,0,0,0,631110028,63
i,1723545550.691893,172.16.1.2,5102,172.16.5.2,45705,1073725440,14480,162,65728,65700,6,6,4,1460,130000,1,16778208,590000,33580,0,65700,0,0,0,2816858619,63
i,1723545550.723290,172.16.1.2,5101,172.16.3.2,33156,1073725440,14480,34,65728,65700,6,6,4,1460,130000,1,16778208,590000,33580,0,65700,0,0,0,631110028,63
o,1723545550.728135,172.16.1.2,5102,172.16.5.2,45705,1073725440,14480,162,65728,65700,6,6,4,1460,130000,1,16778209,590000,33580,0,65700,0,0,0,2816858619,63
i,1723545550.753958,172.16.1.2,5101,172.16.3.2,33156,1073725440,14480,34,65728,65700,6,6,4,1460,130000,1,16778208,590000,33580,0,65700,0,0,0,631110028,63
o,1723545550.753995,172.16.1.2,5101,172.16.3.2,33156,1073725440,14480,34,65728,65700,6,6,4,1460,130000,1,16778209,590000,33580,0,65700,1448,0,0,631110028,63
i,1723545550.762416,172.16.1.2,5102,172.16.5.2,45705,1073725440,14480,162,65728,65700,6,6,4,1460,130000,1,16778208,590000,33580,0,65700,0,0,0,2816858619,63
o,1723545550.762542,172.16.1.2,5102,172.16.5.2,45705,1073725440,14480,34,65728,65700,6,6,4,1460,130000,1,16778209,590000,33580,0,65700,0,0,0,2816858619,63
i,1723545550.803928,172.16.1.2,5101,172.16.3.2,33156,1073725440,14480,34,65728,65700,6,6,4,1460,130000,1,16778208,590000,33580,0,65700,0,0,0,631110028,63
i,1723545550.823289,172.16.1.2,5101,172.16.3.2,33156,1073725440,14480,34,65728,65700,6,6,4,1460,130000,1,16778208,590000,33580,0,65700,0,0,0,631110028,63
o,1723545550.823326,172.16.1.2,5101,172.16.3.2,33156,1073725440,14480,34,65728,65700,6,6,4,1460,130000,1,16778209,590000,33580,0,65700,1448,0,0,631110028,63
i,1723545550.832158,172.16.1.2,5102,172.16.5.2,45705,1073725440,14480,34,65728,65700,6,6,4,1460,130000,1,16778208,590000,33580,0,65700,0,0,0,2816858619,63
i,1723545550.866880,172.16.1.2,5102,172.16.5.2,45705,1073725440,14480,162,65728,65700,6,6,4,1460,130000,1,16778208,590000,33580,0,65700,0,0,0,2816858619,63
o,1723545550.866905,172.16.1.2,5102,172.16.5.2,45705,1073725440,14480,162,65728,65700,6,6,4,1460,130000,1,16778209,590000,33580,0,65700,1448,0,0,2816858619,63
i,1723545550.874137,172.16.1.2,5101,172.16.3.2,33156,1073725440,14480,34,65728,65700,6,6,4,1460,130000,1,16778208,590000,33580,0,65700,0,0,0,631110028,63
i,1723545550.887178,172.16.1.2,5102,172.16.5.2,45705,1073725440,14480,162,65728,65700,6,6,4,1460,130000,1,16778208,590000,33580,0,65700,0,0,0,2816858619,63
o,1723545550.907943,172.16.1.2,5101,172.16.3.2,33156,1073725440,14480,162,65728,65700,6,6,4,1460,130000,1,16778209,590000,33580,0,65700,0,0,0,631110028,63
i,1723545550.912756,172.16.1.2,5102,172.16.5.2,45705,1073725440,14480,162,65728,65700,6,6,4,1460,130000,1,16778208,590000,33580,0,65700,0,0,0,2816858619,63
o,1723545550.912849,172.16.1.2,5102,172.16.5.2,45705,1073725440,14480,162,65728,65700,6,6,4,1460,130000,1,16778209,590000,33580,0,65700,1448,0,0,2816858619,63
i,1723545550.949100,172.16.1.2,5101,172.16.3.2,33156,1073725440,14480,162,65728,65700,6,6,4,1460,130000,1,16778208,590000,33580,0,65700,0,0,0,631110028,63
o,1723545550.988664,172.16.1.2,5101,172.16.3.2,33156,1073725440,14480,162,65728,65700,6,6,4,1460,130000,1,16778209,590000,33580,0,65700,0,0,0,631110028,63
i,1723545550.990448,172.16.1.2,5102,172.16.5.2,45705,1073725440,14480,162,65728,65700,6,6,4,1460,130000,1,16778208,590000,33580,0,65700,0,0,0,2816858619,63
i,1723545551.003312,172.16.1.2,5101,172.16.3.2,33156,1073725440,14480,162,65728,65700,6,6,4,1460,130000,1,16778208,590000,33580,0,65700,0,0,0,631110028,63
o,1723545551.030851,172.16.1.2,5102,172.16.5.2,45705,1073725440,14480,162,65728,65700,6,6,4,1460,130000,1,16778209,590000,33580,0,65700,0,0,0,2816858619,63
i,1723545551.031320,172.16.1.2,5102,172.16.5.2,45705,1073725440,14480,162,65728,65700,6,6,4,1460,130000,1,16778208,590000,33580,0,65700,0,0,0,2816858619,63
o,1723545551.031948,172.16.1.2,5102,172.16.5.2,45705,1073725440,14480,34,65728,65700,6,6,4,1460,130000,1,16778209,590000,33580,0,65700,0,0,0,2816858619,63
o,1723545551.037841,172.16.1.2,5101,172.16.3.2,33156,1073725440,14480,162,65728,65700,6,6,4,1460,130000,1,16778209,590000,33580,0,65700,0,0,0,631110028,63
i,1723545551.052975,172.16.1.2,5101,172.16.3.2,33156,1073725440,14480,162,65728,65700,6,6,4,1460,130000,1,16778208,590000,33580,0,65700,0,0,0,631110028,63
i,1723545551.083541,172.16.1.2,5101,172.16.3.2,33156,1073725440,14480,162,65728,65700,6,6,4,1460,130000,1,16778208,590000,33580,0,65700,0,0,0,631110028,63
o,1723545551.083574,172.16.1.2,5101,172.16.3.2,33156,1073725440,14480,162,65728,65700,6,6,4,1460,130000,1,16778209,590000,33580,0,65700,1448,0,0,631110028,63
i,1723545551.092164,172.16.1.2,5102,172.16.5.2,45705,1073725440,14480,34,65728,65700,6,6,4,1460,130000,1,16778208,590000,33580,0,65700,0,0,0,2816858619,63
i,1723545551.123248,172.16.1.2,5102,172.16.5.2,45705,1073725440,14480,34,65728,65700,6,6,4,1460,130000,1,16778208,590000,33580,0,65700,0,0,0,2816858619,63
o,1723545551.123442,172.16.1.2,5102,172.16.5.2,45705,1073725440,14480,34,65728,65700,6,6,4,1460,130000,1,16778209,590000,33580,0,65700,1448,0,0,2816858619,63
i,1723545551.133174,172.16.1.2,5101,172.16.3.2,33156,1073725440,14480,162,65728,65700,6,6,4,1460,130000,1,16778208,590000,33580,0,65700,0,0,0,631110028,63
i,1723545551.143181,172.16.1.2,5102,172.16.5.2,45705,1073725440,14480,34,65728,65700,6,6,4,1460,130000,1,16778208,590000,33580,0,65700,0,0,0,2816858619,63
i,1723545551.156807,172.16.1.2,5101,172.16.3.2,33156,1073725440,14480,162,65728,65700,6,6,4,1460,130000,1,16778208,590000,33580,0,65700,0,0,0,631110028,63
o,1723545551.156871,172.16.1.2,5101,172.16.3.2,33156,1073725440,14480,34,65728,65700,6,6,4,1460,130000,1,16778209,590000,33580,0,65700,1448,0,0,631110028,63
o,1723545551.178863,172.16.1.2,5102,172.16.5.2,45705,1073725440,14480,34,65728,65700,6,6,4,1460,130000,1,16778209,590000,33580,0,65700,0,0,0,2816858619,63
i,1723545551.202198,172.16.1.2,5102,172.16.5.2,45705,1073725440,14480,34,65728,65700,6,6,4,1460,130000,1,16778208,590000,33580,0,65700,0,0,0,2816858619,63
i,1723545551.213111,172.16.1.2,5101,172.16.3.2,33156,1073725440,14480,34,65728,65700,6,6,4,1460,130000,1,16778208,590000,33580,0,65700,0,0,0,631110028,63
o,1723545551.239749,172.16.1.2,5102,172.16.5.2,45705,1073725440,14480,34,65728,65700,6,6,4,1460,130000,1,16778209,590000,33580,0,65700,0,0,0,2816858619,63
o,1723545551.248741,172.16.1.2,5101,172.16.3.2,33156,1073725440,14480,34,65728,65700,6,6,4,1460,130000,1,16778209,590000,33580,0,65700,0,0,0,631110028,63
i,1723545551.252328,172.16.1.2,5101,172.16.3.2,33156,1073725440,14480,34,65728,65700,6,6,4,1460,130000,1,16778208,590000,33580,0,65700,0,0,0,631110028,63
i,1723545551.283381,172.16.1.2,5102,172.16.5.2,45705,1073725440,14480,34,65728,65700,6,6,4,1460,130000,1,16778208,590000,33580,0,65700,0,0,0,2816858619,63
o,1723545551.288670,172.16.1.2,5101,172.16.3.2,33156,1073725440,14480,34,65728,65700,6,6,4,1460,130000,1,16778209,590000,33580,0,65700,0,0,0,631110028,63
i,1723545551.292934,172.16.1.2,5102,172.16.5.2,45705,1073725440,14480,34,65728,65700,6,6,4,1460,130000,1,16778208,590000,33580,0,65700,0,0,0,2816858619,63
o,1723545551.293003,172.16.1.2,5102,172.16.5.2,45705,1073725440,14480,34,65728,65700,6,6,4,1460,130000,1,16778209,590000,33580,0,65700,1448,0,0,2816858619,63
i,1723545551.332288,172.16.1.2,5101,172.16.3.2,33156,1073725440,14480,34,65728,65700,6,6,4,1460,130000,1,16778208,590000,33580,0,65700,0,0,0,631110028,63
i,1723545551.343011,172.16.1.2,5102,172.16.5.2,45705,1073725440,14480,34,65728,65700,6,6,4,1460,130000,1,16778208,590000,33580,0,65700,0,0,0,2816858619,63
i,1723545551.352839,172.16.1.2,5101,172.16.3.2,33156,1073725440,14480,34,65728,65700,6,6,4,1460,130000,1,16778208,590000,33580,0,65700,0,0,0,631110028,63
o,1723545551.352861,172.16.1.2,5101,172.16.3.2,33156,1073725440,14480,34,65728,65700,6,6,4,1460,130000,1,16778209,590000,33580,0,65700,1448,0,0,631110028,63
o,1723545551.379834,172.16.1.2,5102,172.16.5.2,45705,1073725440,14480,34,65728,65700,6,6,4,1460,130000,1,16778209,590000,33580,0,65700,0,0,0,2816858619,63
o,1723545551.451391,10.0.2.15,22,10.0.2.2,52288,1073725440,14600,1026,65535,65700,0,0,4,1460,312,0,16777220,240000,33580,108,65700,0,0,0,48828706,63
i,1723545551.452416,10.0.2.15,22,10.0.2.2,52288,1073725440,14600,1026,65535,65700,0,0,4,1460,312,0,16777220,240000,33580,108,65700,0,108,0,48828706,63
o,1723545551.452752,10.0.2.15,22,10.0.2.2,52280,1073725440,14600,1026,65535,65700,0,0,4,1460,312,0,16777220,240000,33580,108,65700,0,0,0,3007839365,63
i,1723545551.453324,10.0.2.15,22,10.0.2.2,52280,1073725440,14600,1026,65535,65700,0,0,4,1460,312,0,16777220,240000,33580,108,65700,0,108,0,3007839365,63
i,1723545551.453994,172.16.1.2,5101,172.16.3.2,33156,1073725440,14480,34,65728,65700,6,6,4,1460,130000,1,16778208,590000,33580,0,65700,0,0,0,631110028,63
i,1723545551.468801,172.16.1.2,5102,172.16.5.2,45705,1073725440,14480,34,65728,65700,6,6,4,1460,130000,1,16778208,590000,33580,0,65700,0,0,0,2816858619,63
i,1723545551.477943,172.16.1.2,5101,172.16.3.2,33156,1073725440,14480,34,65728,65700,6,6,4,1460,130000,1,16778208,590000,33580,0,65700,0,0,0,631110028,63
o,1723545551.477971,172.16.1.2,5101,172.16.3.2,33156,1073725440,14480,34,65728,65700,6,6,4,1460,130000,1,16778209,590000,33580,0,65700,1448,0,0,631110028,63
i,1723545551.483449,172.16.1.2,5102,172.16.5.2,45705,1073725440,14480,34,65728,65700,6,6,4,1460,130000,1,16778208,590000,33580,0,65700,0,0,0,2816858619,63
o,1723545551.483477,172.16.1.2,5102,172.16.5.2,45705,1073725440,14480,34,65728,65700,6,6,4,1460,130000,1,16778209,590000,33580,0,65700,1448,0,0,2816858619,63
i,1723545551.503392,172.16.1.2,5101,172.16.3.2,33156,1073725440,14480,34,65728,65700,6,6,4,1460,130000,1,16778208,590000,33580,0,65700,0,0,0,631110028,63
i,1723545551.512879,172.16.1.2,5102,172.16.5.2,45705,1073725440,14480,34,65728,65700,6,6,4,1460,130000,1,16778208,590000,33580,0,65700,0,0,0,2816858619,63
i,1723545551.535535,172.16.1.2,5102,172.16.5.2,45705,1073725440,14480,162,65728,65700,6,6,4,1460,130000,1,16778208,590000,33580,0,65700,0,0,0,2816858619,63
o,1723545551.535704,172.16.1.2,5102,172.16.5.2,45705,1073725440,14480,162,65728,65700,6,6,4,1460,130000,1,16778209,590000,33580,0,65700,1448,0,0,2816858619,63
o,1723545551.538552,172.16.1.2,5101,172.16.3.2,33156,1073725440,14480,34,65728,65700,6,6,4,1460,130000,1,16778209,590000,33580,0,65700,0,0,0,631110028,63
i,1723545551.572713,172.16.1.2,5101,172.16.3.2,33156,1073725440,14480,34,65728,65700,6,6,4,1460,130000,1,16778208,590000,33580,0,65700,0,0,0,631110028,63
o,1723545551.609120,172.16.1.2,5101,172.16.3.2,33156,1073725440,14480,34,65728,65700,6,6,4,1460,130000,1,16778209,590000,33580,0,65700,0,0,0,631110028,63
i,1723545551.622557,172.16.1.2,5102,172.16.5.2,45705,1073725440,14480,162,65728,65700,6,6,4,1460,130000,1,16778208,590000,33580,0,65700,0,0,0,2816858619,63
i,1723545551.642270,172.16.1.2,5102,172.16.5.2,45705,1073725440,14480,162,65728,65700,6,6,4,1460,130000,1,16778208,590000,33580,0,65700,0,0,0,2816858619,63
o,1723545551.642337,172.16.1.2,5102,172.16.5.2,45705,1073725440,14480,162,65728,65700,6,6,4,1460,130000,1,16778209,590000,33580,0,65700,1448,0,0,2816858619,63
i,1723545551.663178,172.16.1.2,5101,172.16.3.2,33156,1073725440,14480,34,65728,65700,6,6,4,1460,130000,1,16778208,590000,33580,0,65700,0,0,0,631110028,63
i,1723545551.674561,172.16.1.2,5102,172.16.5.2,45705,1073725440,14480,162,65728,65700,6,6,4,1460,130000,1,16778208,590000,33580,0,65700,0,0,0,2816858619,63
i,1723545551.681673,172.16.1.2,5101,172.16.3.2,33156,1073725440,14480,34,65728,65700,6,6,4,1460,130000,1,16778208,590000,33580,0,65700,0,0,0,631110028,63
o,1723545551.681752,172.16.1.2,5101,172.16.3.2,33156,1073725440,14480,34,65728,65700,6,6,4,1460,130000,1,16778209,590000,33580,0,65700,1448,0,0,631110028,63
o,1723545551.710103,172.16.1.2,5102,172.16.5.2,45705,1073725440,14480,162,65728,65700,6,6,4,1460,130000,1,16778209,590000,33580,0,65700,0,0,0,2816858619,63
i,1723545551.737689,172.16.1.2,5101,172.16.3.2,33156,1073725440,14480,34,65728,65700,6,6,4,1460,130000,1,16778208,590000,33580,0,65700,0,0,0,631110028,63
i,1723545551.747746,172.16.1.2,5102,172.16.5.2,45705,1073725440,14480,162,65728,65700,6,6,4,1460,130000,1,16778208,590000,33580,0,65700,0,0,0,2816858619,63
o,1723545551.747854,172.16.1.2,5102,172.16.5.2,45705,1073725440,14480,34,65728,65700,6,6,4,1460,130000,1,16778209,590000,33580,0,65700,0,0,0,2816858619,63
o,1723545551.777991,172.16.1.2,5101,172.16.3.2,33156,1073725440,14480,34,65728,65700,6,6,4,1460,130000,1,16778209,590000,33580,0,65700,0,0,0,631110028,63
i,1723545551.783236,172.16.1.2,5101,172.16.3.2,33156,1073725440,14480,34,65728,65700,6,6,4,1460,130000,1,16778208,590000,33580,0,65700,0,0,0,631110028,63
o,1723545551.819105,172.16.1.2,5101,172.16.3.2,33156,1073725440,14480,34,65728,65700,6,6,4,1460,130000,1,16778209,590000,33580,0,65700,0,0,0,631110028,63
i,1723545551.822721,172.16.1.2,5102,172.16.5.2,45705,1073725440,14480,34,65728,65700,6,6,4,1460,130000,1,16778208,590000,33580,0,65700,0,0,0,2816858619,63
i,1723545551.851429,172.16.1.2,5102,172.16.5.2,45705,1073725440,14480,34,65728,65700,6,6,4,1460,130000,1,16778208,590000,33580,0,65700,0,0,0,2816858619,63
o,1723545551.851496,172.16.1.2,5102,172.16.5.2,45705,1073725440,14480,34,65728,65700,6,6,4,1460,130000,1,16778209,590000,33580,0,65700,1448,0,0,2816858619,63
i,1723545551.852822,172.16.1.2,5101,172.16.3.2,33156,1073725440,14480,34,65728,65700,6,6,4,1460,130000,1,16778208,590000,33580,0,65700,0,0,0,631110028,63
i,1723545551.872689,172.16.1.2,5102,172.16.5.2,45705,1073725440,14480,34,65728,65700,6,6,4,1460,130000,1,16778208,590000,33580,0,65700,0,0,0,2816858619,63
i,1723545551.882460,172.16.1.2,5101,172.16.3.2,33156,1073725440,14480,34,65728,65700,6,6,4,1460,130000,1,16778208,590000,33580,0,65700,0,0,0,631110028,63
o,1723545551.882482,172.16.1.2,5101,172.16.3.2,33156,1073725440,14480,34,65728,65700,6,6,4,1460,130000,1,16778209,590000,33580,0,65700,1448,0,0,631110028,63
i,1723545551.903747,172.16.1.2,5101,172.16.3.2,33156,1073725440,14480,34,65728,65700,6,6,4,1460,130000,1,16778208,590000,33580,0,65700,0,0,0,631110028,63
o,1723545551.907830,172.16.1.2,5102,172.16.5.2,45705,1073725440,14480,34,65728,65700,6,6,4,1460,130000,1,16778209,590000,33580,0,65700,0,0,0,2816858619,63
o,1723545551.939643,172.16.1.2,5101,172.16.3.2,33156,1073725440,14480,34,65728,65700,6,6,4,1460,130000,1,16778209,590000,33580,0,65700,0,0,0,631110028,63
