enable_time_secs=1723548800	enable_time_usecs=426188	siftrver=1.3.0	sysname=FreeBSD	sysver=1401000	ipmode=4
o,1723548800.426335,10.0.2.15,22,10.0.2.2,52236,1073725440,17746,1026,65535,65700,0,0,4,1460,312,0,16777220,240000,33580,68,65700,0,0,0,69214000,63
i,1723548800.427009,10.0.2.15,22,10.0.2.2,52236,1073725440,17746,1026,65535,65700,0,0,4,1460,312,0,16777220,240000,33580,68,65700,0,68,0,69214000,63
o,1723548800.427065,10.0.2.15,22,10.0.2.2,52236,1073725440,17814,1026,65535,65700,0,0,4,1460,312,0,16777220,230000,33580,140,65700,0,0,0,69214000,63
i,1723548800.427997,10.0.2.15,22,10.0.2.2,52236,1073725440,17814,1026,65535,65700,0,0,4,1460,312,0,16777220,230000,33580,140,65700,0,140,0,69214000,63
o,1723548800.428012,10.0.2.15,22,10.0.2.2,52236,1073725440,17814,1026,65535,65700,0,0,4,1460,312,0,16777220,230000,33580,212,65700,0,140,0,69214000,63
i,1723548800.428648,10.0.2.15,22,10.0.2.2,52236,1073725440,17954,1026,65535,65700,0,0,4,1460,312,0,4,230000,33580,72,65700,0,72,0,69214000,63
i,1723548800.428669,10.0.2.15,22,10.0.2.2,52236,1073725440,18026,1026,65535,65700,0,0,4,1460,312,0,4,230000,33580,0,65700,0,0,0,69214000,63
i,1723548800.428695,10.0.2.15,22,10.0.2.2,52236,1073725440,18026,1026,65535,65700,0,0,4,1460,312,0,4,230000,33580,0,65700,96,0,0,69214000,63
o,1723548800.428714,10.0.2.15,22,10.0.2.2,52236,1073725440,18026,1026,65535,65604,0,0,5,1460,312,0,5,230000,33580,0,65700,96,0,0,69214000,63
o,1723548800.429339,10.0.2.15,22,10.0.2.2,52236,1073725440,18026,1026,65535,65604,0,0,8,1460,312,0,4,230000,33580,0,65700,0,0,0,69214000,63
i,1723548800.429950,10.0.2.15,22,10.0.2.2,52236,1073725440,18026,1026,65535,65604,0,0,8,1460,312,0,67108884,230000,33580,0,65700,0,1,0,69214000,63
i,1723548803.578294,10.0.2.15,22,10.0.2.2,52250,1073725440,14600,0,65535,65700,0,0,4,1460,312,0,16777216,270000,33580,0,65700,0,0,0,379687255,63
o,1723548803.590160,10.0.2.15,22,10.0.2.2,52250,1073725440,14600,1026,65535,65700,0,0,4,1460,312,0,16777216,270000,33580,38,65700,42,0,0,379687255,63
i,1723548803.590950,10.0.2.15,22,10.0.2.2,52250,1073725440,14600,1026,65535,65700,0,0,4,1460,312,0,16777216,270000,33580,38,65700,0,38,0,379687255,63
i,1723548803.591026,10.0.2.15,22,10.0.2.2,52250,1073725440,14638,1026,65535,65700,0,0,4,1460,312,0,0,230000,33580,0,65700,0,0,0,379687255,63
i,1723548803.591040,10.0.2.15,22,10.0.2.2,52250,1073725440,14638,1026,65535,65700,0,0,4,1460,312,0,0,230000,33580,0,65700,1460,0,0,379687255,63
o,1723548803.591055,10.0.2.15,22,10.0.2.2,52250,1073725440,14638,1026,65535,65700,0,0,4,1460,312,0,1,230000,33580,0,65700,1536,0,0,379687255,63
o,1723548803.592275,10.0.2.15,22,10.0.2.2,52250,1073725440,14638,1026,65535,65700,0,0,4,1460,312,0,16777216,230000,33580,1120,65700,1536,0,0,379687255,63
i,1723548803.594371,10.0.2.15,22,10.0.2.2,52250,1073725440,14638,1026,65535,65700,0,0,4,1460,312,0,16777216,230000,33580,1120,65700,0,1120,0,379687255,63
i,1723548803.595481,10.0.2.15,22,10.0.2.2,52250,1073725440,15758,1026,65535,65700,0,0,4,1460,312,0,0,240000,33580,0,65700,0,0,0,379687255,63
o,1723548803.598874,10.0.2.15,22,10.0.2.2,52250,1073725440,15758,1026,65535,65700,0,0,4,1460,312,0,16777216,240000,33580,492,65700,0,0,0,379687255,63
i,1723548803.599736,10.0.2.15,22,10.0.2.2,52250,1073725440,15758,1026,65535,65700,0,0,4,1460,312,0,16777216,240000,33580,492,65700,0,492,0,379687255,63
i,1723548803.603917,10.0.2.15,22,10.0.2.2,52250,1073725440,16250,1026,65535,65700,0,0,4,1460,312,0,0,240000,33580,0,65700,0,0,0,379687255,63
i,1723548803.603935,10.0.2.15,22,10.0.2.2,52250,1073725440,16250,1026,65535,65700,0,0,4,1460,312,0,0,240000,33580,0,65700,16,0,0,379687255,63
o,1723548803.603950,10.0.2.15,22,10.0.2.2,52250,1073725440,16250,1026,65535,65700,0,0,4,1460,312,0,1,240000,33580,0,65700,60,0,0,379687255,63
o,1723548803.604108,10.0.2.15,22,10.0.2.2,52250,1073725440,16250,1026,65535,65700,0,0,4,1460,312,0,16777216,240000,33580,44,65700,0,0,0,379687255,63
i,1723548803.605329,10.0.2.15,22,10.0.2.2,52250,1073725440,16250,1026,65535,65700,0,0,4,1460,312,0,16777216,240000,33580,44,65700,0,44,0,379687255,63
i,1723548803.605346,10.0.2.15,22,10.0.2.2,52250,1073725440,16294,1026,65535,65700,0,0,4,1460,312,0,0,240000,33580,0,65700,0,0,0,379687255,63
o,1723548803.607351,10.0.2.15,22,10.0.2.2,52250,1073725440,16294,1026,65535,65700,0,0,4,1460,312,0,16777216,240000,33580,68,65700,0,0,0,379687255,63
i,1723548803.608814,10.0.2.15,22,10.0.2.2,52250,1073725440,16294,1026,65535,65700,0,0,4,1460,312,0,16777216,240000,33580,68,65700,0,68,0,379687255,63
i,1723548803.608831,10.0.2.15,22,10.0.2.2,52250,1073725440,16362,1026,65535,65700,0,0,4,1460,312,0,0,240000,33580,0,65700,0,0,0,379687255,63
o,1723548803.610245,10.0.2.15,22,10.0.2.2,52250,1073725440,16362,1026,65535,65700,0,0,4,1460,312,0,16777216,240000,33580,332,65700,0,0,0,379687255,63
i,1723548803.611028,10.0.2.15,22,10.0.2.2,52250,1073725440,16362,1026,65535,65700,0,0,4,1460,312,0,16777216,240000,33580,332,65700,0,332,0,379687255,63
i,1723548803.612156,10.0.2.15,22,10.0.2.2,52250,1073725440,16694,1026,65535,65700,0,0,4,1460,312,0,0,240000,33580,0,65700,0,0,0,379687255,63
o,1723548803.636372,10.0.2.15,22,10.0.2.2,52250,1073725440,16694,1026,65535,65700,0,0,4,1460,312,0,16777216,240000,33580,28,65700,0,0,0,379687255,63
i,1723548803.638969,10.0.2.15,22,10.0.2.2,52250,1073725440,16694,1026,65535,65700,0,0,4,1460,312,0,16777216,240000,33580,28,65700,0,28,0,379687255,63
i,1723548803.639008,10.0.2.15,22,10.0.2.2,52250,1073725440,16722,1026,65535,65700,0,0,4,1460,312,0,0,230000,33580,0,65700,0,0,0,379687255,63
o,1723548803.640275,10.0.2.15,22,10.0.2.2,52250,1073725440,16722,1026,65535,65700,0,0,4,1460,312,0,16777216,230000,33580,768,65700,112,0,0,379687255,63
i,1723548803.641069,10.0.2.15,22,10.0.2.2,52250,1073725440,16722,1026,65535,65700,0,0,4,1460,312,0,16777216,230000,33580,908,65700,112,768,0,379687255,63
o,1723548803.641086,10.0.2.15,22,10.0.2.2,52250,1073725440,17490,1026,65535,65700,0,0,4,1460,312,0,16777216,230000,33580,140,65700,112,0,0,379687255,63
i,1723548803.642130,10.0.2.15,22,10.0.2.2,52250,1073725440,17490,1026,65535,65700,0,0,4,1460,312,0,16777216,230000,33580,140,65700,112,140,0,379687255,63
o,1723548803.642291,10.0.2.15,22,10.0.2.2,52250,1073725440,17630,1026,65535,65700,0,0,4,1460,312,0,16777216,230000,33580,44,65700,0,0,0,379687255,63
i,1723548803.642852,10.0.2.15,22,10.0.2.2,52250,1073725440,17630,1026,65535,65700,0,0,4,1460,312,0,16777216,230000,33580,44,65700,0,44,0,379687255,63
i,1723548803.642919,10.0.2.15,22,10.0.2.2,52250,1073725440,17674,1026,65535,65700,0,0,4,1460,312,0,0,230000,33580,0,65700,0,0,0,379687255,63
o,1723548803.643335,10.0.2.15,22,10.0.2.2,52250,1073725440,17674,1026,65535,65700,0,0,4,1460,312,0,16777220,230000,33580,72,65700,0,0,0,379687255,63
i,1723548803.644095,10.0.2.15,22,10.0.2.2,52250,1073725440,17674,1026,65535,65700,0,0,4,1460,312,0,16777220,230000,33580,72,65700,0,72,0,379687255,63
o,1723548803.647288,10.0.2.15,22,10.0.2.2,52250,1073725440,17746,1026,65535,65700,0,0,4,1460,312,0,16777220,240000,33580,104,65700,0,0,0,379687255,63
o,1723548803.647707,10.0.2.15,22,10.0.2.2,52250,1073725440,17746,1026,65535,65700,0,0,4,1460,312,0,16777220,240000,33580,176,65700,0,104,0,379687255,63
i,1723548803.647866,10.0.2.15,22,10.0.2.2,52250,1073725440,17746,1026,65535,65700,0,0,4,1460,312,0,16777220,240000,33580,176,65700,0,176,0,379687255,63
i,1723548803.648234,10.0.2.15,22,10.0.2.2,52250,1073725440,17850,1026,65535,65700,0,0,4,1460,312,0,4,240000,33580,72,65700,0,72,0,379687255,63
i,1723548803.648602,10.0.2.15,22,10.0.2.2,52250,1073725440,17922,1026,65535,65700,0,0,4,1460,312,0,4,240000,33580,0,65700,0,0,0,379687255,63
i,1723548803.648617,10.0.2.15,22,10.0.2.2,52250,1073725440,17922,1026,65535,65700,0,0,4,1460,312,0,4,240000,33580,0,65700,96,0,0,379687255,63
o,1723548803.648652,10.0.2.15,22,10.0.2.2,52250,1073725440,17922,1026,65535,65604,0,0,5,1460,312,0,5,240000,33580,0,65700,96,0,0,379687255,63
o,1723548803.649209,10.0.2.15,22,10.0.2.2,52250,1073725440,17922,1026,65535,65604,0,0,8,1460,312,0,4,240000,33580,0,65700,0,0,0,379687255,63
i,1723548803.650267,10.0.2.15,22,10.0.2.2,52250,1073725440,17922,1026,65535,65604,0,0,8,1460,312,0,67108884,240000,33580,0,65700,0,1,0,379687255,63
i,1723548803.907979,172.16.1.2,5102,172.16.5.2,55811,1073725440,14480,32,65728,65700,6,6,4,1460,130000,1,16778208,380000,33580,0,65700,0,0,0,2469335698,63
o,1723548803.908789,172.16.1.2,5102,172.16.5.2,55811,1073725440,14480,1058,65728,65700,6,6,4,1460,130000,1,16778212,380000,33580,1,65700,0,0,0,2469335698,63
i,1723548803.938439,172.16.1.2,5101,172.16.3.2,28819,1073725440,14480,32,65728,65700,6,6,4,1460,128125,1,16778208,380000,33580,0,65700,0,0,0,3660887682,63
o,1723548803.939671,172.16.1.2,5101,172.16.3.2,28819,1073725440,14480,1058,65728,65700,6,6,4,1460,128125,1,16778212,380000,33580,1,65700,0,0,0,3660887682,63
i,1723548804.022906,172.16.1.2,5102,172.16.5.2,55811,1073725440,14480,1058,65728,65700,6,6,4,1460,130000,1,16778212,380000,33580,1,65700,0,1,0,2469335698,63
i,1723548804.023095,172.16.1.2,5102,172.16.5.2,55811,1073725440,14481,1058,65728,65728,6,6,4,1460,127500,1,996,390000,33580,0,65700,4,0,0,2469335698,63
o,1723548804.023157,172.16.1.2,5102,172.16.5.2,55811,1073725440,14481,1058,65728,65728,6,6,4,1460,127500,1,997,390000,33580,0,65700,130,0,0,2469335698,63
o,1723548804.024328,172.16.1.2,5102,172.16.5.2,55811,1073725440,14481,1058,65728,65728,6,6,4,1460,127500,1,16778212,390000,33580,1,65700,0,0,0,2469335698,63
o,1723548804.025249,10.0.2.15,22,10.0.2.2,52280,1073725440,14600,1026,65535,65700,0,0,4,1460,312,0,16777220,240000,33580,84,65700,0,0,0,3007839365,63
i,1723548804.026010,10.0.2.15,22,10.0.2.2,52280,1073725440,14600,1026,65535,65700,0,0,4,1460,312,0,16777220,240000,33580,84,65700,0,84,0,3007839365,63
i,1723548804.057004,172.16.1.2,5101,172.16.3.2,28819,1073725440,14480,1058,65728,65700,6,6,4,1460,128125,1,16778212,380000,33580,1,65700,0,1,0,3660887682,63
i,1723548804.057087,172.16.1.2,5101,172.16.3.2,28819,1073725440,14481,1058,65728,65728,6,6,4,1460,125937,1,996,380000,33580,0,65700,4,0,0,3660887682,63
o,1723548804.057108,172.16.1.2,5101,172.16.3.2,28819,1073725440,14481,1058,65728,65728,6,6,4,1460,125937,1,997,380000,33580,0,65700,130,0,0,3660887682,63
o,1723548804.058041,172.16.1.2,5101,172.16.3.2,28819,1073725440,14481,1058,65728,65728,6,6,4,1460,125937,1,16778212,380000,33580,1,65700,0,0,0,3660887682,63
o,1723548804.059131,10.0.2.15,22,10.0.2.2,52288,1073725440,14600,1026,65535,65700,0,0,4,1460,312,0,16777220,240000,33580,84,65700,0,0,0,48828706,63
i,1723548804.060043,10.0.2.15,22,10.0.2.2,52288,1073725440,14600,1026,65535,65700,0,0,4,1460,312,0,16777220,240000,33580,84,65700,0,84,0,48828706,63
i,1723548804.209514,172.16.1.2,5101,172.16.3.2,28819,1073725440,14481,1058,65728,65728,6,6,4,1460,125937,1,16778212,380000,33580,1,65700,0,1,0,3660887682,63
i,1723548804.272050,172.16.1.2,5102,172.16.5.2,55811,1073725440,14481,1058,65728,65728,6,6,4,1460,127500,1,16778212,390000,33580,1,65700,0,1,0,2469335698,63
i,1723548804.272147,172.16.1.2,5102,172.16.5.2,26395,1073725440,14480,32,65728,65700,6,6,4,1460,131250,1,16778208,370000,33580,0,65700,0,0,0,1610086827,63
o,1723548804.283294,172.16.1.2,5102,172.16.5.2,55811,1073725440,14482,1058,65728,65728,6,6,4,1460,141562,1,16778212,500000,33580,1,65700,0,0,0,2469335698,63
o,1723548804.283438,172.16.1.2,5102,172.16.5.2,55811,1073725440,14482,1058,65728,65728,6,6,4,1460,141562,1,16778212,500000,33580,2,65700,0,1,0,2469335698,63
o,1723548804.283761,10.0.2.15,22,10.0.2.2,52280,1073725440,14600,1026,65535,65700,0,0,4,1460,312,0,16777220,240000,33580,108,65700,0,0,0,3007839365,63
i,1723548804.284892,10.0.2.15,22,10.0.2.2,52280,1073725440,14600,1026,65535,65700,0,0,4,1460,312,0,16777220,240000,33580,108,65700,0,108,0,3007839365,63
i,1723548804.292390,172.16.1.2,5101,172.16.3.2,17621,1073725440,14480,32,65728,65700,6,6,4,1460,126875,1,16778208,390000,33580,0,65700,0,0,0,1117258852,63
o,1723548804.296172,172.16.1.2,5101,172.16.3.2,28819,1073725440,14482,1058,65728,65728,6,6,4,1460,129062,1,16778212,400000,33580,1,65700,0,0,0,3660887682,63
o,1723548804.296313,172.16.1.2,5101,172.16.3.2,28819,1073725440,14482,1058,65728,65728,6,6,4,1460,129062,1,16778212,400000,33580,2,65700,0,1,0,3660887682,63
o,1723548804.296563,10.0.2.15,22,10.0.2.2,52288,1073725440,14684,1026,65535,65700,0,0,4,1460,312,0,16777220,240000,33580,108,65700,0,0,0,48828706,63
i,1723548804.297599,10.0.2.15,22,10.0.2.2,52288,1073725440,14684,1026,65535,65700,0,0,4,1460,312,0,16777220,240000,33580,108,65700,0,108,0,48828706,63
o,1723548804.308025,172.16.1.2,5102,172.16.5.2,26395,1073725440,14480,34,65728,65700,6,6,4,1460,131250,1,16778209,370000,33580,0,65700,0,0,0,1610086827,63
o,1723548804.329707,172.16.1.2,5101,172.16.3.2,17621,1073725440,14480,34,65728,65700,6,6,4,1460,126875,1,16778209,390000,33580,0,65700,0,0,0,1117258852,63
i,1723548804.403330,172.16.1.2,5102,172.16.5.2,55811,1073725440,14482,1058,65728,65728,6,6,4,1460,141562,1,16778212,500000,33580,2,65700,0,2,0,2469335698,63
i,1723548804.403366,172.16.1.2,5101,172.16.3.2,28819,1073725440,14482,1058,65728,65728,6,6,4,1460,129062,1,16778212,400000,33580,2,65700,0,2,0,3660887682,63
i,1723548804.593063,172.16.1.2,5101,172.16.3.2,17621,1073725440,14480,34,65728,65700,6,6,4,1460,126875,1,16778208,390000,33580,0,65700,0,0,0,1117258852,63
i,1723548804.603691,172.16.1.2,5101,172.16.3.2,17621,1073725440,14480,34,65728,65700,6,6,4,1460,126875,1,16778208,390000,33580,0,65700,0,0,0,1117258852,63
o,1723548804.603777,172.16.1.2,5101,172.16.3.2,17621,1073725440,14480,34,65728,65700,6,6,4,1460,126875,1,16778209,390000,33580,0,65700,1448,0,0,1117258852,63
i,1723548804.613330,172.16.1.2,5102,172.16.5.2,26395,1073725440,14480,34,65728,65700,6,6,4,1460,131250,1,16778208,370000,33580,0,65700,0,0,0,1610086827,63
o,1723548804.651955,172.16.1.2,5102,172.16.5.2,26395,1073725440,14480,34,65728,65700,6,6,4,1460,131250,1,16778209,370000,33580,0,65700,0,0,0,1610086827,63
i,1723548804.654777,172.16.1.2,5102,172.16.5.2,26395,1073725440,14480,34,65728,65700,6,6,4,1460,131250,1,16778208,370000,33580,0,65700,0,0,0,1610086827,63
i,1723548804.666068,172.16.1.2,5101,172.16.3.2,17621,1073725440,14480,34,65728,65700,6,6,4,1460,126875,1,16778208,390000,33580,0,65700,0,0,0,1117258852,63
i,1723548804.685840,172.16.1.2,5102,172.16.5.2,26395,1073725440,14480,34,65728,65700,6,6,4,1460,131250,1,16778208,370000,33580,0,65700,0,0,0,1610086827,63
o,1723548804.685977,172.16.1.2,5102,172.16.5.2,26395,1073725440,14480,34,65728,65700,6,6,4,1460,131250,1,16778209,370000,33580,0,65700,1448,0,0,1610086827,63
i,1723548804.686352,172.16.1.2,5101,172.16.3.2,17621,1073725440,14480,34,65728,65700,6,6,4,1460,126875,1,16778208,390000,33580,0,65700,0,0,0,1117258852,63
o,1723548804.686420,172.16.1.2,5101,172.16.3.2,17621,1073725440,14480,34,65728,65700,6,6,4,1460,126875,1,16778209,390000,33580,0,65700,1448,0,0,1117258852,63
i,1723548804.707323,172.16.1.2,5102,172.16.5.2,26395,1073725440,14480,34,65728,65700,6,6,4,1460,131250,1,16778208,370000,33580,0,65700,0,0,0,1610086827,63
i,1723548804.707404,172.16.1.2,5101,172.16.3.2,17621,1073725440,14480,34,65728,65700,6,6,4,1460,126875,1,16778208,390000,33580,0,65700,0,0,0,1117258852,63
i,1723548804.713301,172.16.1.2,5102,172.16.5.2,26395,1073725440,14480,34,65728,65700,6,6,4,1460,131250,1,16778208,370000,33580,0,65700,0,0,0,1610086827,63
o,1723548804.713391,172.16.1.2,5102,172.16.5.2,26395,1073725440,14480,34,65728,65700,6,6,4,1460,131250,1,16778209,370000,33580,0,65700,1448,0,0,1610086827,63
i,1723548804.722957,172.16.1.2,5101,172.16.3.2,17621,1073725440,14480,34,65728,65700,6,6,4,1460,126875,1,16778208,390000,33580,0,65700,0,0,0,1117258852,63
o,1723548804.722976,172.16.1.2,5101,172.16.3.2,17621,1073725440,14480,34,65728,65700,6,6,4,1460,126875,1,16778209,390000,33580,0,65700,1448,0,0,1117258852,63
i,1723548804.731981,172.16.1.2,5102,172.16.5.2,26395,1073725440,14480,34,65728,65700,6,6,4,1460,131250,1,16778208,370000,33580,0,65700,0,0,0,1610086827,63
i,1723548804.752263,172.16.1.2,5101,172.16.3.2,17621,1073725440,14480,34,65728,65700,6,6,4,1460,126875,1,16778208,390000,33580,0,65700,0,0,0,1117258852,63
o,1723548804.769375,172.16.1.2,5102,172.16.5.2,26395,1073725440,14480,34,65728,65700,6,6,4,1460,131250,1,16778209,370000,33580,0,65700,0,0,0,1610086827,63
i,1723548804.769626,172.16.1.2,5102,172.16.5.2,26395,1073725440,14480,34,65728,65700,6,6,4,1460,131250,1,16778208,370000,33580,0,65700,0,0,0,1610086827,63
i,1723548804.779798,172.16.1.2,5101,172.16.3.2,17621,1073725440,14480,34,65728,65700,6,6,4,1460,126875,1,16778208,390000,33580,0,65700,0,0,0,1117258852,63
o,1723548804.779816,172.16.1.2,5101,172.16.3.2,17621,1073725440,14480,34,65728,65700,6,6,4,1460,126875,1,16778209,390000,33580,0,65700,1448,0,0,1117258852,63
i,1723548804.783641,172.16.1.2,5102,172.16.5.2,26395,1073725440,14480,34,65728,65700,6,6,4,1460,131250,1,16778208,370000,33580,0,65700,0,0,0,1610086827,63
o,1723548804.783709,172.16.1.2,5102,172.16.5.2,26395,1073725440,14480,34,65728,65700,6,6,4,1460,131250,1,16778209,370000,33580,0,65700,1448,0,0,1610086827,63
i,1723548804.811722,172.16.1.2,5101,172.16.3.2,17621,1073725440,14480,34,65728,65700,6,6,4,1460,126875,1,16778208,390000,33580,0,65700,0,0,0,1117258852,63
i,1723548804.832254,172.16.1.2,5102,172.16.5.2,26395,1073725440,14480,34,65728,65700,6,6,4,1460,131250,1,16778208,370000,33580,0,65700,0,0,0,1610086827,63
i,1723548804.832294,172.16.1.2,5101,172.16.3.2,17621,1073725440,14480,34,65728,65700,6,6,4,1460,126875,1,16778208,390000,33580,0,65700,0,0,0,1117258852,63
o,1723548804.832317,172.16.1.2,5101,172.16.3.2,17621,1073725440,14480,34,65728,65700,6,6,4,1460,126875,1,16778209,390000,33580,0,65700,1448,0,0,1117258852,63
i,1723548804.834048,172.16.1.2,5102,172.16.5.2,26395,1073725440,14480,34,65728,65700,6,6,4,1460,131250,1,16778208,370000,33580,0,65700,0,0,0,1610086827,63
o,1723548804.834109,172.16.1.2,5102,172.16.5.2,26395,1073725440,14480,34,65728,65700,6,6,4,1460,131250,1,16778209,370000,33580,0,65700,1448,0,0,1610086827,63
i,1723548805.014417,172.16.1.2,5102,172.16.5.2,26395,1073725440,14480,34,65728,65700,6,6,4,1460,131250,1,16778208,370000,33580,0,65700,0,0,0,1610086827,63
i,1723548805.040963,172.16.1.2,5102,172.16.5.2,26395,1073725440,14480,34,65728,65700,6,6,4,1460,131250,1,16778208,370000,33580,0,65700,0,0,0,1610086827,63
o,1723548805.041038,172.16.1.2,5102,172.16.5.2,26395,1073725440,14480,34,65728,65700,6,6,4,1460,131250,1,16778209,370000,33580,0,65700,1448,0,0,1610086827,63
i,1723548805.113942,172.16.1.2,5102,172.16.5.2,26395,1073725440,14480,34,65728,65700,6,6,4,1460,131250,1,16778208,370000,33580,0,65700,0,0,0,1610086827,63
o,1723548805.113975,172.16.1.2,5102,172.16.5.2,26395,1073725440,14480,34,65728,65700,6,6,4,1460,131250,1,16778209,370000,33580,0,65700,0,0,1,1610086827,63
i,1723548805.135454,172.16.1.2,5102,172.16.5.2,26395,1073725440,14480,34,65728,65700,6,6,4,1460,131250,1,16778208,370000,33580,0,65700,0,0,1,1610086827,63
o,1723548805.135487,172.16.1.2,5102,172.16.5.2,26395,1073725440,14480,34,65728,65728,6,6,4,1460,131250,1,16778209,370000,33580,0,65700,0,0,1,1610086827,63
i,1723548805.155089,172.16.1.2,5102,172.16.5.2,26395,1073725440,14480,34,65728,65728,6,6,4,1460,131250,1,16778208,370000,33580,0,65700,0,0,1,1610086827,63
o,1723548805.155109,172.16.1.2,5102,172.16.5.2,26395,1073725440,14480,34,65728,65728,6,6,4,1460,131250,1,16778209,370000,33580,0,65700,0,0,2,1610086827,63
i,1723548805.187028,172.16.1.2,5102,172.16.5.2,26395,1073725440,14480,34,65728,65728,6,6,4,1460,131250,1,16778208,370000,33580,0,65700,0,0,2,1610086827,63
o,1723548805.187074,172.16.1.2,5102,172.16.5.2,26395,1073725440,14480,34,65728,65728,6,6,4,1460,131250,1,16778209,370000,33580,0,65700,0,0,2,1610086827,63
i,1723548805.192988,172.16.1.2,5101,172.16.3.2,17621,1073725440,14480,34,65728,65700,6,6,4,1460,126875,1,16778208,390000,33580,0,65700,0,0,0,1117258852,63
o,1723548805.193011,172.16.1.2,5101,172.16.3.2,17621,1073725440,14480,34,65728,65700,6,6,4,1460,126875,1,16778209,390000,33580,0,65700,0,0,1,1117258852,63
i,1723548805.207484,172.16.1.2,5102,172.16.5.2,26395,1073725440,14480,34,65728,65728,6,6,4,1460,131250,1,16778208,370000,33580,0,65700,0,0,2,1610086827,63
o,1723548805.207520,172.16.1.2,5102,172.16.5.2,26395,1073725440,14480,34,65728,65728,6,6,4,1460,131250,1,16778209,370000,33580,0,65700,0,0,2,1610086827,63
i,1723548805.217494,172.16.1.2,5101,172.16.3.2,17621,1073725440,14480,34,65728,65700,6,6,4,1460,126875,1,16778208,390000,33580,0,65700,0,0,1,1117258852,63
o,1723548805.217511,172.16.1.2,5101,172.16.3.2,17621,1073725440,14480,34,65728,65728,6,6,4,1460,126875,1,16778209,390000,33580,0,65700,0,0,1,1117258852,63
o,1723548805.307471,10.0.2.15,22,10.0.2.2,52280,1073725440,14600,1026,65535,65700,0,0,4,1460,312,0,16777220,240000,33580,156,65700,0,0,0,3007839365,63
o,1723548805.308264,10.0.2.15,22,10.0.2.2,52288,1073725440,14600,1026,65535,65700,0,0,4,1460,312,0,16777220,240000,33580,156,65700,0,0,0,48828706,63
i,1723548805.308861,10.0.2.15,22,10.0.2.2,52280,1073725440,14600,1026,65535,65700,0,0,4,1460,312,0,16777220,240000,33580,156,65700,0,156,0,3007839365,63
i,1723548805.308913,10.0.2.15,22,10.0.2.2,52288,1073725440,14600,1026,65535,65700,0,0,4,1460,312,0,16777220,240000,33580,156,65700,0,156,0,48828706,63
i,1723548805.313685,172.16.1.2,5101,172.16.3.2,17621,1073725440,14480,34,65728,65728,6,6,4,1460,126875,1,16778208,390000,33580,0,65700,0,0,1,1117258852,63
o,1723548805.313715,172.16.1.2,5101,172.16.3.2,17621,1073725440,14480,34,65728,65728,6,6,4,1460,126875,1,16778209,390000,33580,0,65700,0,0,1,1117258852,63
i,1723548805.333249,172.16.1.2,5102,172.16.5.2,26395,1073725440,14480,34,65728,65728,6,6,4,1460,131250,1,16778208,370000,33580,0,65700,0,0,2,1610086827,63
o,1723548805.333273,172.16.1.2,5102,172.16.5.2,26395,1073725440,14480,34,65728,65728,6,6,4,1460,131250,1,16778209,370000,33580,0,65700,0,0,3,1610086827,63
i,1723548805.342813,172.16.1.2,5101,172.16.3.2,17621,1073725440,14480,34,65728,65728,6,6,4,1460,126875,1,16778208,390000,33580,0,65700,0,0,1,1117258852,63
o,1723548805.342831,172.16.1.2,5101,172.16.3.2,17621,1073725440,14480,34,65728,65728,6,6,4,1460,126875,1,16778209,390000,33580,0,65700,0,0,1,1117258852,63
i,1723548805.363745,172.16.1.2,5101,172.16.3.2,17621,1073725440,14480,34,65728,65728,6,6,4,1460,126875,1,16778208,390000,33580,0,65700,0,0,1,1117258852,63
o,1723548805.363764,172.16.1.2,5101,172.16.3.2,17621,1073725440,14480,34,65728,65728,6,6,4,1460,126875,1,16778209,390000,33580,0,65700,0,0,1,1117258852,63
i,1723548805.383953,172.16.1.2,5102,172.16.5.2,26395,1073725440,14480,34,65728,65728,6,6,4,1460,131250,1,16778208,370000,33580,0,65700,0,0,3,1610086827,63
o,1723548805.383972,172.16.1.2,5102,172.16.5.2,26395,1073725440,14480,34,65728,65728,6,6,4,1460,131250,1,16778209,370000,33580,0,65700,0,0,4,1610086827,63
i,1723548805.392138,172.16.1.2,5101,172.16.3.2,17621,1073725440,14480,34,65728,65728,6,6,4,1460,126875,1,16778208,390000,33580,0,65700,0,0,1,1117258852,63
o,1723548805.392156,172.16.1.2,5101,172.16.3.2,17621,1073725440,14480,34,65728,65728,6,6,4,1460,126875,1,16778209,390000,33580,0,65700,0,0,2,1117258852,63
i,1723548805.402913,172.16.1.2,5102,172.16.5.2,26395,1073725440,14480,34,65728,65728,6,6,4,1460,131250,1,16778208,370000,33580,0,65700,0,0,4,1610086827,63
o,1723548805.402932,172.16.1.2,5102,172.16.5.2,26395,1073725440,14480,34,65728,65728,6,6,4,1460,131250,1,16778209,370000,33580,0,65700,4344,0,3,1610086827,63
i,1723548805.412277,172.16.1.2,5101,172.16.3.2,17621,1073725440,14480,34,65728,65728,6,6,4,1460,126875,1,16778208,390000,33580,0,65700,0,0,2,1117258852,63
o,1723548805.412294,172.16.1.2,5101,172.16.3.2,17621,1073725440,14480,34,65728,65728,6,6,4,1460,126875,1,16778209,390000,33580,0,65700,0,0,2,1117258852,63
i,1723548805.447501,172.16.1.2,5102,172.16.5.2,26395,1073725440,14480,34,65728,65728,6,6,4,1460,131250,1,16778208,370000,33580,0,65700,0,0,3,1610086827,63
o,1723548805.447528,172.16.1.2,5102,172.16.5.2,26395,1073725440,14480,34,65728,65700,6,6,4,1460,131250,1,16778209,370000,33580,0,65700,5792,0,2,1610086827,63
i,1723548805.454748,172.16.1.2,5101,172.16.3.2,17621,1073725440,14480,34,65728,65728,6,6,4,1460,126875,1,16778208,390000,33580,0,65700,0,0,2,1117258852,63
o,1723548805.454805,172.16.1.2,5101,172.16.3.2,17621,1073725440,14480,34,65728,65728,6,6,4,1460,126875,1,16778209,390000,33580,0,65700,0,0,3,1117258852,63
i,1723548805.467865,172.16.1.2,5101,172.16.3.2,17621,1073725440,14480,34,65728,65728,6,6,4,1460,126875,1,16778208,390000,33580,0,65700,0,0,3,1117258852,63
o,1723548805.467886,172.16.1.2,5101,172.16.3.2,17621,1073725440,14480,34,65728,65728,6,6,4,1460,126875,1,16778209,390000,33580,0,65700,0,0,4,1117258852,63
i,1723548805.468026,172.16.1.2,5101,172.16.3.2,17621,1073725440,14480,34,65728,65728,6,6,4,1460,126875,1,16778208,390000,33580,0,65700,0,0,4,1117258852,63
o,1723548805.468059,172.16.1.2,5101,172.16.3.2,17621,1073725440,14480,34,65728,65728,6,6,4,1460,126875,1,16778209,390000,33580,0,65700,0,0,4,1117258852,63
i,1723548805.498120,172.16.1.2,5101,172.16.3.2,17621,1073725440,14480,34,65728,65728,6,6,4,1460,126875,1,16778208,390000,33580,0,65700,0,0,4,1117258852,63
o,1723548805.498142,172.16.1.2,5101,172.16.3.2,17621,1073725440,14480,34,65728,65728,6,6,4,1460,126875,1,16778209,390000,33580,0,65700,0,0,4,1117258852,63
i,1723548805.519798,172.16.1.2,5101,172.16.3.2,17621,1073725440,14480,34,65728,65728,6,6,4,1460,126875,1,16778208,390000,33580,0,65700,0,0,4,1117258852,63
o,1723548805.519829,172.16.1.2,5101,172.16.3.2,17621,1073725440,14480,34,65728,65728,6,6,4,1460,126875,1,16778209,390000,33580,0,65700,0,0,5,1117258852,63
i,1723548805.523004,172.16.1.2,5102,172.16.5.2,26395,1073725440,14480,34,65728,65700,6,6,4,1460,131250,1,16778208,370000,33580,0,65700,0,0,2,1610086827,63
o,1723548805.523025,172.16.1.2,5102,172.16.5.2,26395,1073725440,14480,34,65728,65700,6,6,4,1460,131250,1,16778209,370000,33580,0,65700,1448,0,2,1610086827,63
i,1723548805.553856,172.16.1.2,5102,172.16.5.2,26395,1073725440,14480,34,65728,65700,6,6,4,1460,131250,1,16778208,370000,33580,0,65700,0,0,2,1610086827,63
i,1723548805.582552,172.16.1.2,5102,172.16.5.2,26395,1073725440,14480,34,65728,65700,6,6,4,1460,131250,1,16778208,370000,33580,0,65700,0,0,2,1610086827,63
i,1723548805.603090,172.16.1.2,5101,172.16.3.2,17621,1073725440,14480,34,65728,65728,6,6,4,1460,126875,1,16778208,390000,33580,0,65700,0,0,5,1117258852,63
o,1723548805.603109,172.16.1.2,5101,172.16.3.2,17621,1073725440,14480,34,65728,65728,6,6,4,1460,126875,1,16778209,390000,33580,0,65700,0,0,6,1117258852,63
i,1723548805.612804,172.16.1.2,5101,172.16.3.2,17621,1073725440,14480,34,65728,65728,6,6,4,1460,126875,1,16778208,390000,33580,0,65700,0,0,6,1117258852,63
o,1723548805.612894,172.16.1.2,5101,172.16.3.2,17621,1073725440,14480,34,65728,65728,6,6,4,1460,126875,1,16778209,390000,33580,0,65700,8688,0,5,1117258852,63
i,1723548805.623407,172.16.1.2,5101,172.16.3.2,17621,1073725440,14480,34,65728,65728,6,6,4,1460,126875,1,16778208,390000,33580,0,65700,0,0,5,1117258852,63
o,1723548805.623479,172.16.1.2,5101,172.16.3.2,17621,1073725440,14480,34,65728,65700,6,6,4,1460,126875,1,16778209,390000,33580,0,65700,4344,0,4,1117258852,63
i,1723548805.655335,172.16.1.2,5101,172.16.3.2,17621,1073725440,14480,34,65728,65700,6,6,4,1460,126875,1,16778208,390000,33580,0,65700,0,0,4,1117258852,63
o,1723548805.655354,172.16.1.2,5101,172.16.3.2,17621,1073725440,14480,34,65728,65700,6,6,4,1460,126875,1,16778209,390000,33580,0,65700,0,0,4,1117258852,63
i,1723548805.673265,172.16.1.2,5102,172.16.5.2,26395,1073725440,14480,34,65728,65700,6,6,4,1460,131250,1,16778208,370000,33580,0,65700,0,0,2,1610086827,63
o,1723548805.673285,172.16.1.2,5102,172.16.5.2,26395,1073725440,14480,34,65728,65700,6,6,4,1460,131250,1,16778209,370000,33580,0,65700,1448,0,2,1610086827,63
i,1723548805.707869,172.16.1.2,5101,172.16.3.2,17621,1073725440,14480,34,65728,65700,6,6,4,1460,126875,1,16778208,390000,33580,0,65700,0,0,4,1117258852,63
o,1723548805.707909,172.16.1.2,5101,172.16.3.2,17621,1073725440,14480,34,65728,65728,6,6,4,1460,126875,1,16778209,390000,33580,0,65700,0,0,4,1117258852,63
i,1723548805.752511,172.16.1.2,5101,172.16.3.2,17621,1073725440,14480,34,65728,65728,6,6,4,1460,126875,1,16778208,390000,33580,0,65700,0,0,4,1117258852,63
o,1723548805.752541,172.16.1.2,5101,172.16.3.2,17621,1073725440,14480,34,65728,65728,6,6,4,1460,126875,1,16778209,390000,33580,0,65700,0,0,3,1117258852,63
i,1723548805.763153,172.16.1.2,5101,172.16.3.2,17621,1073725440,14480,34,65728,65728,6,6,4,1460,126875,1,16778208,390000,33580,0,65700,0,0,3,1117258852,63
o,1723548805.763188,172.16.1.2,5101,172.16.3.2,17621,1073725440,14480,34,65728,65728,6,6,4,1460,126875,1,16778209,390000,33580,0,65700,0,0,3,1117258852,63
i,1723548805.773290,172.16.1.2,5101,172.16.3.2,17621,1073725440,14480,34,65728,65728,6,6,4,1460,126875,1,16778208,390000,33580,0,65700,0,0,3,1117258852,63
o,1723548805.773358,172.16.1.2,5101,172.16.3.2,17621,1073725440,14480,34,65728,65728,6,6,4,1460,126875,1,16778209,390000,33580,0,65700,0,0,2,1117258852,63
i,1723548805.849384,172.16.1.2,5102,172.16.5.2,26395,1073725440,14480,34,65728,65700,6,6,4,1460,131250,1,16778208,370000,33580,0,65700,0,0,2,1610086827,63
o,1723548805.849482,172.16.1.2,5102,172.16.5.2,26395,1073725440,14480,34,65728,65700,6,6,4,1460,131250,1,16778209,370000,33580,0,65700,2896,0,1,1610086827,63
i,1723548805.855062,172.16.1.2,5102,172.16.5.2,26395,1073725440,14480,34,65728,65700,6,6,4,1460,131250,1,16778208,370000,33580,0,65700,0,0,1,1610086827,63
o,1723548805.855251,172.16.1.2,5102,172.16.5.2,26395,1073725440,14480,34,65728,65700,6,6,4,1460,131250,1,16778209,370000,33580,0,65700,2896,0,0,1610086827,63
i,1723548805.925357,172.16.1.2,5101,172.16.3.2,17621,1073725440,14480,34,65728,65728,6,6,4,1460,126875,1,16778208,390000,33580,0,65700,0,0,2,1117258852,63
o,1723548805.925405,172.16.1.2,5101,172.16.3.2,17621,1073725440,14480,34,65728,65728,6,6,4,1460,126875,1,16778209,390000,33580,0,65700,0,0,3,1117258852,63
i,1723548805.943122,172.16.1.2,5101,172.16.3.2,17621,1073725440,14480,34,65728,65728,6,6,4,1460,126875,1,16778208,390000,33580,0,65700,0,0,3,1117258852,63
o,1723548805.943142,172.16.1.2,5101,172.16.3.2,17621,1073725440,14480,34,65728,65728,6,6,4,1460,126875,1,16778209,390000,33580,0,65700,0,0,3,1117258852,63
i,1723548805.977471,172.16.1.2,5101,172.16.3.2,17621,1073725440,14480,34,65728,65728,6,6,4,1460,126875,1,16778208,390000,33580,0,65700,0,0,3,1117258852,63
o,1723548805.977501,172.16.1.2,5101,172.16.3.2,17621,1073725440,14480,34,65728,65728,6,6,4,1460,126875,1,16778209,390000,33580,0,65700,0,0,3,1117258852,63
i,1723548805.982987,172.16.1.2,5101,172.16.3.2,17621,1073725440,14480,34,65728,65728,6,6,4,1460,126875,1,16778208,390000,33580,0,65700,0,0,3,1117258852,63
o,1723548805.983005,172.16.1.2,5101,172.16.3.2,17621,1073725440,14480,34,65728,65728,6,6,4,1460,126875,1,16778209,390000,33580,0,65700,0,0,3,1117258852,63
i,1723548806.004042,172.16.1.2,5102,172.16.5.2,26395,1073725440,14480,34,65728,65700,6,6,4,1460,131250,1,16778208,370000,33580,0,65700,0,0,0,1610086827,63
o,1723548806.004274,172.16.1.2,5102,172.16.5.2,26395,1073725440,14480,34,65728,65700,6,6,4,1460,131250,1,16778209,370000,33580,0,65700,0,0,0,1610086827,63
i,1723548806.013302,172.16.1.2,5102,172.16.5.2,26395,1073725440,14480,34,65728,65700,6,6,4,1460,131250,1,16778208,370000,33580,0,65700,0,0,0,1610086827,63
i,1723548806.022993,172.16.1.2,5101,172.16.3.2,17621,1073725440,14480,34,65728,65728,6,6,4,1460,126875,1,16778208,390000,33580,0,65700,0,0,3,1117258852,63
o,1723548806.023022,172.16.1.2,5101,172.16.3.2,17621,1073725440,14480,34,65728,65728,6,6,4,1460,126875,1,16778209,390000,33580,0,65700,0,0,3,1117258852,63
o,1723548806.048922,172.16.1.2,5102,172.16.5.2,26395,1073725440,14480,34,65728,65700,6,6,4,1460,131250,1,16778209,370000,33580,0,65700,0,0,0,1610086827,63
i,1723548806.102293,172.16.1.2,5101,172.16.3.2,17621,1073725440,14480,34,65728,65728,6,6,4,1460,126875,1,16778208,390000,33580,0,65700,0,0,3,1117258852,63
o,1723548806.102342,172.16.1.2,5101,172.16.3.2,17621,1073725440,14480,34,65728,65728,6,6,4,1460,126875,1,16778209,390000,33580,0,65700,0,0,3,1117258852,63
i,1723548806.163143,172.16.1.2,5101,172.16.3.2,17621,1073725440,14480,34,65728,65728,6,6,4,1460,126875,1,16778208,390000,33580,0,65700,0,0,3,1117258852,63
o,1723548806.163170,172.16.1.2,5101,172.16.3.2,17621,1073725440,14480,34,65728,65728,6,6,4,1460,126875,1,16778209,390000,33580,0,65700,0,0,3,1117258852,63
i,1723548806.187794,172.16.1.2,5101,172.16.3.2,17621,1073725440,14480,34,65728,65728,6,6,4,1460,126875,1,16778208,390000,33580,0,65700,0,0,3,1117258852,63
o,1723548806.187822,172.16.1.2,5101,172.16.3.2,17621,1073725440,14480,34,65728,65728,6,6,4,1460,126875,1,16778209,390000,33580,0,65700,0,0,3,1117258852,63
i,1723548806.206806,172.16.1.2,5102,172.16.5.2,26395,1073725440,14480,34,65728,65700,6,6,4,1460,131250,1,16778208,370000,33580,0,65700,0,0,0,1610086827,63
i,1723548806.223233,172.16.1.2,5102,172.16.5.2,26395,1073725440,14480,34,65728,65700,6,6,4,1460,131250,1,16778208,370000,33580,0,65700,0,0,0,1610086827,63
o,1723548806.223305,172.16.1.2,5102,172.16.5.2,26395,1073725440,14480,34,65728,65700,6,6,4,1460,131250,1,16778209,370000,33580,0,65700,1448,0,0,1610086827,63
i,1723548806.248777,172.16.1.2,5101,172.16.3.2,17621,1073725440,14480,34,65728,65728,6,6,4,1460,126875,1,16778208,390000,33580,0,65700,0,0,3,1117258852,63
o,1723548806.248797,172.16.1.2,5101,172.16.3.2,17621,1073725440,14480,34,65728,65728,6,6,4,1460,126875,1,16778209,390000,33580,0,65700,0,0,3,1117258852,63
i,1723548806.253093,172.16.1.2,5102,172.16.5.2,26395,1073725440,14480,34,65728,65700,6,6,4,1460,131250,1,16778208,370000,33580,0,65700,0,0,0,1610086827,63
i,1723548806.274551,172.16.1.2,5102,172.16.5.2,26395,1073725440,14480,34,65728,65700,6,6,4,1460,131250,1,16778208,370000,33580,0,65700,0,0,0,1610086827,63
o,1723548806.274585,172.16.1.2,5102,172.16.5.2,26395,1073725440,14480,34,65728,65700,6,6,4,1460,131250,1,16778209,370000,33580,0,65700,1448,0,0,1610086827,63
i,1723548806.284567,172.16.1.2,5101,172.16.3.2,17621,1073725440,14480,34,65728,65728,6,6,4,1460,126875,1,16778208,390000,33580,0,65700,0,0,3,1117258852,63
o,1723548806.284655,172.16.1.2,5101,172.16.3.2,17621,1073725440,14480,34,65728,65728,6,6,4,1460,126875,1,16778209,390000,33580,0,65700,0,0,3,1117258852,63
o,1723548806.289399,10.0.2.15,22,10.0.2.2,52280,1073725440,14600,1026,65535,65700,0,0,4,1460,312,0,16777220,240000,33580,108,65700,0,0,0,3007839365,63
i,1723548806.290538,10.0.2.15,22,10.0.2.2,52280,1073725440,14600,1026,65535,65700,0,0,4,1460,312,0,16777220,240000,33580,108,65700,0,108,0,3007839365,63
i,1723548806.329455,172.16.1.2,5101,172.16.3.2,17621,1073725440,14480,34,65728,65728,6,6,4,1460,126875,1,16778208,390000,33580,0,65700,0,0,3,1117258852,63
o,1723548806.329558,172.16.1.2,5101,172.16.3.2,17621,1073725440,14480,34,65728,65728,6,6,4,1460,126875,1,16778209,390000,33580,0,65700,0,0,3,1117258852,63
o,1723548806.329807,10.0.2.15,22,10.0.2.2,52288,1073725440,14600,1026,65535,65700,0,0,4,1460,312,0,16777220,240000,33580,108,65700,0,0,0,48828706,63
i,1723548806.330944,10.0.2.15,22,10.0.2.2,52288,1073725440,14600,1026,65535,65700,0,0,4,1460,312,0,16777220,240000,33580,108,65700,0,108,0,48828706,63
i,1723548806.371861,172.16.1.2,5101,172.16.3.2,17621,1073725440,14480,34,65728,65728,6,6,4,1460,126875,1,16778208,390000,33580,0,65700,0,0,3,1117258852,63
o,1723548806.372003,172.16.1.2,5101,172.16.3.2,17621,1073725440,14480,34,65728,65728,6,6,4,1460,126875,1,16778209,390000,33580,0,65700,0,0,3,1117258852,63
i,1723548806.412520,172.16.1.2,5102,172.16.5.2,26395,1073725440,14480,34,65728,65700,6,6,4,1460,131250,1,16778208,370000,33580,0,65700,0,0,0,1610086827,63
i,1723548806.426186,172.16.1.2,5101,172.16.3.2,17621,1073725440,14480,34,65728,65728,6,6,4,1460,126875,1,16778208,390000,33580,0,65700,0,0,3,1117258852,63
o,1723548806.426204,172.16.1.2,5101,172.16.3.2,17621,1073725440,14480,34,65728,65728,6,6,4,1460,126875,1,16778209,390000,33580,0,65700,0,0,3,1117258852,63
i,1723548806.432968,172.16.1.2,5102,172.16.5.2,26395,1073725440,14480,34,65728,65700,6,6,4,1460,131250,1,16778208,370000,33580,0,65700,0,0,0,1610086827,63
o,1723548806.433025,172.16.1.2,5102,172.16.5.2,26395,1073725440,14480,34,65728,65700,6,6,4,1460,131250,1,16778209,370000,33580,0,65700,1448,0,0,1610086827,63
i,1723548806.477580,172.16.1.2,5101,172.16.3.2,17621,1073725440,14480,34,65728,65728,6,6,4,1460,126875,1,16778208,390000,33580,0,65700,0,0,3,1117258852,63
o,1723548806.477609,172.16.1.2,5101,172.16.3.2,17621,1073725440,14480,34,65728,65728,6,6,4,1460,126875,1,16778209,390000,33580,0,65700,0,0,3,1117258852,63
i,1723548806.513020,172.16.1.2,5102,172.16.5.2,26395,1073725440,14480,34,65728,65700,6,6,4,1460,131250,1,16778208,370000,33580,0,65700,0,0,0,1610086827,63
i,1723548806.539303,172.16.1.2,5102,172.16.5.2,26395,1073725440,14480,34,65728,65700,6,6,4,1460,131250,1,16778208,370000,33580,0,65700,0,0,0,1610086827,63
o,1723548806.539324,172.16.1.2,5102,172.16.5.2,26395,1073725440,14480,34,65728,65700,6,6,4,1460,131250,1,16778209,370000,33580,0,65700,1448,0,0,1610086827,63
i,1723548806.552678,172.16.1.2,5101,172.16.3.2,17621,1073725440,14480,34,65728,65728,6,6,4,1460,126875,1,16778208,390000,33580,0,65700,0,0,3,1117258852,63
o,1723548806.552696,172.16.1.2,5101,172.16.3.2,17621,1073725440,14480,34,65728,65728,6,6,4,1460,126875,1,16778209,390000,33580,0,65700,0,0,3,1117258852,63
i,1723548806.570434,172.16.1.2,5102,172.16.5.2,26395,1073725440,14480,34,65728,65700,6,6,4,1460,131250,1,16778208,370000,33580,0,65700,0,0,0,1610086827,63
i,1723548806.602031,172.16.1.2,5102,172.16.5.2,26395,1073725440,14480,34,65728,65700,6,6,4,1460,131250,1,16778208,370000,33580,0,65700,0,0,0,1610086827,63
o,1723548806.602062,172.16.1.2,5102,172.16.5.2,26395,1073725440,14480,34,65728,65700,6,6,4,1460,131250,1,16778209,370000,33580,0,65700,1448,0,0,1610086827,63
i,1723548806.603017,172.16.1.2,5101,172.16.3.2,17621,1073725440,14480,34,65728,65728,6,6,4,1460,126875,1,16778208,390000,33580,0,65700,0,0,3,1117258852,63
o,1723548806.603042,172.16.1.2,5101,172.16.3.2,17621,1073725440,14480,34,65728,65728,6,6,4,1460,126875,1,16778209,390000,33580,0,65700,0,0,3,1117258852,63
i,1723548806.633628,172.16.1.2,5101,172.16.3.2,17621,1073725440,14480,34,65728,65728,6,6,4,1460,126875,1,16778208,390000,33580,0,65700,0,0,3,1117258852,63
o,1723548806.633645,172.16.1.2,5101,172.16.3.2,17621,1073725440,14480,34,65728,65728,6,6,4,1460,126875,1,16778209,390000,33580,0,65700,0,0,3,1117258852,63
i,1723548806.675154,172.16.1.2,5101,172.16.3.2,17621,1073725440,14480,34,65728,65728,6,6,4,1460,126875,1,16778208,390000,33580,0,65700,0,0,3,1117258852,63
o,1723548806.675171,172.16.1.2,5101,172.16.3.2,17621,1073725440,14480,34,65728,65728,6,6,4,1460,126875,1,16778209,390000,33580,0,65700,0,0,3,1117258852,63
i,1723548806.712452,172.16.1.2,5102,172.16.5.2,26395,1073725440,14480,34,65728,65700,6,6,4,1460,131250,1,16778208,370000,33580,0,65700,0,0,0,1610086827,63
i,1723548806.727419,172.16.1.2,5101,172.16.3.2,17621,1073725440,14480,34,65728,65728,6,6,4,1460,126875,1,16778208,390000,33580,0,65700,0,0,3,1117258852,63
o,1723548806.727443,172.16.1.2,5101,172.16.3.2,17621,1073725440,14480,34,65728,65728,6,6,4,1460,126875,1,16778209,390000,33580,0,65700,0,0,3,1117258852,63
i,1723548806.733431,172.16.1.2,5102,172.16.5.2,26395,1073725440,14480,34,65728,65700,6,6,4,1460,131250,1,16778208,370000,33580,0,65700,0,0,0,1610086827,63
o,1723548806.733542,172.16.1.2,5102,172.16.5.2,26395,1073725440,14480,34,65728,65700,6,6,4,1460,131250,1,16778209,370000,33580,0,65700,1448,0,0,1610086827,63
i,1723548806.766711,172.16.1.2,5102,172.16.5.2,26395,1073725440,14480,34,65728,65700,6,6,4,1460,131250,1,16778208,370000,33580,0,65700,0,0,0,1610086827,63
i,1723548806.775841,172.16.1.2,5101,172.16.3.2,17621,1073725440,14480,34,65728,65728,6,6,4,1460,126875,1,16778208,390000,33580,0,65700,0,0,3,1117258852,63
o,1723548806.775904,172.16.1.2,5101,172.16.3.2,17621,1073725440,14480,34,65728,65728,6,6,4,1460,126875,1,16778209,390000,33580,0,65700,0,0,3,1117258852,63
o,1723548806.798242,172.16.1.2,5102,172.16.5.2,26395,1073725440,14480,34,65728,65700,6,6,4,1460,131250,1,16778209,370000,33580,0,65700,0,0,0,1610086827,63
i,1723548806.844066,172.16.1.2,5101,172.16.3.2,17621,1073725440,14480,34,65728,65728,6,6,4,1460,126875,1,16778208,390000,33580,0,65700,0,0,3,1117258852,63
o,1723548806.844098,172.16.1.2,5101,172.16.3.2,17621,1073725440,14480,34,65728,65728,6,6,4,1460,126875,1,16778209,390000,33580,0,65700,0,0,3,1117258852,63
i,1723548806.862287,172.16.1.2,5102,172.16.5.2,26395,1073725440,14480,34,65728,65700,6,6,4,1460,131250,1,16778208,370000,33580,0,65700,0,0,0,1610086827,63
i,1723548806.882224,172.16.1.2,5102,172.16.5.2,26395,1073725440,14480,34,65728,65700,6,6,4,1460,131250,1,16778208,370000,33580,0,65700,0,0,0,1610086827,63
o,1723548806.882245,172.16.1.2,5102,172.16.5.2,26395,1073725440,14480,34,65728,65700,6,6,4,1460,131250,1,16778209,370000,33580,0,65700,1448,0,0,1610086827,63
i,1723548806.893986,172.16.1.2,5101,172.16.3.2,17621,1073725440,14480,34,65728,65728,6,6,4,1460,126875,1,16778208,390000,33580,0,65700,0,0,3,1117258852,63
o,1723548806.894023,172.16.1.2,5101,172.16.3.2,17621,1073725440,14480,34,65728,65728,6,6,4,1460,126875,1,16778209,390000,33580,0,65700,0,0,3,1117258852,63
i,1723548806.969496,172.16.1.2,5102,172.16.5.2,26395,1073725440,14480,34,65728,65700,6,6,4,1460,131250,1,16778208,370000,33580,0,65700,0,0,0,1610086827,63
i,1723548806.983341,172.16.1.2,5102,172.16.5.2,26395,1073725440,14480,34,65728,65700,6,6,4,1460,131250,1,16778208,370000,33580,0,65700,0,0,0,1610086827,63
o,1723548806.983418,172.16.1.2,5102,172.16.5.2,26395,1073725440,14480,34,65728,65700,6,6,4,1460,131250,1,16778209,370000,33580,0,65700,1448,0,0,1610086827,63
i,1723548806.998611,172.16.1.2,5101,172.16.3.2,17621,1073725440,14480,34,65728,65728,6,6,4,1460,126875,1,16778208,390000,33580,0,65700,0,0,3,1117258852,63
o,1723548806.998642,172.16.1.2,5101,172.16.3.2,17621,1073725440,14480,34,65728,65728,6,6,4,1460,126875,1,16778209,390000,33580,0,65700,0,0,3,1117258852,63
i,1723548807.032541,172.16.1.2,5102,172.16.5.2,26395,1073725440,14480,34,65728,65700,6,6,4,1460,131250,1,16778208,370000,33580,0,65700,0,0,0,1610086827,63
i,1723548807.042979,172.16.1.2,5101,172.16.3.2,17621,1073725440,14480,34,65728,65728,6,6,4,1460,126875,1,16778208,390000,33580,0,65700,0,0,3,1117258852,63
o,1723548807.043045,172.16.1.2,5101,172.16.3.2,17621,1073725440,14480,34,65728,65728,6,6,4,1460,126875,1,16778209,390000,33580,0,65700,4344,0,2,1117258852,63
i,1723548807.052559,172.16.1.2,5102,172.16.5.2,26395,1073725440,14480,34,65728,65700,6,6,4,1460,131250,1,16778208,370000,33580,0,65700,0,0,0,1610086827,63
o,1723548807.052620,172.16.1.2,5102,172.16.5.2,26395,1073725440,14480,34,65728,65700,6,6,4,1460,131250,1,16778209,370000,33580,0,65700,1448,0,0,1610086827,63
i,1723548807.095688,172.16.1.2,5101,172.16.3.2,17621,1073725440,14480,34,65728,65728,6,6,4,1460,126875,1,16778208,390000,33580,0,65700,0,0,2,1117258852,63
o,1723548807.095745,172.16.1.2,5101,172.16.3.2,17621,1073725440,14480,34,65728,65700,6,6,4,1460,126875,1,16778209,390000,33580,0,65700,0,0,2,1117258852,63
i,1723548807.148607,172.16.1.2,5101,172.16.3.2,17621,1073725440,14480,34,65728,65700,6,6,4,1460,126875,1,16778208,390000,33580,0,65700,0,0,2,1117258852,63
o,1723548807.148680,172.16.1.2,5101,172.16.3.2,17621,1073725440,14480,34,65728,65728,6,6,4,1460,126875,1,16778209,390000,33580,0,65700,14480,0,1,1117258852,63
i,1723548807.148829,172.16.1.2,5102,172.16.5.2,26395,1073725440,14480,34,65728,65700,6,6,4,1460,131250,1,16778208,370000,33580,0,65700,0,0,0,1610086827,63
i,1723548807.175487,172.16.1.2,5101,172.16.3.2,17621,1073725440,14480,34,65728,65728,6,6,4,1460,126875,1,16778208,390000,33580,0,65700,0,0,1,1117258852,63
o,1723548807.175507,172.16.1.2,5101,172.16.3.2,17621,1073725440,14480,34,65728,65700,6,6,4,1460,126875,1,16778209,390000,33580,0,65700,0,0,1,1117258852,63
o,1723548807.189964,172.16.1.2,5102,172.16.5.2,26395,1073725440,14480,34,65728,65700,6,6,4,1460,131250,1,16778209,370000,33580,0,65700,0,0,0,1610086827,63
i,1723548807.193552,172.16.1.2,5101,172.16.3.2,17621,1073725440,14480,34,65728,65700,6,6,4,1460,126875,1,16778208,390000,33580,0,65700,0,0,1,1117258852,63
o,1723548807.193575,172.16.1.2,5101,172.16.3.2,17621,1073725440,14480,34,65728,65728,6,6,4,1460,126875,1,16778209,390000,33580,0,65700,0,0,1,1117258852,63
i,1723548807.238629,172.16.1.2,5102,172.16.5.2,26395,1073725440,14480,34,65728,65700,6,6,4,1460,131250,1,16778208,370000,33580,0,65700,0,0,0,1610086827,63
i,1723548807.243025,172.16.1.2,5101,172.16.3.2,17621,1073725440,14480,34,65728,65728,6,6,4,1460,126875,1,16778208,390000,33580,0,65700,0,0,1,1117258852,63
o,1723548807.243044,172.16.1.2,5101,172.16.3.2,17621,1073725440,14480,34,65728,65728,6,6,4,1460,126875,1,16778209,390000,33580,0,65700,0,0,1,1117258852,63
i,1723548807.253318,172.16.1.2,5102,172.16.5.2,26395,1073725440,14480,34,65728,65700,6,6,4,1460,131250,1,16778208,370000,33580,0,65700,0,0,0,1610086827,63
o,1723548807.253385,172.16.1.2,5102,172.16.5.2,26395,1073725440,14480,34,65728,65700,6,6,4,1460,131250,1,16778209,370000,33580,0,65700,1448,0,0,1610086827,63
i,1723548807.279542,172.16.1.2,5101,172.16.3.2,17621,1073725440,14480,34,65728,65728,6,6,4,1460,126875,1,16778208,390000,33580,0,65700,0,0,1,1117258852,63
o,1723548807.279561,172.16.1.2,5101,172.16.3.2,17621,1073725440,14480,34,65728,65728,6,6,4,1460,126875,1,16778209,390000,33580,0,65700,0,0,1,1117258852,63
o,1723548807.299923,10.0.2.15,22,10.0.2.2,52280,1073725440,14600,1026,65535,65700,0,0,4,1460,312,0,16777220,240000,33580,108,65700,0,0,0,3007839365,63
i,1723548807.301299,172.16.1.2,5101,172.16.3.2,17621,1073725440,14480,34,65728,65728,6,6,4,1460,126875,1,16778208,390000,33580,0,65700,0,0,1,1117258852,63
o,1723548807.301320,172.16.1.2,5101,172.16.3.2,17621,1073725440,14480,34,65728,65728,6,6,4,1460,126875,1,16778209,390000,33580,0,65700,0,0,1,1117258852,63
i,1723548807.301558,10.0.2.15,22,10.0.2.2,52280,1073725440,14600,1026,65535,65700,0,0,4,1460,312,0,16777220,240000,33580,108,65700,0,108,0,3007839365,63
o,1723548807.308401,10.0.2.15,22,10.0.2.2,52288,1073725440,14600,1026,65535,65700,0,0,4,1460,312,0,16777220,240000,33580,108,65700,0,0,0,48828706,63
i,1723548807.309572,10.0.2.15,22,10.0.2.2,52288,1073725440,14600,1026,65535,65700,0,0,4,1460,312,0,16777220,240000,33580,108,65700,0,108,0,48828706,63
i,1723548807.343279,172.16.1.2,5102,172.16.5.2,26395,1073725440,14480,34,65728,65700,6,6,4,1460,131250,1,16778208,370000,33580,0,65700,0,0,0,1610086827,63
i,1723548807.343805,172.16.1.2,5101,172.16.3.2,17621,1073725440,14480,34,65728,65728,6,6,4,1460,126875,1,16778208,390000,33580,0,65700,0,0,1,1117258852,63
i,1723548807.352434,172.16.1.2,5102,172.16.5.2,26395,1073725440,14480,34,65728,65700,6,6,4,1460,131250,1,16778208,370000,33580,0,65700,0,0,0,1610086827,63
o,1723548807.352623,172.16.1.2,5102,172.16.5.2,26395,1073725440,14480,34,65728,65700,6,6,4,1460,131250,1,16778209,370000,33580,0,65700,1448,0,0,1610086827,63
i,1723548807.370429,172.16.1.2,5102,172.16.5.2,26395,1073725440,14480,34,65728,65700,6,6,4,1460,131250,1,16778208,370000,33580,0,65700,0,0,0,1610086827,63
i,1723548807.383888,172.16.1.2,5101,172.16.3.2,17621,1073725440,14480,34,65728,65728,6,6,4,1460,126875,1,16778208,390000,33580,0,65700,0,0,1,1117258852,63
o,1723548807.383921,172.16.1.2,5101,172.16.3.2,17621,1073725440,14480,34,65728,65728,6,6,4,1460,126875,1,16778209,390000,33580,0,65700,41992,0,0,1117258852,63
o,1723548807.384054,172.16.1.2,5101,172.16.3.2,17621,1073725440,14480,34,65728,65728,6,6,4,1460,126875,1,16778208,390000,33580,0,65700,0,0,0,1117258852,63
i,1723548807.393692,172.16.1.2,5102,172.16.5.2,26395,1073725440,14480,34,65728,65700,6,6,4,1460,131250,1,16778208,370000,33580,0,65700,0,0,0,1610086827,63
o,1723548807.393712,172.16.1.2,5102,172.16.5.2,26395,1073725440,14480,34,65728,65700,6,6,4,1460,131250,1,16778209,370000,33580,0,65700,1448,0,0,1610086827,63
i,1723548807.404472,172.16.1.2,5102,172.16.5.2,26395,1073725440,14480,34,65728,65700,6,6,4,1460,131250,1,16778208,370000,33580,0,65700,0,0,0,1610086827,63
o,1723548807.443685,172.16.1.2,5102,172.16.5.2,26395,1073725440,14480,34,65728,65700,6,6,4,1460,131250,1,16778209,370000,33580,0,65700,0,0,0,1610086827,63
i,1723548807.445488,172.16.1.2,5102,172.16.5.2,26395,1073725440,14480,34,65728,65700,6,6,4,1460,131250,1,16778208,370000,33580,0,65700,0,0,0,1610086827,63
i,1723548807.453617,172.16.1.2,5102,172.16.5.2,26395,1073725440,14480,34,65728,65700,6,6,4,1460,131250,1,16778208,370000,33580,0,65700,0,0,0,1610086827,63
o,1723548807.453641,172.16.1.2,5102,172.16.5.2,26395,1073725440,14480,34,65728,65700,6,6,4,1460,131250,1,16778209,370000,33580,0,65700,1448,0,0,1610086827,63
i,1723548807.549255,172.16.1.2,5101,172.16.3.2,17621,1073725440,14480,34,65728,65728,6,6,4,1460,126875,1,16778208,390000,33580,0,65700,0,0,0,1117258852,63
o,1723548807.549649,172.16.1.2,5101,172.16.3.2,17621,1073725440,14480,34,65728,65728,6,6,4,1460,126875,1,16778209,390000,33580,0,65700,0,0,0,1117258852,63
i,1723548807.553458,172.16.1.2,5102,172.16.5.2,26395,1073725440,14480,34,65728,65700,6,6,4,1460,131250,1,16778208,370000,33580,0,65700,0,0,0,1610086827,63
i,1723548807.570482,172.16.1.2,5101,172.16.3.2,17621,1073725440,14480,34,65728,65728,6,6,4,1460,126875,1,16778208,390000,33580,0,65700,0,0,0,1117258852,63
o,1723548807.588014,172.16.1.2,5102,172.16.5.2,26395,1073725440,14480,34,65728,65700,6,6,4,1460,131250,1,16778209,370000,33580,0,65700,0,0,0,1610086827,63
i,1723548807.593058,172.16.1.2,5101,172.16.3.2,17621,1073725440,14480,34,65728,65728,6,6,4,1460,126875,1,16778208,390000,33580,0,65700,0,0,0,1117258852,63
o,1723548807.593148,172.16.1.2,5101,172.16.3.2,17621,1073725440,14480,34,65728,65728,6,6,4,1460,126875,1,16778209,390000,33580,0,65700,1448,0,0,1117258852,63
i,1723548807.623253,172.16.1.2,5102,172.16.5.2,26395,1073725440,14480,34,65728,65700,6,6,4,1460,131250,1,16778208,370000,33580,0,65700,0,0,0,1610086827,63
i,1723548807.623285,172.16.1.2,5102,172.16.5.2,26395,1073725440,14480,34,65728,65700,6,6,4,1460,131250,1,16778208,370000,33580,0,65700,1448,0,0,1610086827,63
o,1723548807.623316,172.16.1.2,5102,172.16.5.2,26395,1073725440,14480,34,65728,65700,6,6,4,1460,131250,1,16778209,370000,33580,0,65700,2896,0,0,1610086827,63
i,1723548807.705381,172.16.1.2,5102,172.16.5.2,26395,1073725440,14480,34,65728,65700,6,6,4,1460,131250,1,16778208,370000,33580,0,65700,0,0,0,1610086827,63
i,1723548807.705587,172.16.1.2,5101,172.16.3.2,17621,1073725440,14480,34,65728,65728,6,6,4,1460,126875,1,16778208,390000,33580,0,65700,0,0,0,1117258852,63
o,1723548807.737776,172.16.1.2,5101,172.16.3.2,17621,1073725440,14480,34,65728,65728,6,6,4,1460,126875,1,16778209,390000,33580,0,65700,0,0,0,1117258852,63
o,1723548807.737875,172.16.1.2,5102,172.16.5.2,26395,1073725440,14480,34,65728,65700,6,6,4,1460,131250,1,16778209,370000,33580,0,65700,0,0,0,1610086827,63
i,1723548807.742214,172.16.1.2,5102,172.16.5.2,26395,1073725440,14480,34,65728,65700,6,6,4,1460,131250,1,16778208,370000,33580,0,65700,0,0,0,1610086827,63
i,1723548807.766996,172.16.1.2,5102,172.16.5.2,26395,1073725440,14480,34,65728,65700,6,6,4,1460,131250,1,16778208,370000,33580,0,65700,0,0,0,1610086827,63
o,1723548807.767066,172.16.1.2,5102,172.16.5.2,26395,1073725440,14480,34,65728,65700,6,6,4,1460,131250,1,16778209,370000,33580,0,65700,1448,0,0,1610086827,63
i,1723548807.767363,172.16.1.2,5101,172.16.3.2,17621,1073725440,14480,34,65728,65728,6,6,4,1460,126875,1,16778208,390000,33580,0,65700,0,0,0,1117258852,63
i,1723548807.773168,172.16.1.2,5101,172.16.3.2,17621,1073725440,14480,34,65728,65728,6,6,4,1460,126875,1,16778208,390000,33580,0,65700,0,0,0,1117258852,63
o,1723548807.773188,172.16.1.2,5101,172.16.3.2,17621,1073725440,14480,34,65728,65728,6,6,4,1460,126875,1,16778209,390000,33580,0,65700,1448,0,0,1117258852,63
i,1723548807.807772,172.16.1.2,5102,172.16.5.2,26395,1073725440,14480,34,65728,65700,6,6,4,1460,131250,1,16778208,370000,33580,0,65700,0,0,0,1610086827,63
o,1723548807.807816,172.16.1.2,5102,172.16.5.2,26395,1073725440,14480,34,65728,65700,6,6,4,1460,131250,1,16778209,370000,33580,0,65700,0,0,1,1610086827,63
i,1723548807.812498,172.16.1.2,5102,172.16.5.2,26395,1073725440,14480,34,65728,65700,6,6,4,1460,131250,1,16778208,370000,33580,0,65700,0,0,1,1610086827,63
o,1723548807.812526,172.16.1.2,5102,172.16.5.2,26395,1073725440,14480,34,65728,65728,6,6,4,1460,131250,1,16778209,370000,33580,0,65700,0,0,1,1610086827,63
i,1723548807.859303,172.16.1.2,5102,172.16.5.2,26395,1073725440,14480,34,65728,65728,6,6,4,1460,131250,1,16778208,370000,33580,0,65700,0,0,1,1610086827,63
o,1723548807.859409,172.16.1.2,5102,172.16.5.2,26395,1073725440,14480,34,65728,65728,6,6,4,1460,131250,1,16778209,370000,33580,0,65700,0,0,1,1610086827,63
i,1723548807.913712,172.16.1.2,5101,172.16.3.2,17621,1073725440,14480,34,65728,65728,6,6,4,1460,126875,1,16778208,390000,33580,0,65700,0,0,0,1117258852,63
i,1723548807.932142,172.16.1.2,5101,172.16.3.2,17621,1073725440,14480,34,65728,65728,6,6,4,1460,126875,1,16778208,390000,33580,0,65700,0,0,0,1117258852,63
o,1723548807.932208,172.16.1.2,5101,172.16.3.2,17621,1073725440,14480,34,65728,65728,6,6,4,1460,126875,1,16778209,390000,33580,0,65700,1448,0,0,1117258852,63
i,1723548807.952699,172.16.1.2,5102,172.16.5.2,26395,1073725440,14480,34,65728,65728,6,6,4,1460,131250,1,16778208,370000,33580,0,65700,0,0,1,1610086827,63
o,1723548807.952774,172.16.1.2,5102,172.16.5.2,26395,1073725440,14480,34,65728,65728,6,6,4,1460,131250,1,16778209,370000,33580,0,65700,0,0,1,1610086827,63
i,1723548807.963549,172.16.1.2,5101,172.16.3.2,17621,1073725440,14480,34,65728,65728,6,6,4,1460,126875,1,16778208,390000,33580,0,65700,0,0,0,1117258852,63
i,1723548807.978385,172.16.1.2,5102,172.16.5.2,26395,1073725440,14480,34,65728,65728,6,6,4,1460,131250,1,16778208,370000,33580,0,65700,0,0,1,1610086827,63
o,1723548807.978418,172.16.1.2,5102,172.16.5.2,26395,1073725440,14480,34,65728,65728,6,6,4,1460,131250,1,16778209,370000,33580,0,65700,0,0,1,1610086827,63
o,1723548807.997743,172.16.1.2,5101,172.16.3.2,17621,1073725440,14480,34,65728,65728,6,6,4,1460,126875,1,16778209,390000,33580,0,65700,0,0,0,1117258852,63
i,1723548808.025400,172.16.1.2,5102,172.16.5.2,26395,1073725440,14480,34,65728,65728,6,6,4,1460,131250,1,16778208,370000,33580,0,65700,0,0,1,1610086827,63
o,1723548808.025435,172.16.1.2,5102,172.16.5.2,26395,1073725440,14480,34,65728,65728,6,6,4,1460,131250,1,16778209,370000,33580,0,65700,0,0,1,1610086827,63
i,1723548808.077852,172.16.1.2,5101,172.16.3.2,17621,1073725440,14480,34,65728,65728,6,6,4,1460,126875,1,16778208,390000,33580,0,65700,0,0,0,1117258852,63
i,1723548808.084170,172.16.1.2,5101,172.16.3.2,17621,1073725440,14480,34,65728,65728,6,6,4,1460,126875,1,16778208,390000,33580,0,65700,0,0,0,1117258852,63
o,1723548808.084238,172.16.1.2,5101,172.16.3.2,17621,1073725440,14480,34,65728,65728,6,6,4,1460,126875,1,16778209,390000,33580,0,65700,1448,0,0,1117258852,63
i,1723548808.097410,172.16.1.2,5102,172.16.5.2,26395,1073725440,14480,34,65728,65728,6,6,4,1460,131250,1,16778208,370000,33580,0,65700,0,0,1,1610086827,63
o,1723548808.097430,172.16.1.2,5102,172.16.5.2,26395,1073725440,14480,34,65728,65728,6,6,4,1460,131250,1,16778209,370000,33580,0,65700,0,0,1,1610086827,63
i,1723548808.118369,172.16.1.2,5102,172.16.5.2,26395,1073725440,14480,34,65728,65728,6,6,4,1460,131250,1,16778208,370000,33580,0,65700,0,0,1,1610086827,63
o,1723548808.118389,172.16.1.2,5102,172.16.5.2,26395,1073725440,14480,34,65728,65728,6,6,4,1460,131250,1,16778209,370000,33580,0,65700,0,0,1,1610086827,63
i,1723548808.133139,172.16.1.2,5102,172.16.5.2,26395,1073725440,14480,34,65728,65728,6,6,4,1460,131250,1,16778208,370000,33580,0,65700,0,0,1,1610086827,63
o,1723548808.133160,172.16.1.2,5102,172.16.5.2,26395,1073725440,14480,34,65728,65728,6,6,4,1460,131250,1,16778209,370000,33580,0,65700,0,0,1,1610086827,63
i,1723548808.170555,172.16.1.2,5102,172.16.5.2,26395,1073725440,14480,34,65728,65728,6,6,4,1460,131250,1,16778208,370000,33580,0,65700,0,0,1,1610086827,63
o,1723548808.170668,172.16.1.2,5102,172.16.5.2,26395,1073725440,14480,34,65728,65728,6,6,4,1460,131250,1,16778209,370000,33580,0,65700,14480,0,0,1610086827,63
i,1723548808.173687,172.16.1.2,5101,172.16.3.2,17621,1073725440,14480,34,65728,65728,6,6,4,1460,126875,1,16778208,390000,33580,0,65700,0,0,0,1117258852,63
i,1723548808.182691,172.16.1.2,5102,172.16.5.2,26395,1073725440,14480,34,65728,65728,6,6,4,1460,131250,1,16778208,370000,33580,0,65700,0,0,0,1610086827,63
o,1723548808.182710,172.16.1.2,5102,172.16.5.2,26395,1073725440,14480,34,65728,65700,6,6,4,1460,131250,1,16778209,370000,33580,0,65700,0,0,1,1610086827,63
o,1723548808.207849,172.16.1.2,5101,172.16.3.2,17621,1073725440,14480,34,65728,65728,6,6,4,1460,126875,1,16778209,390000,33580,0,65700,0,0,0,1117258852,63
i,1723548808.254071,172.16.1.2,5102,172.16.5.2,26395,1073725440,14480,34,65728,65700,6,6,4,1460,131250,1,16778208,370000,33580,0,65700,0,0,1,1610086827,63
o,1723548808.254099,172.16.1.2,5102,172.16.5.2,26395,1073725440,14480,34,65728,65728,6,6,4,1460,131250,1,16778209,370000,33580,0,65700,0,0,1,1610086827,63
i,1723548808.274565,172.16.1.2,5101,172.16.3.2,17621,1073725440,14480,34,65728,65728,6,6,4,1460,126875,1,16778208,390000,33580,0,65700,0,0,0,1117258852,63
i,1723548808.284147,172.16.1.2,5101,172.16.3.2,17621,1073725440,14480,34,65728,65728,6,6,4,1460,126875,1,16778208,390000,33580,0,65700,0,0,0,1117258852,63
o,1723548808.284249,172.16.1.2,5101,172.16.3.2,17621,1073725440,14480,34,65728,65728,6,6,4,1460,126875,1,16778209,390000,33580,0,65700,1448,0,0,1117258852,63
o,1723548808.297936,10.0.2.15,22,10.0.2.2,52280,1073725440,14600,1026,65535,65700,0,0,4,1460,312,0,16777220,240000,33580,108,65700,0,0,0,3007839365,63
i,1723548808.298949,10.0.2.15,22,10.0.2.2,52280,1073725440,14600,1026,65535,65700,0,0,4,1460,312,0,16777220,240000,33580,108,65700,0,108,0,3007839365,63
o,1723548808.307887,10.0.2.15,22,10.0.2.2,52288,1073725440,14600,1026,65535,65700,0,0,4,1460,312,0,16777220,240000,33580,108,65700,0,0,0,48828706,63
i,1723548808.308768,10.0.2.15,22,10.0.2.2,52288,1073725440,14600,1026,65535,65700,0,0,4,1460,312,0,16777220,240000,33580,108,65700,0,108,0,48828706,63
i,1723548808.315354,172.16.1.2,5102,172.16.5.2,26395,1073725440,14480,34,65728,65728,6,6,4,1460,131250,1,16778208,370000,33580,0,65700,0,0,1,1610086827,63
o,1723548808.315377,172.16.1.2,5102,172.16.5.2,26395,1073725440,14480,34,65728,65728,6,6,4,1460,131250,1,16778209,370000,33580,0,65700,0,0,1,1610086827,63
i,1723548808.367929,172.16.1.2,5102,172.16.5.2,26395,1073725440,14480,34,65728,65728,6,6,4,1460,131250,1,16778208,370000,33580,0,65700,0,0,1,1610086827,63
o,1723548808.368001,172.16.1.2,5102,172.16.5.2,26395,1073725440,14480,34,65728,65728,6,6,4,1460,131250,1,16778209,370000,33580,0,65700,0,0,1,1610086827,63
i,1723548808.373273,172.16.1.2,5101,172.16.3.2,17621,1073725440,14480,34,65728,65728,6,6,4,1460,126875,1,16778208,390000,33580,0,65700,0,0,0,1117258852,63
i,1723548808.382041,172.16.1.2,5102,172.16.5.2,26395,1073725440,14480,34,65728,65728,6,6,4,1460,131250,1,16778208,370000,33580,0,65700,0,0,1,1610086827,63
o,1723548808.382070,172.16.1.2,5102,172.16.5.2,26395,1073725440,14480,34,65728,65728,6,6,4,1460,131250,1,16778209,370000,33580,0,65700,7240,0,0,1610086827,63
i,1723548808.398706,172.16.1.2,5102,172.16.5.2,26395,1073725440,14480,34,65728,65728,6,6,4,1460,131250,1,16778208,370000,33580,0,65700,0,0,0,1610086827,63
o,1723548808.398742,172.16.1.2,5102,172.16.5.2,26395,1073725440,14480,34,65728,65700,6,6,4,1460,131250,1,16778209,370000,33580,0,65700,0,0,0,1610086827,63
o,1723548808.407957,172.16.1.2,5101,172.16.3.2,17621,1073725440,14480,34,65728,65728,6,6,4,1460,126875,1,16778209,390000,33580,0,65700,0,0,0,1117258852,63
i,1723548808.469890,172.16.1.2,5101,172.16.3.2,17621,1073725440,14480,34,65728,65728,6,6,4,1460,126875,1,16778208,390000,33580,0,65700,0,0,0,1117258852,63
