enable_time_secs=1723549148	enable_time_usecs=770497	siftrver=1.3.0	sysname=FreeBSD	sysver=1401000	ipmode=4
o,1723549148.770840,10.0.2.15,22,10.0.2.2,52276,1073725440,17746,1026,65535,65700,0,0,4,1460,312,0,16777220,240000,33580,172,65700,0,0,0,3473520008,63
i,1723549148.771787,10.0.2.15,22,10.0.2.2,52276,1073725440,17746,1026,65535,65700,0,0,4,1460,312,0,16777220,240000,33580,172,65700,0,172,0,3473520008,63
o,1723549148.772020,10.0.2.15,22,10.0.2.2,52276,1073725440,17918,1026,65535,65700,0,0,4,1460,312,0,16777220,240000,33580,72,65700,0,0,0,3473520008,63
i,1723549148.772649,10.0.2.15,22,10.0.2.2,52276,1073725440,17918,1026,65535,65700,0,0,4,1460,312,0,16777220,240000,33580,72,65700,0,72,0,3473520008,63
i,1723549148.772668,10.0.2.15,22,10.0.2.2,52276,1073725440,17990,1026,65535,65700,0,0,4,1460,312,0,4,240000,33580,0,65700,0,0,0,3473520008,63
i,1723549148.772687,10.0.2.15,22,10.0.2.2,52276,1073725440,17990,1026,65535,65700,0,0,4,1460,312,0,4,240000,33580,0,65700,96,0,0,3473520008,63
o,1723549148.772707,10.0.2.15,22,10.0.2.2,52276,1073725440,17990,1026,65535,65604,0,0,5,1460,312,0,5,240000,33580,0,65700,96,0,0,3473520008,63
o,1723549148.773301,10.0.2.15,22,10.0.2.2,52276,1073725440,17990,1026,65535,65604,0,0,8,1460,312,0,4,240000,33580,0,65700,0,0,0,3473520008,63
i,1723549148.773827,10.0.2.15,22,10.0.2.2,52276,1073725440,17990,1026,65535,65604,0,0,8,1460,312,0,67108884,240000,33580,0,65700,0,1,0,3473520008,63
i,1723549151.927001,10.0.2.15,22,10.0.2.2,52290,1073725440,14600,0,65535,65700,0,0,4,1460,312,0,16777216,270000,33580,0,65700,0,0,0,1375859406,63
o,1723549151.942784,10.0.2.15,22,10.0.2.2,52290,1073725440,14600,1026,65535,65700,0,0,4,1460,312,0,16777216,270000,33580,38,65700,42,0,0,1375859406,63
i,1723549151.943648,10.0.2.15,22,10.0.2.2,52290,1073725440,14600,1026,65535,65700,0,0,4,1460,312,0,16777216,270000,33580,38,65700,0,38,0,1375859406,63
i,1723549151.944259,10.0.2.15,22,10.0.2.2,52290,1073725440,14638,1026,65535,65700,0,0,4,1460,312,0,0,240000,33580,0,65700,0,0,0,1375859406,63
i,1723549151.944275,10.0.2.15,22,10.0.2.2,52290,1073725440,14638,1026,65535,65700,0,0,4,1460,312,0,0,240000,33580,0,65700,1460,0,0,1375859406,63
o,1723549151.944291,10.0.2.15,22,10.0.2.2,52290,1073725440,14638,1026,65535,65700,0,0,4,1460,312,0,1,240000,33580,0,65700,1536,0,0,1375859406,63
o,1723549151.945006,10.0.2.15,22,10.0.2.2,52290,1073725440,14638,1026,65535,65700,0,0,4,1460,312,0,16777216,240000,33580,1120,65700,1536,0,0,1375859406,63
i,1723549151.946569,10.0.2.15,22,10.0.2.2,52290,1073725440,14638,1026,65535,65700,0,0,4,1460,312,0,16777216,240000,33580,1120,65700,0,1120,0,1375859406,63
i,1723549151.947686,10.0.2.15,22,10.0.2.2,52290,1073725440,15758,1026,65535,65700,0,0,4,1460,312,0,0,240000,33580,0,65700,0,0,0,1375859406,63
o,1723549151.952418,10.0.2.15,22,10.0.2.2,52290,1073725440,15758,1026,65535,65700,0,0,4,1460,312,0,16777216,240000,33580,492,65700,0,0,0,1375859406,63
i,1723549151.953434,10.0.2.15,22,10.0.2.2,52290,1073725440,15758,1026,65535,65700,0,0,4,1460,312,0,16777216,240000,33580,492,65700,0,492,0,1375859406,63
i,1723549151.957907,10.0.2.15,22,10.0.2.2,52290,1073725440,16250,1026,65535,65700,0,0,4,1460,312,0,0,240000,33580,0,65700,0,0,0,1375859406,63
o,1723549151.957990,10.0.2.15,22,10.0.2.2,52290,1073725440,16250,1026,65535,65700,0,0,4,1460,312,0,16777216,240000,33580,44,65700,0,0,0,1375859406,63
i,1723549151.958721,10.0.2.15,22,10.0.2.2,52290,1073725440,16250,1026,65535,65700,0,0,4,1460,312,0,16777216,240000,33580,44,65700,0,44,0,1375859406,63
i,1723549151.958738,10.0.2.15,22,10.0.2.2,52290,1073725440,16294,1026,65535,65700,0,0,4,1460,312,0,0,240000,33580,0,65700,0,0,0,1375859406,63
o,1723549151.960009,10.0.2.15,22,10.0.2.2,52290,1073725440,16294,1026,65535,65700,0,0,4,1460,312,0,16777216,240000,33580,68,65700,0,0,0,1375859406,63
i,1723549151.961136,10.0.2.15,22,10.0.2.2,52290,1073725440,16294,1026,65535,65700,0,0,4,1460,312,0,16777216,240000,33580,68,65700,0,68,0,1375859406,63
i,1723549151.961152,10.0.2.15,22,10.0.2.2,52290,1073725440,16362,1026,65535,65700,0,0,4,1460,312,0,0,240000,33580,0,65700,0,0,0,1375859406,63
o,1723549151.962384,10.0.2.15,22,10.0.2.2,52290,1073725440,16362,1026,65535,65700,0,0,4,1460,312,0,16777216,240000,33580,332,65700,0,0,0,1375859406,63
i,1723549151.963184,10.0.2.15,22,10.0.2.2,52290,1073725440,16362,1026,65535,65700,0,0,4,1460,312,0,16777216,240000,33580,332,65700,0,332,0,1375859406,63
i,1723549151.964564,10.0.2.15,22,10.0.2.2,52290,1073725440,16694,1026,65535,65700,0,0,4,1460,312,0,0,240000,33580,0,65700,0,0,0,1375859406,63
o,1723549151.988948,10.0.2.15,22,10.0.2.2,52290,1073725440,16694,1026,65535,65700,0,0,4,1460,312,0,16777216,240000,33580,28,65700,0,0,0,1375859406,63
i,1723549151.990864,10.0.2.15,22,10.0.2.2,52290,1073725440,16694,1026,65535,65700,0,0,4,1460,312,0,16777216,240000,33580,28,65700,0,28,0,1375859406,63
i,1723549151.990923,10.0.2.15,22,10.0.2.2,52290,1073725440,16722,1026,65535,65700,0,0,4,1460,312,0,0,240000,33580,0,65700,0,0,0,1375859406,63
o,1723549151.992527,10.0.2.15,22,10.0.2.2,52290,1073725440,16722,1026,65535,65700,0,0,4,1460,312,0,16777216,240000,33580,768,65700,112,0,0,1375859406,63
i,1723549151.993278,10.0.2.15,22,10.0.2.2,52290,1073725440,16722,1026,65535,65700,0,0,4,1460,312,0,16777216,240000,33580,908,65700,112,768,0,1375859406,63
o,1723549151.993298,10.0.2.15,22,10.0.2.2,52290,1073725440,17490,1026,65535,65700,0,0,4,1460,312,0,16777216,240000,33580,140,65700,112,0,0,1375859406,63
i,1723549151.993782,10.0.2.15,22,10.0.2.2,52290,1073725440,17490,1026,65535,65700,0,0,4,1460,312,0,16777216,240000,33580,140,65700,112,140,0,1375859406,63
o,1723549151.994629,10.0.2.15,22,10.0.2.2,52290,1073725440,17630,1026,65535,65700,0,0,4,1460,312,0,16777216,240000,33580,44,65700,0,0,0,1375859406,63
i,1723549151.995236,10.0.2.15,22,10.0.2.2,52290,1073725440,17630,1026,65535,65700,0,0,4,1460,312,0,16777216,240000,33580,44,65700,0,44,0,1375859406,63
i,1723549151.995253,10.0.2.15,22,10.0.2.2,52290,1073725440,17674,1026,65535,65700,0,0,4,1460,312,0,0,240000,33580,0,65700,0,0,0,1375859406,63
o,1723549151.995749,10.0.2.15,22,10.0.2.2,52290,1073725440,17674,1026,65535,65700,0,0,4,1460,312,0,16777220,240000,33580,72,65700,0,0,0,1375859406,63
i,1723549151.996265,10.0.2.15,22,10.0.2.2,52290,1073725440,17674,1026,65535,65700,0,0,4,1460,312,0,16777220,240000,33580,72,65700,0,72,0,1375859406,63
o,1723549151.999120,10.0.2.15,22,10.0.2.2,52290,1073725440,17746,1026,65535,65700,0,0,4,1460,312,0,16777220,240000,33580,104,65700,0,0,0,1375859406,63
i,1723549151.999529,10.0.2.15,22,10.0.2.2,52290,1073725440,17746,1026,65535,65700,0,0,4,1460,312,0,16777220,240000,33580,104,65700,0,104,0,1375859406,63
o,1723549152.000768,10.0.2.15,22,10.0.2.2,52290,1073725440,17850,1026,65535,65700,0,0,4,1460,312,0,16777220,240000,33580,72,65700,0,0,0,1375859406,63
i,1723549152.001099,10.0.2.15,22,10.0.2.2,52290,1073725440,17850,1026,65535,65700,0,0,4,1460,312,0,16777220,240000,33580,72,65700,0,72,0,1375859406,63
i,1723549152.001418,10.0.2.15,22,10.0.2.2,52290,1073725440,17922,1026,65535,65700,0,0,4,1460,312,0,4,240000,33580,0,65700,0,0,0,1375859406,63
i,1723549152.001437,10.0.2.15,22,10.0.2.2,52290,1073725440,17922,1026,65535,65700,0,0,4,1460,312,0,4,240000,33580,0,65700,96,0,0,1375859406,63
o,1723549152.001453,10.0.2.15,22,10.0.2.2,52290,1073725440,17922,1026,65535,65604,0,0,5,1460,312,0,5,240000,33580,0,65700,96,0,0,1375859406,63
o,1723549152.001963,10.0.2.15,22,10.0.2.2,52290,1073725440,17922,1026,65535,65604,0,0,8,1460,312,0,4,240000,33580,0,65700,0,0,0,1375859406,63
i,1723549152.002551,10.0.2.15,22,10.0.2.2,52290,1073725440,17922,1026,65535,65604,0,0,8,1460,312,0,67108884,240000,33580,0,65700,0,1,0,1375859406,63
i,1723549152.268806,172.16.1.2,5101,172.16.3.2,41508,1073725440,14480,32,65728,65700,6,6,4,1460,127812,1,16778208,390000,33580,0,65700,0,0,0,2832524183,63
i,1723549152.268979,172.16.1.2,5102,172.16.5.2,56517,1073725440,14480,32,65728,65700,6,6,4,1460,126250,1,16778208,400000,33580,0,65700,0,0,0,3297769610,63
o,1723549152.269106,172.16.1.2,5102,172.16.5.2,56517,1073725440,14480,1058,65728,65700,6,6,4,1460,126250,1,16778212,400000,33580,1,65700,0,0,0,3297769610,63
o,1723549152.269125,172.16.1.2,5101,172.16.3.2,41508,1073725440,14480,1058,65728,65700,6,6,4,1460,127812,1,16778212,390000,33580,1,65700,0,0,0,2832524183,63
i,1723549152.393641,172.16.1.2,5102,172.16.5.2,56517,1073725440,14480,1058,65728,65700,6,6,4,1460,126250,1,16778212,400000,33580,1,65700,0,1,0,3297769610,63
i,1723549152.393762,172.16.1.2,5102,172.16.5.2,56517,1073725440,14481,1058,65728,65728,6,6,4,1460,125625,1,996,380000,33580,0,65700,4,0,0,3297769610,63
o,1723549152.393802,172.16.1.2,5102,172.16.5.2,56517,1073725440,14481,1058,65728,65728,6,6,4,1460,125625,1,997,380000,33580,0,65700,130,0,0,3297769610,63
i,1723549152.394103,172.16.1.2,5101,172.16.3.2,41508,1073725440,14480,1058,65728,65700,6,6,4,1460,127812,1,16778212,390000,33580,1,65700,0,1,0,2832524183,63
i,1723549152.394132,172.16.1.2,5101,172.16.3.2,41508,1073725440,14481,1058,65728,65728,6,6,4,1460,126875,1,996,380000,33580,0,65700,4,0,0,2832524183,63
o,1723549152.394147,172.16.1.2,5101,172.16.3.2,41508,1073725440,14481,1058,65728,65728,6,6,4,1460,126875,1,997,380000,33580,0,65700,130,0,0,2832524183,63
o,1723549152.394288,172.16.1.2,5102,172.16.5.2,56517,1073725440,14481,1058,65728,65728,6,6,4,1460,125625,1,16778212,380000,33580,1,65700,0,0,0,3297769610,63
o,1723549152.394376,172.16.1.2,5101,172.16.3.2,41508,1073725440,14481,1058,65728,65728,6,6,4,1460,126875,1,16778212,380000,33580,1,65700,0,0,0,2832524183,63
o,1723549152.394602,10.0.2.15,22,10.0.2.2,52288,1073725440,14600,1026,65535,65700,0,0,4,1460,312,0,16777220,240000,33580,84,65700,0,0,0,48828706,63
o,1723549152.395053,10.0.2.15,22,10.0.2.2,52280,1073725440,14600,1026,65535,65700,0,0,4,1460,312,0,16777220,240000,33580,84,65700,0,0,0,3007839365,63
i,1723549152.395240,10.0.2.15,22,10.0.2.2,52288,1073725440,14600,1026,65535,65700,0,0,4,1460,312,0,16777220,240000,33580,84,65700,0,84,0,48828706,63
i,1723549152.398064,10.0.2.15,22,10.0.2.2,52280,1073725440,14600,1026,65535,65700,0,0,4,1460,312,0,16777220,240000,33580,84,65700,0,84,0,3007839365,63
i,1723549152.538413,172.16.1.2,5101,172.16.3.2,41508,1073725440,14481,1058,65728,65728,6,6,4,1460,126875,1,16778212,380000,33580,1,65700,0,1,0,2832524183,63
i,1723549152.616858,172.16.1.2,5102,172.16.5.2,56517,1073725440,14481,1058,65728,65728,6,6,4,1460,125625,1,16778212,380000,33580,1,65700,0,1,0,3297769610,63
i,1723549152.617129,172.16.1.2,5102,172.16.5.2,56667,1073725440,14480,32,65728,65700,6,6,4,1460,122500,1,16778208,390000,33580,0,65700,0,0,0,2715171934,63
i,1723549152.617247,172.16.1.2,5101,172.16.3.2,17524,1073725440,14480,32,65728,65700,6,6,4,1460,124062,1,16778208,390000,33580,0,65700,0,0,0,721743373,63
o,1723549152.622290,172.16.1.2,5102,172.16.5.2,56517,1073725440,14482,1058,65728,65728,6,6,4,1460,136250,1,16778212,460000,33580,1,65700,0,0,0,3297769610,63
o,1723549152.624073,172.16.1.2,5102,172.16.5.2,56517,1073725440,14482,1058,65728,65728,6,6,4,1460,136250,1,16778212,460000,33580,2,65700,0,1,0,3297769610,63
o,1723549152.624283,10.0.2.15,22,10.0.2.2,52280,1073725440,14600,1026,65535,65700,0,0,4,1460,312,0,16777220,230000,33580,108,65700,0,0,0,3007839365,63
o,1723549152.625139,172.16.1.2,5101,172.16.3.2,41508,1073725440,14482,1058,65728,65728,6,6,4,1460,128750,1,16778212,380000,33580,1,65700,0,0,0,2832524183,63
i,1723549152.625220,10.0.2.15,22,10.0.2.2,52280,1073725440,14600,1026,65535,65700,0,0,4,1460,312,0,16777220,230000,33580,108,65700,0,108,0,3007839365,63
o,1723549152.625398,172.16.1.2,5101,172.16.3.2,41508,1073725440,14482,1058,65728,65728,6,6,4,1460,128750,1,16778212,380000,33580,2,65700,0,1,0,2832524183,63
o,1723549152.625544,10.0.2.15,22,10.0.2.2,52288,1073725440,14684,1026,65535,65700,0,0,4,1460,312,0,16777220,240000,33580,108,65700,0,0,0,48828706,63
i,1723549152.627081,10.0.2.15,22,10.0.2.2,52288,1073725440,14684,1026,65535,65700,0,0,4,1460,312,0,16777220,240000,33580,108,65700,0,108,0,48828706,63
o,1723549152.662563,172.16.1.2,5101,172.16.3.2,17524,1073725440,14480,34,65728,65700,6,6,4,1460,124062,1,16778209,390000,33580,0,65700,0,0,0,721743373,63
o,1723549152.663526,172.16.1.2,5102,172.16.5.2,56667,1073725440,14480,34,65728,65700,6,6,4,1460,122500,1,16778209,390000,33580,0,65700,0,0,0,2715171934,63
i,1723549152.777802,172.16.1.2,5101,172.16.3.2,41508,1073725440,14482,1058,65728,65728,6,6,4,1460,128750,1,16778212,380000,33580,2,65700,0,2,0,2832524183,63
i,1723549152.777962,172.16.1.2,5102,172.16.5.2,56517,1073725440,14482,1058,65728,65728,6,6,4,1460,136250,1,16778212,460000,33580,2,65700,0,2,0,3297769610,63
i,1723549152.941277,172.16.1.2,5101,172.16.3.2,17524,1073725440,14480,34,65728,65700,6,6,4,1460,124062,1,16778208,390000,33580,0,65700,0,0,0,721743373,63
i,1723549152.952873,172.16.1.2,5102,172.16.5.2,56667,1073725440,14480,34,65728,65700,6,6,4,1460,122500,1,16778208,390000,33580,0,65700,0,0,0,2715171934,63
o,1723549152.977948,172.16.1.2,5101,172.16.3.2,17524,1073725440,14480,34,65728,65700,6,6,4,1460,124062,1,16778209,390000,33580,0,65700,0,0,0,721743373,63
i,1723549152.983057,172.16.1.2,5101,172.16.3.2,17524,1073725440,14480,34,65728,65700,6,6,4,1460,124062,1,16778208,390000,33580,0,65700,0,0,0,721743373,63
o,1723549152.987736,172.16.1.2,5102,172.16.5.2,56667,1073725440,14480,34,65728,65700,6,6,4,1460,122500,1,16778209,390000,33580,0,65700,0,0,0,2715171934,63
i,1723549153.003432,172.16.1.2,5102,172.16.5.2,56667,1073725440,14480,34,65728,65700,6,6,4,1460,122500,1,16778208,390000,33580,0,65700,0,0,0,2715171934,63
i,1723549153.015937,172.16.1.2,5101,172.16.3.2,17524,1073725440,14480,34,65728,65700,6,6,4,1460,124062,1,16778208,390000,33580,0,65700,0,0,0,721743373,63
o,1723549153.015999,172.16.1.2,5101,172.16.3.2,17524,1073725440,14480,34,65728,65700,6,6,4,1460,124062,1,16778209,390000,33580,0,65700,1448,0,0,721743373,63
i,1723549153.028242,172.16.1.2,5102,172.16.5.2,56667,1073725440,14480,34,65728,65700,6,6,4,1460,122500,1,16778208,390000,33580,0,65700,0,0,0,2715171934,63
o,1723549153.028261,172.16.1.2,5102,172.16.5.2,56667,1073725440,14480,34,65728,65700,6,6,4,1460,122500,1,16778209,390000,33580,0,65700,1448,0,0,2715171934,63
i,1723549153.039397,172.16.1.2,5101,172.16.3.2,17524,1073725440,14480,34,65728,65700,6,6,4,1460,124062,1,16778208,390000,33580,0,65700,0,0,0,721743373,63
i,1723549153.044300,172.16.1.2,5102,172.16.5.2,56667,1073725440,14480,34,65728,65700,6,6,4,1460,122500,1,16778208,390000,33580,0,65700,0,0,0,2715171934,63
i,1723549153.071248,172.16.1.2,5101,172.16.3.2,17524,1073725440,14480,34,65728,65700,6,6,4,1460,124062,1,16778208,390000,33580,0,65700,0,0,0,721743373,63
o,1723549153.071898,172.16.1.2,5101,172.16.3.2,17524,1073725440,14480,34,65728,65700,6,6,4,1460,124062,1,16778209,390000,33580,0,65700,1448,0,0,721743373,63
i,1723549153.072314,172.16.1.2,5102,172.16.5.2,56667,1073725440,14480,34,65728,65700,6,6,4,1460,122500,1,16778208,390000,33580,0,65700,0,0,0,2715171934,63
o,1723549153.072379,172.16.1.2,5102,172.16.5.2,56667,1073725440,14480,34,65728,65700,6,6,4,1460,122500,1,16778209,390000,33580,0,65700,1448,0,0,2715171934,63
i,1723549153.082506,172.16.1.2,5101,172.16.3.2,17524,1073725440,14480,34,65728,65700,6,6,4,1460,124062,1,16778208,390000,33580,0,65700,0,0,0,721743373,63
i,1723549153.101407,172.16.1.2,5102,172.16.5.2,56667,1073725440,14480,34,65728,65700,6,6,4,1460,122500,1,16778208,390000,33580,0,65700,0,0,0,2715171934,63
i,1723549153.112067,172.16.1.2,5101,172.16.3.2,17524,1073725440,14480,34,65728,65700,6,6,4,1460,124062,1,16778208,390000,33580,0,65700,0,0,0,721743373,63
o,1723549153.112127,172.16.1.2,5101,172.16.3.2,17524,1073725440,14480,34,65728,65700,6,6,4,1460,124062,1,16778209,390000,33580,0,65700,1448,0,0,721743373,63
i,1723549153.122160,172.16.1.2,5102,172.16.5.2,56667,1073725440,14480,34,65728,65700,6,6,4,1460,122500,1,16778208,390000,33580,0,65700,0,0,0,2715171934,63
o,1723549153.122179,172.16.1.2,5102,172.16.5.2,56667,1073725440,14480,34,65728,65700,6,6,4,1460,122500,1,16778209,390000,33580,0,65700,1448,0,0,2715171934,63
i,1723549153.143855,172.16.1.2,5101,172.16.3.2,17524,1073725440,14480,34,65728,65700,6,6,4,1460,124062,1,16778208,390000,33580,0,65700,0,0,0,721743373,63
i,1723549153.143926,172.16.1.2,5102,172.16.5.2,56667,1073725440,14480,34,65728,65700,6,6,4,1460,122500,1,16778208,390000,33580,0,65700,0,0,0,2715171934,63
i,1723549153.153832,172.16.1.2,5101,172.16.3.2,17524,1073725440,14480,34,65728,65700,6,6,4,1460,124062,1,16778208,390000,33580,0,65700,0,0,0,721743373,63
o,1723549153.153904,172.16.1.2,5101,172.16.3.2,17524,1073725440,14480,34,65728,65700,6,6,4,1460,124062,1,16778209,390000,33580,0,65700,1448,0,0,721743373,63
i,1723549153.172880,172.16.1.2,5102,172.16.5.2,56667,1073725440,14480,34,65728,65700,6,6,4,1460,122500,1,16778208,390000,33580,0,65700,0,0,0,2715171934,63
o,1723549153.172955,172.16.1.2,5102,172.16.5.2,56667,1073725440,14480,34,65728,65700,6,6,4,1460,122500,1,16778209,390000,33580,0,65700,1448,0,0,2715171934,63
i,1723549153.181895,172.16.1.2,5101,172.16.3.2,17524,1073725440,14480,34,65728,65700,6,6,4,1460,124062,1,16778208,390000,33580,0,65700,0,0,0,721743373,63
i,1723549153.193297,172.16.1.2,5102,172.16.5.2,56667,1073725440,14480,34,65728,65700,6,6,4,1460,122500,1,16778208,390000,33580,0,65700,0,0,0,2715171934,63
o,1723549153.217724,172.16.1.2,5101,172.16.3.2,17524,1073725440,14480,34,65728,65700,6,6,4,1460,124062,1,16778209,390000,33580,0,65700,0,0,0,721743373,63
o,1723549153.229548,172.16.1.2,5102,172.16.5.2,56667,1073725440,14480,34,65728,65700,6,6,4,1460,122500,1,16778209,390000,33580,0,65700,0,0,0,2715171934,63
i,1723549153.339555,172.16.1.2,5102,172.16.5.2,56667,1073725440,14480,34,65728,65700,6,6,4,1460,122500,1,16778208,390000,33580,0,65700,0,0,0,2715171934,63
o,1723549153.339602,172.16.1.2,5102,172.16.5.2,56667,1073725440,14480,34,65728,65728,6,6,4,1460,122500,1,16778209,390000,33580,0,65700,0,0,0,2715171934,63
i,1723549153.403247,172.16.1.2,5101,172.16.3.2,17524,1073725440,14480,34,65728,65700,6,6,4,1460,124062,1,16778208,390000,33580,0,65700,0,0,0,721743373,63
i,1723549153.412633,172.16.1.2,5101,172.16.3.2,17524,1073725440,14480,34,65728,65700,6,6,4,1460,124062,1,16778208,390000,33580,0,65700,0,0,0,721743373,63
o,1723549153.412656,172.16.1.2,5101,172.16.3.2,17524,1073725440,14480,162,65728,65700,6,6,4,1460,124062,1,16778209,390000,33580,0,65700,1448,0,0,721743373,63
i,1723549153.538179,172.16.1.2,5102,172.16.5.2,56667,1073725440,14480,34,65728,65728,6,6,4,1460,122500,1,16778208,390000,33580,0,65700,0,0,0,2715171934,63
o,1723549153.538554,172.16.1.2,5102,172.16.5.2,56667,1073725440,14480,34,65728,65728,6,6,4,1460,122500,1,16778209,390000,33580,0,65700,0,0,0,2715171934,63
i,1723549153.552678,172.16.1.2,5101,172.16.3.2,17524,1073725440,14480,162,65728,65700,6,6,4,1460,124062,1,16778208,390000,33580,0,65700,0,0,0,721743373,63
i,1723549153.562809,172.16.1.2,5102,172.16.5.2,56667,1073725440,14480,34,65728,65728,6,6,4,1460,122500,1,16778208,390000,33580,0,65700,0,0,0,2715171934,63
i,1723549153.573514,172.16.1.2,5101,172.16.3.2,17524,1073725440,14480,162,65728,65700,6,6,4,1460,124062,1,16778208,390000,33580,0,65700,0,0,0,721743373,63
o,1723549153.573536,172.16.1.2,5101,172.16.3.2,17524,1073725440,14480,162,65728,65700,6,6,4,1460,124062,1,16778209,390000,33580,0,65700,1448,0,0,721743373,63
i,1723549153.582383,172.16.1.2,5102,172.16.5.2,56667,1073725440,14480,34,65728,65728,6,6,4,1460,122500,1,16778208,390000,33580,0,65700,0,0,0,2715171934,63
o,1723549153.582407,172.16.1.2,5102,172.16.5.2,56667,1073725440,14480,34,65728,65728,6,6,4,1460,122500,1,16778209,390000,33580,0,65700,1448,0,0,2715171934,63
i,1723549153.600642,172.16.1.2,5101,172.16.3.2,17524,1073725440,14480,162,65728,65700,6,6,4,1460,124062,1,16778208,390000,33580,0,65700,0,0,0,721743373,63
i,1723549153.612716,172.16.1.2,5102,172.16.5.2,56667,1073725440,14480,34,65728,65728,6,6,4,1460,122500,1,16778208,390000,33580,0,65700,0,0,0,2715171934,63
i,1723549153.623008,172.16.1.2,5101,172.16.3.2,17524,1073725440,14480,162,65728,65700,6,6,4,1460,124062,1,16778208,390000,33580,0,65700,0,0,0,721743373,63
o,1723549153.623071,172.16.1.2,5101,172.16.3.2,17524,1073725440,14480,162,65728,65700,6,6,4,1460,124062,1,16778209,390000,33580,0,65700,1448,0,0,721743373,63
o,1723549153.628590,10.0.2.15,22,10.0.2.2,52280,1073725440,14600,1026,65535,65700,0,0,4,1460,312,0,16777220,230000,33580,156,65700,0,0,0,3007839365,63
i,1723549153.629738,10.0.2.15,22,10.0.2.2,52280,1073725440,14600,1026,65535,65700,0,0,4,1460,312,0,16777220,230000,33580,156,65700,0,156,0,3007839365,63
i,1723549153.632172,172.16.1.2,5102,172.16.5.2,56667,1073725440,14480,34,65728,65728,6,6,4,1460,122500,1,16778208,390000,33580,0,65700,0,0,0,2715171934,63
o,1723549153.632247,172.16.1.2,5102,172.16.5.2,56667,1073725440,14480,34,65728,65728,6,6,4,1460,122500,1,16778209,390000,33580,0,65700,1448,0,0,2715171934,63
o,1723549153.638987,10.0.2.15,22,10.0.2.2,52288,1073725440,14600,1026,65535,65700,0,0,4,1460,312,0,16777220,230000,33580,156,65700,0,0,0,48828706,63
i,1723549153.639487,10.0.2.15,22,10.0.2.2,52288,1073725440,14600,1026,65535,65700,0,0,4,1460,312,0,16777220,230000,33580,156,65700,0,156,0,48828706,63
i,1723549153.653333,172.16.1.2,5101,172.16.3.2,17524,1073725440,14480,162,65728,65700,6,6,4,1460,124062,1,16778208,390000,33580,0,65700,0,0,0,721743373,63
i,1723549153.683321,172.16.1.2,5101,172.16.3.2,17524,1073725440,14480,162,65728,65700,6,6,4,1460,124062,1,16778208,390000,33580,0,65700,0,0,0,721743373,63
o,1723549153.683528,172.16.1.2,5101,172.16.3.2,17524,1073725440,14480,162,65728,65700,6,6,4,1460,124062,1,16778209,390000,33580,0,65700,1448,0,0,721743373,63
i,1723549153.703834,172.16.1.2,5101,172.16.3.2,17524,1073725440,14480,162,65728,65700,6,6,4,1460,124062,1,16778208,390000,33580,0,65700,0,0,0,721743373,63
i,1723549153.732794,172.16.1.2,5101,172.16.3.2,17524,1073725440,14480,162,65728,65700,6,6,4,1460,124062,1,16778208,390000,33580,0,65700,0,0,0,721743373,63
o,1723549153.732794,172.16.1.2,5101,172.16.3.2,17524,1073725440,14480,162,65728,65700,6,6,4,1460,124062,1,16778209,390000,33580,0,65700,1448,0,0,721743373,63
i,1723549153.742429,172.16.1.2,5102,172.16.5.2,56667,1073725440,14480,34,65728,65728,6,6,4,1460,122500,1,16778208,390000,33580,0,65700,0,0,0,2715171934,63
i,1723549153.752810,172.16.1.2,5102,172.16.5.2,56667,1073725440,14480,34,65728,65728,6,6,4,1460,122500,1,16778208,390000,33580,0,65700,0,0,0,2715171934,63
o,1723549153.752874,172.16.1.2,5102,172.16.5.2,56667,1073725440,14480,34,65728,65728,6,6,4,1460,122500,1,16778209,390000,33580,0,65700,1448,0,0,2715171934,63
i,1723549153.773276,172.16.1.2,5101,172.16.3.2,17524,1073725440,14480,162,65728,65700,6,6,4,1460,124062,1,16778208,390000,33580,0,65700,0,0,0,721743373,63
i,1723549153.774058,172.16.1.2,5101,172.16.3.2,17524,1073725440,14480,162,65728,65700,6,6,4,1460,124062,1,16778208,390000,33580,0,65700,1448,0,0,721743373,63
o,1723549153.774092,172.16.1.2,5101,172.16.3.2,17524,1073725440,14480,162,65728,65700,6,6,4,1460,124062,1,16778209,390000,33580,0,65700,2896,0,0,721743373,63
i,1723549153.798350,172.16.1.2,5101,172.16.3.2,17524,1073725440,14480,162,65728,65700,6,6,4,1460,124062,1,16778208,390000,33580,0,65700,0,0,0,721743373,63
i,1723549153.802916,172.16.1.2,5101,172.16.3.2,17524,1073725440,14480,162,65728,65700,6,6,4,1460,124062,1,16778208,390000,33580,0,65700,0,0,0,721743373,63
o,1723549153.802937,172.16.1.2,5101,172.16.3.2,17524,1073725440,14480,162,65728,65700,6,6,4,1460,124062,1,16778209,390000,33580,0,65700,1448,0,0,721743373,63
i,1723549153.823220,172.16.1.2,5101,172.16.3.2,17524,1073725440,14480,162,65728,65700,6,6,4,1460,124062,1,16778208,390000,33580,0,65700,0,0,0,721743373,63
i,1723549153.823302,172.16.1.2,5101,172.16.3.2,17524,1073725440,14480,162,65728,65700,6,6,4,1460,124062,1,16778208,390000,33580,0,65700,1448,0,0,721743373,63
o,1723549153.823326,172.16.1.2,5101,172.16.3.2,17524,1073725440,14480,162,65728,65700,6,6,4,1460,124062,1,16778209,390000,33580,0,65700,2896,0,0,721743373,63
i,1723549153.891771,172.16.1.2,5101,172.16.3.2,17524,1073725440,14480,162,65728,65700,6,6,4,1460,124062,1,16778208,390000,33580,0,65700,0,0,0,721743373,63
i,1723549153.903157,172.16.1.2,5102,172.16.5.2,56667,1073725440,14480,34,65728,65728,6,6,4,1460,122500,1,16778208,390000,33580,0,65700,0,0,0,2715171934,63
i,1723549153.903254,172.16.1.2,5102,172.16.5.2,56667,1073725440,14480,34,65728,65728,6,6,4,1460,122500,1,16778208,390000,33580,0,65700,1448,0,0,2715171934,63
o,1723549153.903274,172.16.1.2,5102,172.16.5.2,56667,1073725440,14480,34,65728,65728,6,6,4,1460,122500,1,16778209,390000,33580,0,65700,2896,0,0,2715171934,63
i,1723549153.913061,172.16.1.2,5101,172.16.3.2,17524,1073725440,14480,162,65728,65700,6,6,4,1460,124062,1,16778208,390000,33580,0,65700,0,0,0,721743373,63
o,1723549153.913124,172.16.1.2,5101,172.16.3.2,17524,1073725440,14480,162,65728,65700,6,6,4,1460,124062,1,16778209,390000,33580,0,65700,1448,0,0,721743373,63
i,1723549153.931801,172.16.1.2,5101,172.16.3.2,17524,1073725440,14480,162,65728,65700,6,6,4,1460,124062,1,16778208,390000,33580,0,65700,0,0,0,721743373,63
o,1723549153.969514,172.16.1.2,5101,172.16.3.2,17524,1073725440,14480,162,65728,65700,6,6,4,1460,124062,1,16778209,390000,33580,0,65700,0,0,0,721743373,63
i,1723549154.004641,172.16.1.2,5102,172.16.5.2,56667,1073725440,14480,34,65728,65728,6,6,4,1460,122500,1,16778208,390000,33580,0,65700,0,0,0,2715171934,63
i,1723549154.015339,172.16.1.2,5102,172.16.5.2,56667,1073725440,14480,34,65728,65728,6,6,4,1460,122500,1,16778208,390000,33580,0,65700,0,0,0,2715171934,63
o,1723549154.015416,172.16.1.2,5102,172.16.5.2,56667,1073725440,14480,34,65728,65728,6,6,4,1460,122500,1,16778209,390000,33580,0,65700,1448,0,0,2715171934,63
i,1723549154.042490,172.16.1.2,5101,172.16.3.2,17524,1073725440,14480,162,65728,65700,6,6,4,1460,124062,1,16778208,390000,33580,0,65700,0,0,0,721743373,63
o,1723549154.042891,172.16.1.2,5101,172.16.3.2,17524,1073725440,14480,162,65728,65700,6,6,4,1460,124062,1,16778209,390000,33580,0,65700,0,0,0,721743373,63
i,1723549154.072791,172.16.1.2,5101,172.16.3.2,17524,1073725440,14480,162,65728,65700,6,6,4,1460,124062,1,16778208,390000,33580,0,65700,0,0,0,721743373,63
o,1723549154.073435,172.16.1.2,5101,172.16.3.2,17524,1073725440,14480,162,65728,65700,6,6,4,1460,124062,1,16778209,390000,33580,0,65700,0,0,0,721743373,63
i,1723549154.118891,172.16.1.2,5101,172.16.3.2,17524,1073725440,14480,162,65728,65700,6,6,4,1460,124062,1,16778208,390000,33580,0,65700,0,0,0,721743373,63
i,1723549154.119286,172.16.1.2,5101,172.16.3.2,17524,1073725440,14480,162,65728,65700,6,6,4,1460,124062,1,16778208,390000,33580,0,65700,0,0,0,721743373,63
o,1723549154.119311,172.16.1.2,5101,172.16.3.2,17524,1073725440,14480,162,65728,65700,6,6,4,1460,124062,1,16778209,390000,33580,0,65700,1448,0,0,721743373,63
i,1723549154.184340,172.16.1.2,5101,172.16.3.2,17524,1073725440,14480,162,65728,65700,6,6,4,1460,124062,1,16778208,390000,33580,0,65700,0,0,0,721743373,63
i,1723549154.212913,172.16.1.2,5101,172.16.3.2,17524,1073725440,14480,162,65728,65700,6,6,4,1460,124062,1,16778208,390000,33580,0,65700,0,0,0,721743373,63
o,1723549154.212989,172.16.1.2,5101,172.16.3.2,17524,1073725440,14480,162,65728,65700,6,6,4,1460,124062,1,16778209,390000,33580,0,65700,1448,0,0,721743373,63
i,1723549154.224382,172.16.1.2,5102,172.16.5.2,56667,1073725440,14480,34,65728,65728,6,6,4,1460,122500,1,16778208,390000,33580,0,65700,0,0,0,2715171934,63
i,1723549154.231724,172.16.1.2,5101,172.16.3.2,17524,1073725440,14480,162,65728,65700,6,6,4,1460,124062,1,16778208,390000,33580,0,65700,0,0,0,721743373,63
i,1723549154.243132,172.16.1.2,5102,172.16.5.2,56667,1073725440,14480,34,65728,65728,6,6,4,1460,122500,1,16778208,390000,33580,0,65700,0,0,0,2715171934,63
o,1723549154.243194,172.16.1.2,5102,172.16.5.2,56667,1073725440,14480,34,65728,65728,6,6,4,1460,122500,1,16778209,390000,33580,0,65700,1448,0,0,2715171934,63
i,1723549154.252092,172.16.1.2,5101,172.16.3.2,17524,1073725440,14480,162,65728,65700,6,6,4,1460,124062,1,16778208,390000,33580,0,65700,0,0,0,721743373,63
o,1723549154.252274,172.16.1.2,5101,172.16.3.2,17524,1073725440,14480,162,65728,65700,6,6,4,1460,124062,1,16778209,390000,33580,0,65700,1448,0,0,721743373,63
i,1723549154.274023,172.16.1.2,5102,172.16.5.2,56667,1073725440,14480,34,65728,65728,6,6,4,1460,122500,1,16778208,390000,33580,0,65700,0,0,0,2715171934,63
i,1723549154.283135,172.16.1.2,5101,172.16.3.2,17524,1073725440,14480,162,65728,65700,6,6,4,1460,124062,1,16778208,390000,33580,0,65700,0,0,0,721743373,63
i,1723549154.292769,172.16.1.2,5102,172.16.5.2,56667,1073725440,14480,34,65728,65728,6,6,4,1460,122500,1,16778208,390000,33580,0,65700,0,0,0,2715171934,63
o,1723549154.292795,172.16.1.2,5102,172.16.5.2,56667,1073725440,14480,34,65728,65728,6,6,4,1460,122500,1,16778209,390000,33580,0,65700,1448,0,0,2715171934,63
i,1723549154.303008,172.16.1.2,5101,172.16.3.2,17524,1073725440,14480,162,65728,65700,6,6,4,1460,124062,1,16778208,390000,33580,0,65700,0,0,0,721743373,63
o,1723549154.303075,172.16.1.2,5101,172.16.3.2,17524,1073725440,14480,162,65728,65700,6,6,4,1460,124062,1,16778209,390000,33580,0,65700,1448,0,0,721743373,63
i,1723549154.323684,172.16.1.2,5102,172.16.5.2,56667,1073725440,14480,34,65728,65728,6,6,4,1460,122500,1,16778208,390000,33580,0,65700,0,0,0,2715171934,63
o,1723549154.359651,172.16.1.2,5102,172.16.5.2,56667,1073725440,14480,34,65728,65728,6,6,4,1460,122500,1,16778209,390000,33580,0,65700,0,0,0,2715171934,63
i,1723549154.429995,172.16.1.2,5101,172.16.3.2,17524,1073725440,14480,162,65728,65700,6,6,4,1460,124062,1,16778208,390000,33580,0,65700,0,0,0,721743373,63
o,1723549154.430269,172.16.1.2,5101,172.16.3.2,17524,1073725440,14480,34,65728,65700,6,6,4,1460,124062,1,16778209,390000,33580,0,65700,0,0,0,721743373,63
i,1723549154.485322,172.16.1.2,5101,172.16.3.2,17524,1073725440,14480,34,65728,65700,6,6,4,1460,124062,1,16778208,390000,33580,0,65700,0,0,0,721743373,63
i,1723549154.512136,172.16.1.2,5101,172.16.3.2,17524,1073725440,14480,34,65728,65700,6,6,4,1460,124062,1,16778208,390000,33580,0,65700,0,0,0,721743373,63
o,1723549154.512197,172.16.1.2,5101,172.16.3.2,17524,1073725440,14480,34,65728,65700,6,6,4,1460,124062,1,16778209,390000,33580,0,65700,1448,0,0,721743373,63
i,1723549154.579439,172.16.1.2,5101,172.16.3.2,17524,1073725440,14480,34,65728,65700,6,6,4,1460,124062,1,16778208,390000,33580,0,65700,0,0,0,721743373,63
i,1723549154.613352,172.16.1.2,5102,172.16.5.2,56667,1073725440,14480,34,65728,65728,6,6,4,1460,122500,1,16778208,390000,33580,0,65700,0,0,0,2715171934,63
o,1723549154.617702,172.16.1.2,5101,172.16.3.2,17524,1073725440,14480,34,65728,65700,6,6,4,1460,124062,1,16778209,390000,33580,0,65700,0,0,0,721743373,63
o,1723549154.638132,10.0.2.15,22,10.0.2.2,52280,1073725440,14600,1026,65535,65700,0,0,4,1460,312,0,16777220,230000,33580,108,65700,0,0,0,3007839365,63
o,1723549154.638277,10.0.2.15,22,10.0.2.2,52288,1073725440,14600,1026,65535,65700,0,0,4,1460,312,0,16777220,230000,33580,108,65700,0,0,0,48828706,63
i,1723549154.640515,10.0.2.15,22,10.0.2.2,52280,1073725440,14600,1026,65535,65700,0,0,4,1460,312,0,16777220,230000,33580,108,65700,0,108,0,3007839365,63
i,1723549154.640534,10.0.2.15,22,10.0.2.2,52288,1073725440,14600,1026,65535,65700,0,0,4,1460,312,0,16777220,230000,33580,108,65700,0,108,0,48828706,63
o,1723549154.648405,172.16.1.2,5102,172.16.5.2,56667,1073725440,14480,34,65728,65728,6,6,4,1460,122500,1,16778209,390000,33580,0,65700,0,0,0,2715171934,63
i,1723549154.673655,172.16.1.2,5102,172.16.5.2,56667,1073725440,14480,34,65728,65728,6,6,4,1460,122500,1,16778208,390000,33580,0,65700,0,0,0,2715171934,63
i,1723549154.684227,172.16.1.2,5102,172.16.5.2,56667,1073725440,14480,34,65728,65728,6,6,4,1460,122500,1,16778208,390000,33580,0,65700,0,0,0,2715171934,63
o,1723549154.684340,172.16.1.2,5102,172.16.5.2,56667,1073725440,14480,34,65728,65728,6,6,4,1460,122500,1,16778209,390000,33580,0,65700,1448,0,0,2715171934,63
i,1723549154.692719,172.16.1.2,5101,172.16.3.2,17524,1073725440,14480,34,65728,65700,6,6,4,1460,124062,1,16778208,390000,33580,0,65700,0,0,0,721743373,63
i,1723549154.702845,172.16.1.2,5102,172.16.5.2,56667,1073725440,14480,34,65728,65728,6,6,4,1460,122500,1,16778208,390000,33580,0,65700,0,0,0,2715171934,63
i,1723549154.713698,172.16.1.2,5101,172.16.3.2,17524,1073725440,14480,34,65728,65700,6,6,4,1460,124062,1,16778208,390000,33580,0,65700,0,0,0,721743373,63
o,1723549154.713734,172.16.1.2,5101,172.16.3.2,17524,1073725440,14480,34,65728,65700,6,6,4,1460,124062,1,16778209,390000,33580,0,65700,1448,0,0,721743373,63
i,1723549154.733801,172.16.1.2,5102,172.16.5.2,56667,1073725440,14480,34,65728,65728,6,6,4,1460,122500,1,16778208,390000,33580,0,65700,0,0,0,2715171934,63
o,1723549154.733821,172.16.1.2,5102,172.16.5.2,56667,1073725440,14480,34,65728,65728,6,6,4,1460,122500,1,16778209,390000,33580,0,65700,1448,0,0,2715171934,63
i,1723549154.752572,172.16.1.2,5101,172.16.3.2,17524,1073725440,14480,34,65728,65700,6,6,4,1460,124062,1,16778208,390000,33580,0,65700,0,0,0,721743373,63
i,1723549154.773622,172.16.1.2,5101,172.16.3.2,17524,1073725440,14480,34,65728,65700,6,6,4,1460,124062,1,16778208,390000,33580,0,65700,0,0,0,721743373,63
o,1723549154.773865,172.16.1.2,5101,172.16.3.2,17524,1073725440,14480,34,65728,65700,6,6,4,1460,124062,1,16778209,390000,33580,0,65700,1448,0,0,721743373,63
i,1723549154.793877,172.16.1.2,5102,172.16.5.2,56667,1073725440,14480,34,65728,65728,6,6,4,1460,122500,1,16778208,390000,33580,0,65700,0,0,0,2715171934,63
i,1723549154.803921,172.16.1.2,5102,172.16.5.2,56667,1073725440,14480,34,65728,65728,6,6,4,1460,122500,1,16778208,390000,33580,0,65700,0,0,0,2715171934,63
o,1723549154.803990,172.16.1.2,5102,172.16.5.2,56667,1073725440,14480,34,65728,65728,6,6,4,1460,122500,1,16778209,390000,33580,0,65700,1448,0,0,2715171934,63
i,1723549154.828330,172.16.1.2,5102,172.16.5.2,56667,1073725440,14480,34,65728,65728,6,6,4,1460,122500,1,16778208,390000,33580,0,65700,0,0,0,2715171934,63
i,1723549154.849896,172.16.1.2,5102,172.16.5.2,56667,1073725440,14480,34,65728,65728,6,6,4,1460,122500,1,16778208,390000,33580,0,65700,0,0,0,2715171934,63
o,1723549154.849896,172.16.1.2,5102,172.16.5.2,56667,1073725440,14480,34,65728,65728,6,6,4,1460,122500,1,16778209,390000,33580,0,65700,1448,0,0,2715171934,63
i,1723549154.873266,172.16.1.2,5101,172.16.3.2,17524,1073725440,14480,34,65728,65700,6,6,4,1460,124062,1,16778208,390000,33580,0,65700,0,0,0,721743373,63
i,1723549154.873339,172.16.1.2,5102,172.16.5.2,56667,1073725440,14480,34,65728,65728,6,6,4,1460,122500,1,16778208,390000,33580,0,65700,0,0,0,2715171934,63
i,1723549154.901783,172.16.1.2,5102,172.16.5.2,56667,1073725440,14480,34,65728,65728,6,6,4,1460,122500,1,16778208,390000,33580,0,65700,0,0,0,2715171934,63
o,1723549154.901928,172.16.1.2,5102,172.16.5.2,56667,1073725440,14480,34,65728,65728,6,6,4,1460,122500,1,16778209,390000,33580,0,65700,1448,0,0,2715171934,63
o,1723549154.908960,172.16.1.2,5101,172.16.3.2,17524,1073725440,14480,34,65728,65700,6,6,4,1460,124062,1,16778209,390000,33580,0,65700,0,0,0,721743373,63
i,1723549154.913018,172.16.1.2,5102,172.16.5.2,56667,1073725440,14480,34,65728,65728,6,6,4,1460,122500,1,16778208,390000,33580,0,65700,0,0,0,2715171934,63
o,1723549154.949812,172.16.1.2,5102,172.16.5.2,56667,1073725440,14480,34,65728,65728,6,6,4,1460,122500,1,16778209,390000,33580,0,65700,0,0,0,2715171934,63
i,1723549154.951935,172.16.1.2,5101,172.16.3.2,17524,1073725440,14480,34,65728,65700,6,6,4,1460,124062,1,16778208,390000,33580,0,65700,0,0,0,721743373,63
i,1723549154.981758,172.16.1.2,5102,172.16.5.2,56667,1073725440,14480,34,65728,65728,6,6,4,1460,122500,1,16778208,390000,33580,0,65700,0,0,0,2715171934,63
o,1723549154.988118,172.16.1.2,5101,172.16.3.2,17524,1073725440,14480,34,65728,65700,6,6,4,1460,124062,1,16778209,390000,33580,0,65700,0,0,0,721743373,63
o,1723549155.017899,172.16.1.2,5102,172.16.5.2,56667,1073725440,14480,34,65728,65728,6,6,4,1460,122500,1,16778209,390000,33580,0,65700,0,0,0,2715171934,63
i,1723549155.046952,172.16.1.2,5101,172.16.3.2,17524,1073725440,14480,34,65728,65700,6,6,4,1460,124062,1,16778208,390000,33580,0,65700,0,0,0,721743373,63
i,1723549155.062468,172.16.1.2,5101,172.16.3.2,17524,1073725440,14480,34,65728,65700,6,6,4,1460,124062,1,16778208,390000,33580,0,65700,0,0,0,721743373,63
o,1723549155.062530,172.16.1.2,5101,172.16.3.2,17524,1073725440,14480,34,65728,65700,6,6,4,1460,124062,1,16778209,390000,33580,0,65700,1448,0,0,721743373,63
i,1723549155.073645,172.16.1.2,5102,172.16.5.2,56667,1073725440,14480,34,65728,65728,6,6,4,1460,122500,1,16778208,390000,33580,0,65700,0,0,0,2715171934,63
i,1723549155.088633,172.16.1.2,5101,172.16.3.2,17524,1073725440,14480,34,65728,65700,6,6,4,1460,124062,1,16778208,390000,33580,0,65700,0,0,0,721743373,63
i,1723549155.098841,172.16.1.2,5102,172.16.5.2,56667,1073725440,14480,34,65728,65728,6,6,4,1460,122500,1,16778208,390000,33580,0,65700,0,0,0,2715171934,63
o,1723549155.098968,172.16.1.2,5102,172.16.5.2,56667,1073725440,14480,34,65728,65728,6,6,4,1460,122500,1,16778209,390000,33580,0,65700,1448,0,0,2715171934,63
i,1723549155.119729,172.16.1.2,5101,172.16.3.2,17524,1073725440,14480,34,65728,65700,6,6,4,1460,124062,1,16778208,390000,33580,0,65700,0,0,0,721743373,63
o,1723549155.119747,172.16.1.2,5101,172.16.3.2,17524,1073725440,14480,34,65728,65700,6,6,4,1460,124062,1,16778209,390000,33580,0,65700,1448,0,0,721743373,63
i,1723549155.125259,172.16.1.2,5102,172.16.5.2,56667,1073725440,14480,34,65728,65728,6,6,4,1460,122500,1,16778208,390000,33580,0,65700,0,0,0,2715171934,63
i,1723549155.132587,172.16.1.2,5101,172.16.3.2,17524,1073725440,14480,34,65728,65700,6,6,4,1460,124062,1,16778208,390000,33580,0,65700,0,0,0,721743373,63
i,1723549155.143158,172.16.1.2,5102,172.16.5.2,56667,1073725440,14480,34,65728,65728,6,6,4,1460,122500,1,16778208,390000,33580,0,65700,0,0,0,2715171934,63
o,1723549155.143221,172.16.1.2,5102,172.16.5.2,56667,1073725440,14480,34,65728,65728,6,6,4,1460,122500,1,16778209,390000,33580,0,65700,1448,0,0,2715171934,63
o,1723549155.167724,172.16.1.2,5101,172.16.3.2,17524,1073725440,14480,34,65728,65700,6,6,4,1460,124062,1,16778209,390000,33580,0,65700,0,0,0,721743373,63
i,1723549155.265083,172.16.1.2,5101,172.16.3.2,17524,1073725440,14480,34,65728,65700,6,6,4,1460,124062,1,16778208,390000,33580,0,65700,0,0,0,721743373,63
i,1723549155.285978,172.16.1.2,5101,172.16.3.2,17524,1073725440,14480,34,65728,65700,6,6,4,1460,124062,1,16778208,390000,33580,0,65700,0,0,0,721743373,63
o,1723549155.286073,172.16.1.2,5101,172.16.3.2,17524,1073725440,14480,34,65728,65700,6,6,4,1460,124062,1,16778209,390000,33580,0,65700,1448,0,0,721743373,63
i,1723549155.292779,172.16.1.2,5102,172.16.5.2,56667,1073725440,14480,34,65728,65728,6,6,4,1460,122500,1,16778208,390000,33580,0,65700,0,0,0,2715171934,63
i,1723549155.325559,172.16.1.2,5102,172.16.5.2,56667,1073725440,14480,34,65728,65728,6,6,4,1460,122500,1,16778208,390000,33580,0,65700,0,0,0,2715171934,63
o,1723549155.325639,172.16.1.2,5102,172.16.5.2,56667,1073725440,14480,34,65728,65728,6,6,4,1460,122500,1,16778209,390000,33580,0,65700,1448,0,0,2715171934,63
i,1723549155.370074,172.16.1.2,5101,172.16.3.2,17524,1073725440,14480,34,65728,65700,6,6,4,1460,124062,1,16778208,390000,33580,0,65700,0,0,0,721743373,63
i,1723549155.382250,172.16.1.2,5101,172.16.3.2,17524,1073725440,14480,34,65728,65700,6,6,4,1460,124062,1,16778208,390000,33580,0,65700,0,0,0,721743373,63
o,1723549155.382281,172.16.1.2,5101,172.16.3.2,17524,1073725440,14480,34,65728,65700,6,6,4,1460,124062,1,16778209,390000,33580,0,65700,1448,0,0,721743373,63
i,1723549155.411833,172.16.1.2,5102,172.16.5.2,56667,1073725440,14480,34,65728,65728,6,6,4,1460,122500,1,16778208,390000,33580,0,65700,0,0,0,2715171934,63
i,1723549155.437324,172.16.1.2,5101,172.16.3.2,17524,1073725440,14480,34,65728,65700,6,6,4,1460,124062,1,16778208,390000,33580,0,65700,0,0,0,721743373,63
i,1723549155.442329,172.16.1.2,5102,172.16.5.2,56667,1073725440,14480,34,65728,65728,6,6,4,1460,122500,1,16778208,390000,33580,0,65700,0,0,0,2715171934,63
o,1723549155.442354,172.16.1.2,5102,172.16.5.2,56667,1073725440,14480,34,65728,65728,6,6,4,1460,122500,1,16778209,390000,33580,0,65700,1448,0,0,2715171934,63
i,1723549155.452248,172.16.1.2,5101,172.16.3.2,17524,1073725440,14480,34,65728,65700,6,6,4,1460,124062,1,16778208,390000,33580,0,65700,0,0,0,721743373,63
o,1723549155.452313,172.16.1.2,5101,172.16.3.2,17524,1073725440,14480,34,65728,65700,6,6,4,1460,124062,1,16778209,390000,33580,0,65700,1448,0,0,721743373,63
i,1723549155.462837,172.16.1.2,5102,172.16.5.2,56667,1073725440,14480,34,65728,65728,6,6,4,1460,122500,1,16778208,390000,33580,0,65700,0,0,0,2715171934,63
o,1723549155.506858,172.16.1.2,5102,172.16.5.2,56667,1073725440,14480,34,65728,65728,6,6,4,1460,122500,1,16778209,390000,33580,0,65700,0,0,0,2715171934,63
i,1723549155.525926,172.16.1.2,5101,172.16.3.2,17524,1073725440,14480,34,65728,65700,6,6,4,1460,124062,1,16778208,390000,33580,0,65700,0,0,0,721743373,63
o,1723549155.560268,172.16.1.2,5101,172.16.3.2,17524,1073725440,14480,34,65728,65700,6,6,4,1460,124062,1,16778209,390000,33580,0,65700,0,0,0,721743373,63
i,1723549155.561986,172.16.1.2,5102,172.16.5.2,56667,1073725440,14480,34,65728,65728,6,6,4,1460,122500,1,16778208,390000,33580,0,65700,0,0,0,2715171934,63
i,1723549155.588626,172.16.1.2,5102,172.16.5.2,56667,1073725440,14480,34,65728,65728,6,6,4,1460,122500,1,16778208,390000,33580,0,65700,0,0,0,2715171934,63
o,1723549155.588712,172.16.1.2,5102,172.16.5.2,56667,1073725440,14480,34,65728,65728,6,6,4,1460,122500,1,16778209,390000,33580,0,65700,1448,0,0,2715171934,63
i,1723549155.601960,172.16.1.2,5101,172.16.3.2,17524,1073725440,14480,34,65728,65700,6,6,4,1460,124062,1,16778208,390000,33580,0,65700,0,0,0,721743373,63
i,1723549155.611990,172.16.1.2,5102,172.16.5.2,56667,1073725440,14480,34,65728,65728,6,6,4,1460,122500,1,16778208,390000,33580,0,65700,0,0,0,2715171934,63
i,1723549155.622360,172.16.1.2,5101,172.16.3.2,17524,1073725440,14480,34,65728,65700,6,6,4,1460,124062,1,16778208,390000,33580,0,65700,0,0,0,721743373,63
o,1723549155.622445,172.16.1.2,5101,172.16.3.2,17524,1073725440,14480,34,65728,65700,6,6,4,1460,124062,1,16778209,390000,33580,0,65700,1448,0,0,721743373,63
o,1723549155.637924,10.0.2.15,22,10.0.2.2,52280,1073725440,14600,1026,65535,65700,0,0,4,1460,312,0,16777220,230000,33580,108,65700,0,0,0,3007839365,63
o,1723549155.638173,10.0.2.15,22,10.0.2.2,52288,1073725440,14600,1026,65535,65700,0,0,4,1460,312,0,16777220,230000,33580,108,65700,0,0,0,48828706,63
i,1723549155.639830,10.0.2.15,22,10.0.2.2,52280,1073725440,14600,1026,65535,65700,0,0,4,1460,312,0,16777220,230000,33580,108,65700,0,108,0,3007839365,63
i,1723549155.639851,10.0.2.15,22,10.0.2.2,52288,1073725440,14600,1026,65535,65700,0,0,4,1460,312,0,16777220,230000,33580,108,65700,0,108,0,48828706,63
o,1723549155.648699,172.16.1.2,5102,172.16.5.2,56667,1073725440,14480,34,65728,65728,6,6,4,1460,122500,1,16778209,390000,33580,0,65700,0,0,0,2715171934,63
i,1723549155.690937,172.16.1.2,5102,172.16.5.2,56667,1073725440,14480,34,65728,65728,6,6,4,1460,122500,1,16778208,390000,33580,0,65700,0,0,0,2715171934,63
i,1723549155.693495,172.16.1.2,5101,172.16.3.2,17524,1073725440,14480,34,65728,65700,6,6,4,1460,124062,1,16778208,390000,33580,0,65700,0,0,0,721743373,63
i,1723549155.712739,172.16.1.2,5102,172.16.5.2,56667,1073725440,14480,34,65728,65728,6,6,4,1460,122500,1,16778208,390000,33580,0,65700,0,0,0,2715171934,63
o,1723549155.712788,172.16.1.2,5102,172.16.5.2,56667,1073725440,14480,34,65728,65728,6,6,4,1460,122500,1,16778209,390000,33580,0,65700,1448,0,0,2715171934,63
i,1723549155.723010,172.16.1.2,5101,172.16.3.2,17524,1073725440,14480,34,65728,65700,6,6,4,1460,124062,1,16778208,390000,33580,0,65700,0,0,0,721743373,63
o,1723549155.723101,172.16.1.2,5101,172.16.3.2,17524,1073725440,14480,34,65728,65700,6,6,4,1460,124062,1,16778209,390000,33580,0,65700,1448,0,0,721743373,63
i,1723549155.733974,172.16.1.2,5102,172.16.5.2,56667,1073725440,14480,34,65728,65728,6,6,4,1460,122500,1,16778208,390000,33580,0,65700,0,0,0,2715171934,63
o,1723549155.770679,172.16.1.2,5102,172.16.5.2,56667,1073725440,14480,34,65728,65728,6,6,4,1460,122500,1,16778209,390000,33580,0,65700,0,0,0,2715171934,63
i,1723549155.772822,172.16.1.2,5101,172.16.3.2,17524,1073725440,14480,34,65728,65700,6,6,4,1460,124062,1,16778208,390000,33580,0,65700,0,0,0,721743373,63
i,1723549155.792411,172.16.1.2,5101,172.16.3.2,17524,1073725440,14480,34,65728,65700,6,6,4,1460,124062,1,16778208,390000,33580,0,65700,0,0,0,721743373,63
o,1723549155.792500,172.16.1.2,5101,172.16.3.2,17524,1073725440,14480,34,65728,65700,6,6,4,1460,124062,1,16778209,390000,33580,0,65700,1448,0,0,721743373,63
i,1723549155.807483,172.16.1.2,5102,172.16.5.2,56667,1073725440,14480,34,65728,65728,6,6,4,1460,122500,1,16778208,390000,33580,0,65700,0,0,0,2715171934,63
i,1723549155.831613,172.16.1.2,5102,172.16.5.2,56667,1073725440,14480,34,65728,65728,6,6,4,1460,122500,1,16778208,390000,33580,0,65700,0,0,0,2715171934,63
o,1723549155.831739,172.16.1.2,5102,172.16.5.2,56667,1073725440,14480,34,65728,65728,6,6,4,1460,122500,1,16778209,390000,33580,0,65700,1448,0,0,2715171934,63
i,1723549155.859556,172.16.1.2,5102,172.16.5.2,56667,1073725440,14480,34,65728,65728,6,6,4,1460,122500,1,16778208,390000,33580,0,65700,0,0,0,2715171934,63
i,1723549155.872818,172.16.1.2,5101,172.16.3.2,17524,1073725440,14480,34,65728,65700,6,6,4,1460,124062,1,16778208,390000,33580,0,65700,0,0,0,721743373,63
o,1723549155.899834,172.16.1.2,5102,172.16.5.2,56667,1073725440,14480,34,65728,65728,6,6,4,1460,122500,1,16778209,390000,33580,0,65700,0,0,0,2715171934,63
o,1723549155.909321,172.16.1.2,5101,172.16.3.2,17524,1073725440,14480,34,65728,65700,6,6,4,1460,124062,1,16778209,390000,33580,0,65700,0,0,0,721743373,63
i,1723549155.962796,172.16.1.2,5101,172.16.3.2,17524,1073725440,14480,34,65728,65700,6,6,4,1460,124062,1,16778208,390000,33580,0,65700,0,0,0,721743373,63
i,1723549155.976653,172.16.1.2,5101,172.16.3.2,17524,1073725440,14480,34,65728,65700,6,6,4,1460,124062,1,16778208,390000,33580,0,65700,0,0,0,721743373,63
o,1723549155.976744,172.16.1.2,5101,172.16.3.2,17524,1073725440,14480,162,65728,65700,6,6,4,1460,124062,1,16778209,390000,33580,0,65700,1448,0,0,721743373,63
i,1723549156.014902,172.16.1.2,5102,172.16.5.2,56667,1073725440,14480,34,65728,65728,6,6,4,1460,122500,1,16778208,390000,33580,0,65700,0,0,0,2715171934,63
o,1723549156.014922,172.16.1.2,5102,172.16.5.2,56667,1073725440,14480,34,65728,65728,6,6,4,1460,122500,1,16778209,390000,33580,0,65700,0,0,1,2715171934,63
i,1723549156.043625,172.16.1.2,5102,172.16.5.2,56667,1073725440,14480,34,65728,65728,6,6,4,1460,122500,1,16778208,390000,33580,0,65700,0,0,1,2715171934,63
o,1723549156.043648,172.16.1.2,5102,172.16.5.2,56667,1073725440,14480,34,65728,65728,6,6,4,1460,122500,1,16778209,390000,33580,0,65700,0,0,1,2715171934,63
i,1723549156.056476,172.16.1.2,5101,172.16.3.2,17524,1073725440,14480,162,65728,65700,6,6,4,1460,124062,1,16778208,390000,33580,0,65700,0,0,0,721743373,63
i,1723549156.067203,172.16.1.2,5102,172.16.5.2,56667,1073725440,14480,34,65728,65728,6,6,4,1460,122500,1,16778208,390000,33580,0,65700,0,0,1,2715171934,63
o,1723549156.067251,172.16.1.2,5102,172.16.5.2,56667,1073725440,14480,34,65728,65728,6,6,4,1460,122500,1,16778209,390000,33580,0,65700,0,0,1,2715171934,63
i,1723549156.083257,172.16.1.2,5101,172.16.3.2,17524,1073725440,14480,162,65728,65700,6,6,4,1460,124062,1,16778208,390000,33580,0,65700,0,0,0,721743373,63
o,1723549156.083332,172.16.1.2,5101,172.16.3.2,17524,1073725440,14480,162,65728,65700,6,6,4,1460,124062,1,16778209,390000,33580,0,65700,1448,0,0,721743373,63
i,1723549156.094307,172.16.1.2,5102,172.16.5.2,56667,1073725440,14480,34,65728,65728,6,6,4,1460,122500,1,16778208,390000,33580,0,65700,0,0,1,2715171934,63
o,1723549156.094331,172.16.1.2,5102,172.16.5.2,56667,1073725440,14480,34,65728,65728,6,6,4,1460,122500,1,16778209,390000,33580,0,65700,0,0,1,2715171934,63
i,1723549156.122588,172.16.1.2,5102,172.16.5.2,56667,1073725440,14480,34,65728,65728,6,6,4,1460,122500,1,16778208,390000,33580,0,65700,0,0,1,2715171934,63
o,1723549156.122619,172.16.1.2,5102,172.16.5.2,56667,1073725440,14480,34,65728,65728,6,6,4,1460,122500,1,16778209,390000,33580,0,65700,0,0,1,2715171934,63
i,1723549156.140450,172.16.1.2,5101,172.16.3.2,17524,1073725440,14480,162,65728,65700,6,6,4,1460,124062,1,16778208,390000,33580,0,65700,0,0,0,721743373,63
i,1723549156.144820,172.16.1.2,5102,172.16.5.2,56667,1073725440,14480,34,65728,65728,6,6,4,1460,122500,1,16778208,390000,33580,0,65700,0,0,1,2715171934,63
o,1723549156.144845,172.16.1.2,5102,172.16.5.2,56667,1073725440,14480,34,65728,65728,6,6,4,1460,122500,1,16778209,390000,33580,0,65700,0,0,1,2715171934,63
i,1723549156.171561,172.16.1.2,5101,172.16.3.2,17524,1073725440,14480,162,65728,65700,6,6,4,1460,124062,1,16778208,390000,33580,0,65700,0,0,0,721743373,63
o,1723549156.171662,172.16.1.2,5101,172.16.3.2,17524,1073725440,14480,162,65728,65700,6,6,4,1460,124062,1,16778209,390000,33580,0,65700,1448,0,0,721743373,63
i,1723549156.201669,172.16.1.2,5101,172.16.3.2,17524,1073725440,14480,162,65728,65700,6,6,4,1460,124062,1,16778208,390000,33580,0,65700,0,0,0,721743373,63
o,1723549156.238161,172.16.1.2,5101,172.16.3.2,17524,1073725440,14480,162,65728,65700,6,6,4,1460,124062,1,16778209,390000,33580,0,65700,0,0,0,721743373,63
i,1723549156.240268,172.16.1.2,5101,172.16.3.2,17524,1073725440,14480,162,65728,65700,6,6,4,1460,124062,1,16778208,390000,33580,0,65700,0,0,0,721743373,63
o,1723549156.240526,172.16.1.2,5101,172.16.3.2,17524,1073725440,14480,34,65728,65700,6,6,4,1460,124062,1,16778209,390000,33580,0,65700,0,0,0,721743373,63
i,1723549156.276001,172.16.1.2,5102,172.16.5.2,56667,1073725440,14480,34,65728,65728,6,6,4,1460,122500,1,16778208,390000,33580,0,65700,0,0,1,2715171934,63
o,1723549156.276034,172.16.1.2,5102,172.16.5.2,56667,1073725440,14480,34,65728,65728,6,6,4,1460,122500,1,16778209,390000,33580,0,65700,0,0,1,2715171934,63
i,1723549156.283109,172.16.1.2,5102,172.16.5.2,56667,1073725440,14480,34,65728,65728,6,6,4,1460,122500,1,16778208,390000,33580,0,65700,0,0,1,2715171934,63
o,1723549156.283137,172.16.1.2,5102,172.16.5.2,56667,1073725440,14480,34,65728,65728,6,6,4,1460,122500,1,16778209,390000,33580,0,65700,0,0,1,2715171934,63
i,1723549156.322222,172.16.1.2,5102,172.16.5.2,56667,1073725440,14480,34,65728,65728,6,6,4,1460,122500,1,16778208,390000,33580,0,65700,0,0,1,2715171934,63
o,1723549156.322254,172.16.1.2,5102,172.16.5.2,56667,1073725440,14480,34,65728,65728,6,6,4,1460,122500,1,16778209,390000,33580,0,65700,0,0,1,2715171934,63
i,1723549156.337259,172.16.1.2,5102,172.16.5.2,56667,1073725440,14480,34,65728,65728,6,6,4,1460,122500,1,16778208,390000,33580,0,65700,0,0,1,2715171934,63
o,1723549156.337294,172.16.1.2,5102,172.16.5.2,56667,1073725440,14480,34,65728,65728,6,6,4,1460,122500,1,16778209,390000,33580,0,65700,0,0,1,2715171934,63
i,1723549156.342389,172.16.1.2,5102,172.16.5.2,56667,1073725440,14480,34,65728,65728,6,6,4,1460,122500,1,16778208,390000,33580,0,65700,0,0,1,2715171934,63
o,1723549156.342389,172.16.1.2,5102,172.16.5.2,56667,1073725440,14480,34,65728,65728,6,6,4,1460,122500,1,16778209,390000,33580,0,65700,0,0,1,2715171934,63
i,1723549156.362797,172.16.1.2,5102,172.16.5.2,56667,1073725440,14480,34,65728,65728,6,6,4,1460,122500,1,16778208,390000,33580,0,65700,0,0,1,2715171934,63
o,1723549156.362886,172.16.1.2,5102,172.16.5.2,56667,1073725440,14480,34,65728,65728,6,6,4,1460,122500,1,16778209,390000,33580,0,65700,17376,0,0,2715171934,63
o,1723549156.363066,172.16.1.2,5102,172.16.5.2,56667,1073725440,14480,34,65728,65728,6,6,4,1460,122500,1,16778208,390000,33580,0,65700,0,0,0,2715171934,63
i,1723549156.410289,172.16.1.2,5102,172.16.5.2,56667,1073725440,14480,34,65728,65728,6,6,4,1460,122500,1,16778208,390000,33580,0,65700,0,0,0,2715171934,63
o,1723549156.412081,172.16.1.2,5102,172.16.5.2,56667,1073725440,14480,34,65728,65728,6,6,4,1460,122500,1,16778209,390000,33580,0,65700,0,0,0,2715171934,63
i,1723549156.432521,172.16.1.2,5101,172.16.3.2,17524,1073725440,14480,34,65728,65700,6,6,4,1460,124062,1,16778208,390000,33580,0,65700,0,0,0,721743373,63
i,1723549156.452937,172.16.1.2,5101,172.16.3.2,17524,1073725440,14480,34,65728,65700,6,6,4,1460,124062,1,16778208,390000,33580,0,65700,0,0,0,721743373,63
o,1723549156.453028,172.16.1.2,5101,172.16.3.2,17524,1073725440,14480,34,65728,65700,6,6,4,1460,124062,1,16778209,390000,33580,0,65700,1448,0,0,721743373,63
i,1723549156.472745,172.16.1.2,5101,172.16.3.2,17524,1073725440,14480,34,65728,65700,6,6,4,1460,124062,1,16778208,390000,33580,0,65700,0,0,0,721743373,63
i,1723549156.483370,172.16.1.2,5102,172.16.5.2,56667,1073725440,14480,34,65728,65728,6,6,4,1460,122500,1,16778208,390000,33580,0,65700,0,0,0,2715171934,63
o,1723549156.483410,172.16.1.2,5102,172.16.5.2,56667,1073725440,14480,34,65728,65728,6,6,4,1460,122500,1,16778209,390000,33580,0,65700,0,0,0,2715171934,63
o,1723549156.507894,172.16.1.2,5101,172.16.3.2,17524,1073725440,14480,34,65728,65700,6,6,4,1460,124062,1,16778209,390000,33580,0,65700,0,0,0,721743373,63
i,1723549156.512835,172.16.1.2,5102,172.16.5.2,56667,1073725440,14480,34,65728,65728,6,6,4,1460,122500,1,16778208,390000,33580,0,65700,0,0,0,2715171934,63
o,1723549156.512860,172.16.1.2,5102,172.16.5.2,56667,1073725440,14480,34,65728,65728,6,6,4,1460,122500,1,16778209,390000,33580,0,65700,0,0,1,2715171934,63
i,1723549156.533008,172.16.1.2,5102,172.16.5.2,56667,1073725440,14480,34,65728,65728,6,6,4,1460,122500,1,16778208,390000,33580,0,65700,0,0,1,2715171934,63
o,1723549156.533038,172.16.1.2,5102,172.16.5.2,56667,1073725440,14480,34,65728,65728,6,6,4,1460,122500,1,16778209,390000,33580,0,65700,0,0,1,2715171934,63
i,1723549156.582983,172.16.1.2,5102,172.16.5.2,56667,1073725440,14480,34,65728,65728,6,6,4,1460,122500,1,16778208,390000,33580,0,65700,0,0,1,2715171934,63
o,1723549156.583013,172.16.1.2,5102,172.16.5.2,56667,1073725440,14480,34,65728,65728,6,6,4,1460,122500,1,16778209,390000,33580,0,65700,0,0,1,2715171934,63
o,1723549156.638738,10.0.2.15,22,10.0.2.2,52288,1073725440,14600,1026,65535,65700,0,0,4,1460,312,0,16777220,230000,33580,108,65700,0,0,0,48828706,63
o,1723549156.639329,10.0.2.15,22,10.0.2.2,52280,1073725440,14600,1026,65535,65700,0,0,4,1460,312,0,16777220,240000,33580,108,65700,0,0,0,3007839365,63
i,1723549156.639859,10.0.2.15,22,10.0.2.2,52288,1073725440,14600,1026,65535,65700,0,0,4,1460,312,0,16777220,230000,33580,108,65700,0,108,0,48828706,63
i,1723549156.640237,10.0.2.15,22,10.0.2.2,52280,1073725440,14600,1026,65535,65700,0,0,4,1460,312,0,16777220,240000,33580,108,65700,0,108,0,3007839365,63
i,1723549156.643924,172.16.1.2,5102,172.16.5.2,56667,1073725440,14480,34,65728,65728,6,6,4,1460,122500,1,16778208,390000,33580,0,65700,0,0,1,2715171934,63
o,1723549156.643956,172.16.1.2,5102,172.16.5.2,56667,1073725440,14480,34,65728,65728,6,6,4,1460,122500,1,16778209,390000,33580,0,65700,0,0,1,2715171934,63
i,1723549156.653243,172.16.1.2,5102,172.16.5.2,56667,1073725440,14480,34,65728,65728,6,6,4,1460,122500,1,16778208,390000,33580,0,65700,0,0,1,2715171934,63
o,1723549156.653271,172.16.1.2,5102,172.16.5.2,56667,1073725440,14480,34,65728,65728,6,6,4,1460,122500,1,16778209,390000,33580,0,65700,0,0,1,2715171934,63
i,1723549156.681517,172.16.1.2,5101,172.16.3.2,17524,1073725440,14480,34,65728,65700,6,6,4,1460,124062,1,16778208,390000,33580,0,65700,0,0,0,721743373,63
i,1723549156.681630,172.16.1.2,5102,172.16.5.2,56667,1073725440,14480,34,65728,65728,6,6,4,1460,122500,1,16778208,390000,33580,0,65700,0,0,1,2715171934,63
o,1723549156.681683,172.16.1.2,5102,172.16.5.2,56667,1073725440,14480,34,65728,65728,6,6,4,1460,122500,1,16778209,390000,33580,0,65700,0,0,1,2715171934,63
i,1723549156.692033,172.16.1.2,5101,172.16.3.2,17524,1073725440,14480,34,65728,65700,6,6,4,1460,124062,1,16778208,390000,33580,0,65700,0,0,0,721743373,63
o,1723549156.692094,172.16.1.2,5101,172.16.3.2,17524,1073725440,14480,34,65728,65700,6,6,4,1460,124062,1,16778209,390000,33580,0,65700,1448,0,0,721743373,63
i,1723549156.703716,172.16.1.2,5101,172.16.3.2,17524,1073725440,14480,34,65728,65700,6,6,4,1460,124062,1,16778208,390000,33580,0,65700,0,0,0,721743373,63
o,1723549156.748050,172.16.1.2,5101,172.16.3.2,17524,1073725440,14480,34,65728,65700,6,6,4,1460,124062,1,16778209,390000,33580,0,65700,0,0,0,721743373,63
i,1723549156.749288,172.16.1.2,5101,172.16.3.2,17524,1073725440,14480,34,65728,65700,6,6,4,1460,124062,1,16778208,390000,33580,0,65700,0,0,0,721743373,63
i,1723549156.773015,172.16.1.2,5101,172.16.3.2,17524,1073725440,14480,34,65728,65700,6,6,4,1460,124062,1,16778208,390000,33580,0,65700,0,0,0,721743373,63
o,1723549156.773087,172.16.1.2,5101,172.16.3.2,17524,1073725440,14480,34,65728,65700,6,6,4,1460,124062,1,16778209,390000,33580,0,65700,1448,0,0,721743373,63
i,1723549156.834049,172.16.1.2,5102,172.16.5.2,56667,1073725440,14480,34,65728,65728,6,6,4,1460,122500,1,16778208,390000,33580,0,65700,0,0,1,2715171934,63
o,1723549156.834158,172.16.1.2,5102,172.16.5.2,56667,1073725440,14480,34,65728,65728,6,6,4,1460,122500,1,16778209,390000,33580,0,65700,10136,0,0,2715171934,63
i,1723549156.842329,172.16.1.2,5102,172.16.5.2,56667,1073725440,14480,34,65728,65728,6,6,4,1460,122500,1,16778208,390000,33580,0,65700,0,0,0,2715171934,63
o,1723549156.842373,172.16.1.2,5102,172.16.5.2,56667,1073725440,14480,34,65728,65700,6,6,4,1460,122500,1,16778209,390000,33580,0,65700,0,0,0,2715171934,63
i,1723549156.853030,172.16.1.2,5102,172.16.5.2,56667,1073725440,14480,34,65728,65700,6,6,4,1460,122500,1,16778208,390000,33580,0,65700,0,0,0,2715171934,63
i,1723549156.872355,172.16.1.2,5101,172.16.3.2,17524,1073725440,14480,34,65728,65700,6,6,4,1460,124062,1,16778208,390000,33580,0,65700,0,0,0,721743373,63
o,1723549156.890095,172.16.1.2,5102,172.16.5.2,56667,1073725440,14480,34,65728,65700,6,6,4,1460,122500,1,16778209,390000,33580,0,65700,0,0,0,2715171934,63
i,1723549156.892583,172.16.1.2,5101,172.16.3.2,17524,1073725440,14480,34,65728,65700,6,6,4,1460,124062,1,16778208,390000,33580,0,65700,0,0,0,721743373,63
o,1723549156.892608,172.16.1.2,5101,172.16.3.2,17524,1073725440,14480,34,65728,65700,6,6,4,1460,124062,1,16778209,390000,33580,0,65700,1448,0,0,721743373,63
i,1723549156.942740,172.16.1.2,5102,172.16.5.2,56667,1073725440,14480,34,65728,65700,6,6,4,1460,122500,1,16778208,390000,33580,0,65700,0,0,0,2715171934,63
i,1723549156.952165,172.16.1.2,5102,172.16.5.2,56667,1073725440,14480,34,65728,65700,6,6,4,1460,122500,1,16778208,390000,33580,0,65700,0,0,0,2715171934,63
o,1723549156.952254,172.16.1.2,5102,172.16.5.2,56667,1073725440,14480,34,65728,65700,6,6,4,1460,122500,1,16778209,390000,33580,0,65700,1448,0,0,2715171934,63
i,1723549156.982860,172.16.1.2,5102,172.16.5.2,56667,1073725440,14480,34,65728,65700,6,6,4,1460,122500,1,16778208,390000,33580,0,65700,0,0,0,2715171934,63
i,1723549157.003130,172.16.1.2,5101,172.16.3.2,17524,1073725440,14480,34,65728,65700,6,6,4,1460,124062,1,16778208,390000,33580,0,65700,0,0,0,721743373,63
i,1723549157.003229,172.16.1.2,5101,172.16.3.2,17524,1073725440,14480,34,65728,65700,6,6,4,1460,124062,1,16778208,390000,33580,0,65700,1448,0,0,721743373,63
o,1723549157.003249,172.16.1.2,5101,172.16.3.2,17524,1073725440,14480,34,65728,65700,6,6,4,1460,124062,1,16778209,390000,33580,0,65700,2896,0,0,721743373,63
o,1723549157.018807,172.16.1.2,5102,172.16.5.2,56667,1073725440,14480,34,65728,65700,6,6,4,1460,122500,1,16778209,390000,33580,0,65700,0,0,0,2715171934,63
i,1723549157.042610,172.16.1.2,5101,172.16.3.2,17524,1073725440,14480,34,65728,65700,6,6,4,1460,124062,1,16778208,390000,33580,0,65700,0,0,0,721743373,63
i,1723549157.062977,172.16.1.2,5101,172.16.3.2,17524,1073725440,14480,34,65728,65700,6,6,4,1460,124062,1,16778208,390000,33580,0,65700,0,0,0,721743373,63
o,1723549157.063133,172.16.1.2,5101,172.16.3.2,17524,1073725440,14480,34,65728,65700,6,6,4,1460,124062,1,16778209,390000,33580,0,65700,1448,0,0,721743373,63
i,1723549157.084730,172.16.1.2,5101,172.16.3.2,17524,1073725440,14480,34,65728,65700,6,6,4,1460,124062,1,16778208,390000,33580,0,65700,0,0,0,721743373,63
