enable_time_secs=1723545716	enable_time_usecs=123420	siftrver=1.3.0	sysname=FreeBSD	sysver=1401000	ipmode=4
o,1723545716.123822,10.0.2.15,22,10.0.2.2,52230,1073725440,17746,1026,65535,65700,0,0,4,1460,312,0,16777220,240000,33580,172,65700,0,0,0,2163393575,63
o,1723545716.124658,10.0.2.15,22,10.0.2.2,52230,1073725440,17746,1026,65535,65700,0,0,4,1460,312,0,16777220,240000,33580,244,65700,0,172,0,2163393575,63
i,1723545716.124760,10.0.2.15,22,10.0.2.2,52230,1073725440,17746,1026,65535,65700,0,0,4,1460,312,0,16777220,240000,33580,244,65700,0,244,0,2163393575,63
i,1723545716.125254,10.0.2.15,22,10.0.2.2,52230,1073725440,17918,1026,65535,65700,0,0,4,1460,312,0,4,240000,33580,72,65700,0,72,0,2163393575,63
i,1723545716.125659,10.0.2.15,22,10.0.2.2,52230,1073725440,17990,1026,65535,65700,0,0,4,1460,312,0,4,240000,33580,0,65700,0,0,0,2163393575,63
i,1723545716.125676,10.0.2.15,22,10.0.2.2,52230,1073725440,17990,1026,65535,65700,0,0,4,1460,312,0,4,240000,33580,0,65700,96,0,0,2163393575,63
o,1723545716.125692,10.0.2.15,22,10.0.2.2,52230,1073725440,17990,1026,65535,65604,0,0,5,1460,312,0,5,240000,33580,0,65700,96,0,0,2163393575,63
o,1723545716.126252,10.0.2.15,22,10.0.2.2,52230,1073725440,17990,1026,65535,65604,0,0,8,1460,312,0,4,240000,33580,0,65700,0,0,0,2163393575,63
i,1723545716.126840,10.0.2.15,22,10.0.2.2,52230,1073725440,17990,1026,65535,65604,0,0,8,1460,312,0,67108884,240000,33580,0,65700,0,1,0,2163393575,63
i,1723545719.353731,10.0.2.15,22,10.0.2.2,52238,1073725440,14600,0,65535,65700,0,0,4,1460,312,0,16777216,270000,33580,0,65700,0,0,0,1422458076,63
o,1723545719.364722,10.0.2.15,22,10.0.2.2,52238,1073725440,14600,1026,65535,65700,0,0,4,1460,312,0,16777216,270000,33580,38,65700,42,0,0,1422458076,63
i,1723545719.365387,10.0.2.15,22,10.0.2.2,52238,1073725440,14600,1026,65535,65700,0,0,4,1460,312,0,16777216,270000,33580,38,65700,0,38,0,1422458076,63
i,1723545719.365900,10.0.2.15,22,10.0.2.2,52238,1073725440,14638,1026,65535,65700,0,0,4,1460,312,0,0,240000,33580,0,65700,0,0,0,1422458076,63
i,1723545719.365918,10.0.2.15,22,10.0.2.2,52238,1073725440,14638,1026,65535,65700,0,0,4,1460,312,0,0,240000,33580,0,65700,1460,0,0,1422458076,63
o,1723545719.365937,10.0.2.15,22,10.0.2.2,52238,1073725440,14638,1026,65535,65700,0,0,4,1460,312,0,1,240000,33580,0,65700,1536,0,0,1422458076,63
o,1723545719.366794,10.0.2.15,22,10.0.2.2,52238,1073725440,14638,1026,65535,65700,0,0,4,1460,312,0,16777216,240000,33580,1120,65700,1536,0,0,1422458076,63
i,1723545719.367804,10.0.2.15,22,10.0.2.2,52238,1073725440,14638,1026,65535,65700,0,0,4,1460,312,0,16777216,240000,33580,1120,65700,0,1120,0,1422458076,63
i,1723545719.368612,10.0.2.15,22,10.0.2.2,52238,1073725440,15758,1026,65535,65700,0,0,4,1460,312,0,0,240000,33580,0,65700,0,0,0,1422458076,63
o,1723545719.372146,10.0.2.15,22,10.0.2.2,52238,1073725440,15758,1026,65535,65700,0,0,4,1460,312,0,16777216,240000,33580,492,65700,0,0,0,1422458076,63
i,1723545719.373175,10.0.2.15,22,10.0.2.2,52238,1073725440,15758,1026,65535,65700,0,0,4,1460,312,0,16777216,240000,33580,492,65700,0,492,0,1422458076,63
i,1723545719.377070,10.0.2.15,22,10.0.2.2,52238,1073725440,16250,1026,65535,65700,0,0,4,1460,312,0,0,240000,33580,0,65700,0,0,0,1422458076,63
i,1723545719.377089,10.0.2.15,22,10.0.2.2,52238,1073725440,16250,1026,65535,65700,0,0,4,1460,312,0,0,240000,33580,0,65700,16,0,0,1422458076,63
o,1723545719.377107,10.0.2.15,22,10.0.2.2,52238,1073725440,16250,1026,65535,65700,0,0,4,1460,312,0,1,240000,33580,0,65700,60,0,0,1422458076,63
o,1723545719.377560,10.0.2.15,22,10.0.2.2,52238,1073725440,16250,1026,65535,65700,0,0,4,1460,312,0,16777216,240000,33580,44,65700,0,0,0,1422458076,63
i,1723545719.378072,10.0.2.15,22,10.0.2.2,52238,1073725440,16250,1026,65535,65700,0,0,4,1460,312,0,16777216,240000,33580,44,65700,0,44,0,1422458076,63
i,1723545719.378090,10.0.2.15,22,10.0.2.2,52238,1073725440,16294,1026,65535,65700,0,0,4,1460,312,0,0,240000,33580,0,65700,0,0,0,1422458076,63
o,1723545719.379098,10.0.2.15,22,10.0.2.2,52238,1073725440,16294,1026,65535,65700,0,0,4,1460,312,0,16777216,240000,33580,68,65700,0,0,0,1422458076,63
i,1723545719.379593,10.0.2.15,22,10.0.2.2,52238,1073725440,16294,1026,65535,65700,0,0,4,1460,312,0,16777216,240000,33580,68,65700,0,68,0,1422458076,63
i,1723545719.379611,10.0.2.15,22,10.0.2.2,52238,1073725440,16362,1026,65535,65700,0,0,4,1460,312,0,0,240000,33580,0,65700,0,0,0,1422458076,63
o,1723545719.380680,10.0.2.15,22,10.0.2.2,52238,1073725440,16362,1026,65535,65700,0,0,4,1460,312,0,16777216,240000,33580,332,65700,0,0,0,1422458076,63
i,1723545719.381483,10.0.2.15,22,10.0.2.2,52238,1073725440,16362,1026,65535,65700,0,0,4,1460,312,0,16777216,240000,33580,332,65700,0,332,0,1422458076,63
i,1723545719.382773,10.0.2.15,22,10.0.2.2,52238,1073725440,16694,1026,65535,65700,0,0,4,1460,312,0,0,240000,33580,0,65700,0,0,0,1422458076,63
o,1723545719.405508,10.0.2.15,22,10.0.2.2,52238,1073725440,16694,1026,65535,65700,0,0,4,1460,312,0,16777216,240000,33580,28,65700,0,0,0,1422458076,63
i,1723545719.406934,10.0.2.15,22,10.0.2.2,52238,1073725440,16694,1026,65535,65700,0,0,4,1460,312,0,16777216,240000,33580,28,65700,0,28,0,1422458076,63
i,1723545719.407569,10.0.2.15,22,10.0.2.2,52238,1073725440,16722,1026,65535,65700,0,0,4,1460,312,0,0,240000,33580,0,65700,0,0,0,1422458076,63
o,1723545719.408814,10.0.2.15,22,10.0.2.2,52238,1073725440,16722,1026,65535,65700,0,0,4,1460,312,0,16777216,240000,33580,768,65700,112,0,0,1422458076,63
i,1723545719.409278,10.0.2.15,22,10.0.2.2,52238,1073725440,16722,1026,65535,65700,0,0,4,1460,312,0,16777216,240000,33580,908,65700,0,768,0,1422458076,63
o,1723545719.409295,10.0.2.15,22,10.0.2.2,52238,1073725440,17490,1026,65535,65700,0,0,4,1460,312,0,16777216,240000,33580,140,65700,0,0,0,1422458076,63
i,1723545719.409651,10.0.2.15,22,10.0.2.2,52238,1073725440,17490,1026,65535,65700,0,0,4,1460,312,0,16777216,240000,33580,184,65700,0,140,0,1422458076,63
o,1723545719.409666,10.0.2.15,22,10.0.2.2,52238,1073725440,17630,1026,65535,65700,0,0,4,1460,312,0,16777216,240000,33580,44,65700,0,0,0,1422458076,63
i,1723545719.410210,10.0.2.15,22,10.0.2.2,52238,1073725440,17630,1026,65535,65700,0,0,4,1460,312,0,16777216,240000,33580,44,65700,0,44,0,1422458076,63
i,1723545719.410226,10.0.2.15,22,10.0.2.2,52238,1073725440,17674,1026,65535,65700,0,0,4,1460,312,0,0,240000,33580,0,65700,0,0,0,1422458076,63
o,1723545719.410685,10.0.2.15,22,10.0.2.2,52238,1073725440,17674,1026,65535,65700,0,0,4,1460,312,0,16777220,240000,33580,72,65700,0,0,0,1422458076,63
i,1723545719.411083,10.0.2.15,22,10.0.2.2,52238,1073725440,17674,1026,65535,65700,0,0,4,1460,312,0,16777220,240000,33580,72,65700,0,72,0,1422458076,63
o,1723545719.414310,10.0.2.15,22,10.0.2.2,52238,1073725440,17746,1026,65535,65700,0,0,4,1460,312,0,16777220,240000,33580,104,65700,0,0,0,1422458076,63
i,1723545719.414748,10.0.2.15,22,10.0.2.2,52238,1073725440,17746,1026,65535,65700,0,0,4,1460,312,0,16777220,240000,33580,104,65700,0,104,0,1422458076,63
o,1723545719.416232,10.0.2.15,22,10.0.2.2,52238,1073725440,17850,1026,65535,65700,0,0,4,1460,312,0,16777220,240000,33580,72,65700,0,0,0,1422458076,63
i,1723545719.416964,10.0.2.15,22,10.0.2.2,52238,1073725440,17850,1026,65535,65700,0,0,4,1460,312,0,16777220,240000,33580,72,65700,0,72,0,1422458076,63
i,1723545719.417038,10.0.2.15,22,10.0.2.2,52238,1073725440,17922,1026,65535,65700,0,0,4,1460,312,0,4,240000,33580,0,65700,0,0,0,1422458076,63
i,1723545719.417059,10.0.2.15,22,10.0.2.2,52238,1073725440,17922,1026,65535,65700,0,0,4,1460,312,0,4,240000,33580,0,65700,96,0,0,1422458076,63
o,1723545719.417075,10.0.2.15,22,10.0.2.2,52238,1073725440,17922,1026,65535,65604,0,0,5,1460,312,0,5,240000,33580,0,65700,96,0,0,1422458076,63
o,1723545719.422272,10.0.2.15,22,10.0.2.2,52238,1073725440,17922,1026,65535,65604,0,0,8,1460,312,0,4,240000,33580,0,65700,0,0,0,1422458076,63
i,1723545719.423122,10.0.2.15,22,10.0.2.2,52238,1073725440,17922,1026,65535,65604,0,0,8,1460,312,0,67108884,240000,33580,0,65700,0,1,0,1422458076,63
i,1723545720.491340,10.0.2.15,22,10.0.2.2,52248,1073725440,14600,0,65535,65700,0,0,4,1460,312,0,16777216,270000,33580,0,65700,0,0,0,1179218619,63
o,1723545720.504143,10.0.2.15,22,10.0.2.2,52248,1073725440,14600,1026,65535,65700,0,0,4,1460,312,0,16777216,270000,33580,38,65700,42,0,0,1179218619,63
i,1723545720.504692,10.0.2.15,22,10.0.2.2,52248,1073725440,14600,1026,65535,65700,0,0,4,1460,312,0,16777216,270000,33580,38,65700,0,38,0,1179218619,63
i,1723545720.504756,10.0.2.15,22,10.0.2.2,52248,1073725440,14638,1026,65535,65700,0,0,4,1460,312,0,0,240000,33580,0,65700,0,0,0,1179218619,63
i,1723545720.504772,10.0.2.15,22,10.0.2.2,52248,1073725440,14638,1026,65535,65700,0,0,4,1460,312,0,0,240000,33580,0,65700,1460,0,0,1179218619,63
o,1723545720.504789,10.0.2.15,22,10.0.2.2,52248,1073725440,14638,1026,65535,65700,0,0,4,1460,312,0,1,240000,33580,0,65700,1536,0,0,1179218619,63
o,1723545720.506225,10.0.2.15,22,10.0.2.2,52248,1073725440,14638,1026,65535,65700,0,0,4,1460,312,0,16777216,240000,33580,1120,65700,1536,0,0,1179218619,63
i,1723545720.506996,10.0.2.15,22,10.0.2.2,52248,1073725440,14638,1026,65535,65700,0,0,4,1460,312,0,16777216,240000,33580,1120,65700,0,1120,0,1179218619,63
i,1723545720.508877,10.0.2.15,22,10.0.2.2,52248,1073725440,15758,1026,65535,65700,0,0,4,1460,312,0,0,240000,33580,0,65700,0,0,0,1179218619,63
o,1723545720.512393,10.0.2.15,22,10.0.2.2,52248,1073725440,15758,1026,65535,65700,0,0,4,1460,312,0,16777216,240000,33580,492,65700,0,0,0,1179218619,63
i,1723545720.513534,10.0.2.15,22,10.0.2.2,52248,1073725440,15758,1026,65535,65700,0,0,4,1460,312,0,16777216,240000,33580,492,65700,0,492,0,1179218619,63
i,1723545720.517631,10.0.2.15,22,10.0.2.2,52248,1073725440,16250,1026,65535,65700,0,0,4,1460,312,0,0,240000,33580,0,65700,0,0,0,1179218619,63
i,1723545720.517649,10.0.2.15,22,10.0.2.2,52248,1073725440,16250,1026,65535,65700,0,0,4,1460,312,0,0,240000,33580,0,65700,16,0,0,1179218619,63
o,1723545720.517665,10.0.2.15,22,10.0.2.2,52248,1073725440,16250,1026,65535,65700,0,0,4,1460,312,0,1,240000,33580,0,65700,60,0,0,1179218619,63
o,1723545720.517854,10.0.2.15,22,10.0.2.2,52248,1073725440,16250,1026,65535,65700,0,0,4,1460,312,0,16777216,240000,33580,44,65700,0,0,0,1179218619,63
i,1723545720.518680,10.0.2.15,22,10.0.2.2,52248,1073725440,16250,1026,65535,65700,0,0,4,1460,312,0,16777216,240000,33580,44,65700,0,44,0,1179218619,63
i,1723545720.518697,10.0.2.15,22,10.0.2.2,52248,1073725440,16294,1026,65535,65700,0,0,4,1460,312,0,0,240000,33580,0,65700,0,0,0,1179218619,63
o,1723545720.520040,10.0.2.15,22,10.0.2.2,52248,1073725440,16294,1026,65535,65700,0,0,4,1460,312,0,16777216,240000,33580,68,65700,0,0,0,1179218619,63
i,1723545720.520473,10.0.2.15,22,10.0.2.2,52248,1073725440,16294,1026,65535,65700,0,0,4,1460,312,0,16777216,240000,33580,68,65700,0,68,0,1179218619,63
i,1723545720.520491,10.0.2.15,22,10.0.2.2,52248,1073725440,16362,1026,65535,65700,0,0,4,1460,312,0,0,240000,33580,0,65700,0,0,0,1179218619,63
o,1723545720.522055,10.0.2.15,22,10.0.2.2,52248,1073725440,16362,1026,65535,65700,0,0,4,1460,312,0,16777216,240000,33580,332,65700,0,0,0,1179218619,63
i,1723545720.522869,10.0.2.15,22,10.0.2.2,52248,1073725440,16362,1026,65535,65700,0,0,4,1460,312,0,16777216,240000,33580,332,65700,0,332,0,1179218619,63
i,1723545720.524168,10.0.2.15,22,10.0.2.2,52248,1073725440,16694,1026,65535,65700,0,0,4,1460,312,0,0,240000,33580,0,65700,0,0,0,1179218619,63
o,1723545720.541491,10.0.2.15,22,10.0.2.2,52248,1073725440,16694,1026,65535,65700,0,0,4,1460,312,0,16777216,240000,33580,28,65700,0,0,0,1179218619,63
i,1723545720.542839,10.0.2.15,22,10.0.2.2,52248,1073725440,16694,1026,65535,65700,0,0,4,1460,312,0,16777216,240000,33580,28,65700,0,28,0,1179218619,63
i,1723545720.542877,10.0.2.15,22,10.0.2.2,52248,1073725440,16722,1026,65535,65700,0,0,4,1460,312,0,0,230000,33580,0,65700,0,0,0,1179218619,63
o,1723545720.544798,10.0.2.15,22,10.0.2.2,52248,1073725440,16722,1026,65535,65700,0,0,4,1460,312,0,16777216,230000,33580,768,65700,112,0,0,1179218619,63
i,1723545720.545716,10.0.2.15,22,10.0.2.2,52248,1073725440,16722,1026,65535,65700,0,0,4,1460,312,0,16777216,230000,33580,908,65700,112,768,0,1179218619,63
o,1723545720.545740,10.0.2.15,22,10.0.2.2,52248,1073725440,17490,1026,65535,65700,0,0,4,1460,312,0,16777216,230000,33580,140,65700,112,0,0,1179218619,63
i,1723545720.546552,10.0.2.15,22,10.0.2.2,52248,1073725440,17490,1026,65535,65700,0,0,4,1460,312,0,16777216,230000,33580,140,65700,112,140,0,1179218619,63
o,1723545720.547337,10.0.2.15,22,10.0.2.2,52248,1073725440,17630,1026,65535,65700,0,0,4,1460,312,0,16777216,230000,33580,44,65700,0,0,0,1179218619,63
i,1723545720.547927,10.0.2.15,22,10.0.2.2,52248,1073725440,17630,1026,65535,65700,0,0,4,1460,312,0,16777216,230000,33580,44,65700,0,44,0,1179218619,63
i,1723545720.548615,10.0.2.15,22,10.0.2.2,52248,1073725440,17674,1026,65535,65700,0,0,4,1460,312,0,0,230000,33580,0,65700,0,0,0,1179218619,63
o,1723545720.549280,10.0.2.15,22,10.0.2.2,52248,1073725440,17674,1026,65535,65700,0,0,4,1460,312,0,16777220,230000,33580,72,65700,0,0,0,1179218619,63
i,1723545720.549847,10.0.2.15,22,10.0.2.2,52248,1073725440,17674,1026,65535,65700,0,0,4,1460,312,0,16777220,230000,33580,72,65700,0,72,0,1179218619,63
o,1723545720.676371,172.16.5.2,20729,172.16.1.2,5102,7500,14480,2082,65535,65700,6,6,4,1460,205625,1,16778209,620000,33580,0,65700,0,0,0,3012458156,63
o,1723545720.677103,172.16.5.2,20729,172.16.1.2,5102,7500,14480,2082,65535,65700,6,6,4,1460,205625,1,16778212,620000,33580,37,65700,0,0,0,3012458156,63
i,1723545720.790928,172.16.5.2,20729,172.16.1.2,5102,7500,14480,2082,65535,65700,6,6,4,1460,205625,1,16778212,620000,33580,37,65700,0,37,0,3012458156,63
o,1723545720.791222,172.16.5.2,20729,172.16.1.2,5102,7500,14480,3106,65728,65728,6,6,4,1460,193750,1,16778212,650000,33580,4,65700,0,0,0,3012458156,63
o,1723545720.791597,172.16.5.2,20729,172.16.1.2,5102,7500,14480,3106,65728,65728,6,6,4,1460,193750,1,16778212,650000,33580,130,65700,0,4,0,3012458156,63
i,1723545720.915526,172.16.5.2,20729,172.16.1.2,5102,7500,14480,3106,65728,65728,6,6,4,1460,193750,1,16778212,650000,33580,130,65700,0,130,0,3012458156,63
i,1723545720.915565,172.16.5.2,20729,172.16.1.2,5102,7500,14480,3106,65600,65728,6,6,4,1460,185937,1,996,640000,33580,0,65700,0,0,0,3012458156,63
o,1723545720.962878,172.16.5.2,20729,172.16.1.2,5102,7500,14480,3106,65728,65728,6,6,4,1460,185937,1,997,640000,33580,0,65700,0,0,0,3012458156,63
o,1723545721.020055,172.16.5.2,20571,172.16.1.2,5102,7500,14480,2082,65535,65700,6,6,4,1460,203125,1,16778209,640000,33580,0,65700,0,0,0,2171661833,63
o,1723545721.020177,172.16.5.2,20571,172.16.1.2,5102,7500,14480,2082,65535,65700,6,6,4,1460,203125,1,16778208,640000,33580,37,65700,0,0,0,2171661833,63
i,1723545721.139508,172.16.5.2,20729,172.16.1.2,5102,7500,14480,3106,65728,65728,6,6,4,1460,185937,1,996,640000,33580,0,65700,0,0,0,3012458156,63
i,1723545721.139589,172.16.5.2,20729,172.16.1.2,5102,7500,14480,3106,65728,65728,6,6,4,1460,185937,1,996,640000,33580,0,65700,1,0,0,3012458156,63
o,1723545721.139624,172.16.5.2,20729,172.16.1.2,5102,7500,14480,3106,65728,65728,6,6,4,1460,185937,1,997,640000,33580,0,65700,2,0,0,3012458156,63
o,1723545721.140213,172.16.5.2,20571,172.16.1.2,5102,7500,14480,2086,65535,65700,6,6,4,1460,203125,1,16778208,640000,33580,33580,65700,0,37,0,2171661833,63
i,1723545721.175489,172.16.5.2,20571,172.16.1.2,5102,7500,14480,2086,65535,65700,6,6,4,1460,203125,1,16778208,640000,33580,33580,65700,0,13069,0,2171661833,63
o,1723545721.175586,172.16.5.2,20571,172.16.1.2,5102,7500,14480,2082,65728,65728,6,6,4,1460,197812,1,16778208,620000,33580,33543,65700,0,13032,0,2171661833,63
i,1723545721.238849,172.16.5.2,20571,172.16.1.2,5102,7500,14480,2082,65728,65728,6,6,4,1460,197812,1,16778208,620000,33580,33543,65700,0,14480,0,2171661833,63
o,1723545721.239135,172.16.5.2,20571,172.16.1.2,5102,7500,14480,2086,62848,65728,6,6,4,1460,185625,1,16778208,650000,33580,30647,65700,0,11584,0,2171661833,63
i,1723545721.268240,172.16.5.2,20571,172.16.1.2,5102,7500,14480,2086,62848,65728,6,6,4,1460,185625,1,16778208,650000,33580,33580,65700,0,14480,0,2171661833,63
o,1723545721.268262,172.16.5.2,20571,172.16.1.2,5102,7500,14480,2086,64256,65728,6,6,4,1460,177500,1,16778208,640000,33580,30684,65700,0,11584,0,2171661833,63
i,1723545721.268440,172.16.5.2,20571,172.16.1.2,5102,7500,14480,2086,64256,65728,6,6,4,1460,177500,1,16778208,640000,33580,30684,65700,0,14480,0,2171661833,63
o,1723545721.268455,172.16.5.2,20571,172.16.1.2,5102,7500,14480,2086,61376,65728,6,6,4,1460,170312,1,16778208,620000,33580,27788,65700,0,11584,0,2171661833,63
i,1723545721.268578,172.16.5.2,20571,172.16.1.2,5102,7500,14480,2086,61376,65728,6,6,4,1460,170312,1,16778208,620000,33580,27788,65700,0,14480,0,2171661833,63
o,1723545721.268593,172.16.5.2,20571,172.16.1.2,5102,7500,14480,2086,64256,65728,6,6,4,1460,164062,1,16778208,600000,33580,24892,65700,0,11584,0,2171661833,63
i,1723545721.300769,172.16.5.2,20571,172.16.1.2,5102,7500,14480,2086,64256,65728,6,6,4,1460,164062,1,16778208,600000,33580,33580,65700,0,14480,0,2171661833,63
o,1723545721.300850,172.16.5.2,20571,172.16.1.2,5102,7500,15940,2086,64256,65728,6,6,4,1460,162500,1,16778208,560000,33580,30684,65700,0,11584,0,2171661833,63
o,1723545721.301229,172.16.5.2,20571,172.16.1.2,5102,7500,15940,2086,64256,65728,6,6,4,1460,162500,1,16778208,560000,33580,30684,65700,0,13032,0,2171661833,63
i,1723545721.361830,172.16.5.2,20571,172.16.1.2,5102,7500,15940,2086,64256,65728,6,6,4,1460,162500,1,16778208,560000,41772,41772,65700,0,15928,0,2171661833,63
o,1723545721.361885,172.16.5.2,20571,172.16.1.2,5102,7500,15940,2086,62848,65728,6,6,4,1460,157187,1,16778208,540000,41772,38876,65700,0,13032,0,2171661833,63
i,1723545721.383934,172.16.5.2,20571,172.16.1.2,5102,7500,15940,2086,62848,65728,6,6,4,1460,157187,1,16778208,540000,41772,41772,65700,0,15928,0,2171661833,63
o,1723545721.383964,172.16.5.2,20571,172.16.1.2,5102,7500,15940,2086,62848,65728,6,6,4,1460,152812,1,16778208,530000,41772,38876,65700,0,13032,0,2171661833,63
i,1723545721.384108,172.16.5.2,20571,172.16.1.2,5102,7500,15940,2086,62848,65728,6,6,4,1460,152812,1,16778208,530000,41772,38876,65700,0,15928,0,2171661833,63
o,1723545721.384124,172.16.5.2,20571,172.16.1.2,5102,7500,15940,2086,64256,65728,6,6,4,1460,148750,1,16778208,510000,41772,35980,65700,0,13032,0,2171661833,63
i,1723545721.384264,172.16.5.2,20571,172.16.1.2,5102,7500,15940,2086,64256,65728,6,6,4,1460,148750,1,16778208,510000,41772,35980,65700,0,15928,0,2171661833,63
o,1723545721.384279,172.16.5.2,20571,172.16.1.2,5102,7500,15940,2086,62848,65728,6,6,4,1460,145312,1,16778208,500000,41772,33084,65700,0,13032,0,2171661833,63
i,1723545721.413946,172.16.5.2,20571,172.16.1.2,5102,7500,15940,2086,62848,65728,6,6,4,1460,145312,1,16778208,500000,41772,41772,65700,0,15928,0,2171661833,63
o,1723545721.414130,172.16.5.2,20571,172.16.1.2,5102,7500,15940,2086,62848,65728,6,6,4,1460,142187,1,16778208,480000,41772,38876,65700,0,13032,0,2171661833,63
o,1723545721.414532,172.16.5.2,20571,172.16.1.2,5102,7500,15940,2086,62848,65728,6,6,4,1460,142187,1,16778208,480000,41772,38876,65700,0,14480,0,2171661833,63
i,1723545721.449007,172.16.5.2,20571,172.16.1.2,5102,7500,15940,2086,62848,65728,6,6,4,1460,142187,1,16778208,480000,41772,41772,65700,0,15928,0,2171661833,63
o,1723545721.449073,172.16.5.2,20571,172.16.1.2,5102,7500,17400,2086,65728,65728,6,6,4,1460,143437,1,16778208,460000,41772,40324,65700,0,14480,0,2171661833,63
i,1723545721.471853,172.16.5.2,20571,172.16.1.2,5102,7500,17400,2086,65728,65728,6,6,4,1460,143437,1,16778208,460000,41772,40324,65700,0,17376,0,2171661833,63
o,1723545721.472131,172.16.5.2,20571,172.16.1.2,5102,7500,17400,2086,62848,65728,6,6,4,1460,138125,1,16778208,470000,41772,37428,65700,0,14480,0,2171661833,63
i,1723545721.506906,172.16.5.2,20571,172.16.1.2,5102,7500,17400,2086,62848,65728,6,6,4,1460,138125,1,16778208,470000,41772,41772,65700,0,17376,0,2171661833,63
o,1723545721.507023,172.16.5.2,20571,172.16.1.2,5102,7500,17400,2086,62848,65728,6,6,4,1460,135937,1,16778208,450000,41772,38876,65700,0,14480,0,2171661833,63
i,1723545721.507580,172.16.5.2,20571,172.16.1.2,5102,7500,17400,2086,62848,65728,6,6,4,1460,135937,1,16778208,450000,41772,38876,65700,0,17376,0,2171661833,63
o,1723545721.507642,172.16.5.2,20571,172.16.1.2,5102,7500,17400,2086,62848,65728,6,6,4,1460,134062,1,16778208,430000,41772,35980,65700,0,14480,0,2171661833,63
i,1723545721.510076,172.16.5.2,20571,172.16.1.2,5102,7500,17400,2086,62848,65728,6,6,4,1460,134062,1,16778208,430000,41772,41772,65700,0,17376,0,2171661833,63
o,1723545721.510077,172.16.5.2,20571,172.16.1.2,5102,7500,17400,2086,64256,65728,6,6,4,1460,132500,1,16778208,420000,41772,38876,65700,0,14480,0,2171661833,63
i,1723545721.539234,172.16.5.2,20571,172.16.1.2,5102,7500,17400,2086,64256,65728,6,6,4,1460,132500,1,16778208,420000,41772,41772,65700,0,17376,0,2171661833,63
o,1723545721.539323,172.16.5.2,20571,172.16.1.2,5102,7500,17400,2086,62848,65728,6,6,4,1460,130937,1,16778208,410000,41772,38876,65700,0,14480,0,2171661833,63
o,1723545721.539512,172.16.5.2,20571,172.16.1.2,5102,7500,17400,2086,62848,65728,6,6,4,1460,130937,1,16778208,410000,41772,38876,65700,0,15928,0,2171661833,63
i,1723545721.557545,172.16.5.2,20571,172.16.1.2,5102,7500,17400,2086,62848,65728,6,6,4,1460,130937,1,16778208,410000,41772,41772,65700,0,17376,0,2171661833,63
o,1723545721.558010,172.16.5.2,20571,172.16.1.2,5102,7500,18860,2086,62848,65728,6,6,4,1460,127187,1,16778208,410000,41772,38876,65700,0,14480,0,2171661833,63
i,1723545721.598260,172.16.5.2,20571,172.16.1.2,5102,7500,18860,2086,62848,65728,6,6,4,1460,127187,1,16778208,410000,41772,41772,65700,0,18824,0,2171661833,63
o,1723545721.598359,172.16.5.2,20571,172.16.1.2,5102,7500,18860,2086,64256,65728,6,6,4,1460,127812,1,16778208,400000,41772,38876,65700,0,15928,0,2171661833,63
i,1723545721.618262,172.16.5.2,20571,172.16.1.2,5102,7500,18860,2086,64256,65728,6,6,4,1460,127812,1,16778208,400000,41772,41772,65700,0,18824,0,2171661833,63
o,1723545721.618287,172.16.5.2,20571,172.16.1.2,5102,7500,18860,2086,62848,65728,6,6,4,1460,124375,1,16778208,400000,41772,38876,65700,0,15928,0,2171661833,63
i,1723545721.618440,172.16.5.2,20571,172.16.1.2,5102,7500,18860,2086,62848,65728,6,6,4,1460,124375,1,16778208,400000,41772,38876,65700,0,18824,0,2171661833,63
o,1723545721.618469,172.16.5.2,20571,172.16.1.2,5102,7500,18860,2086,59968,65728,6,6,4,1460,121562,1,16778208,400000,41772,35980,65700,0,15928,0,2171661833,63
i,1723545721.628185,172.16.5.2,20571,172.16.1.2,5102,7500,18860,2086,59968,65728,6,6,4,1460,121562,1,16778208,400000,41772,41772,65700,0,18824,0,2171661833,63
o,1723545721.628212,172.16.5.2,20571,172.16.1.2,5102,7500,18860,2086,62848,65728,6,6,4,1460,120312,1,16778208,390000,41772,38876,65700,0,15928,0,2171661833,63
i,1723545721.648349,172.16.5.2,20571,172.16.1.2,5102,7500,18860,2086,62848,65728,6,6,4,1460,120312,1,16778208,390000,41772,41772,65700,0,18824,0,2171661833,63
o,1723545721.648436,172.16.5.2,20571,172.16.1.2,5102,7500,18860,2086,62848,65728,6,6,4,1460,117812,1,16778208,390000,41772,38876,65700,0,15928,0,2171661833,63
o,1723545721.648569,172.16.5.2,20571,172.16.1.2,5102,7500,18860,2086,62848,65728,6,6,4,1460,117812,1,16778208,390000,41772,38876,65700,0,17376,0,2171661833,63
i,1723545721.679586,172.16.5.2,20571,172.16.1.2,5102,7500,18860,2086,62848,65728,6,6,4,1460,117812,1,16778208,390000,41772,41772,65700,0,18824,0,2171661833,63
o,1723545721.679675,172.16.5.2,20571,172.16.1.2,5102,7500,18860,2086,62848,65728,6,6,4,1460,118125,1,16778208,380000,41772,38876,65700,0,15928,0,2171661833,63
i,1723545721.698745,172.16.5.2,20571,172.16.1.2,5102,7500,18860,2086,62848,65728,6,6,4,1460,118125,1,16778208,380000,41772,41772,65700,0,18824,0,2171661833,63
o,1723545721.698874,172.16.5.2,20571,172.16.1.2,5102,7500,18860,2086,65728,65728,6,6,4,1460,120937,1,16778208,390000,41772,40324,65700,0,17376,0,2171661833,63
i,1723545721.717581,172.16.5.2,20571,172.16.1.2,5102,7500,18860,2086,65728,65728,6,6,4,1460,120937,1,16778208,390000,41772,40324,65700,0,18824,0,2171661833,63
o,1723545721.717700,172.16.5.2,20571,172.16.1.2,5102,7500,20320,2086,62848,65728,6,6,4,1460,120937,1,16778208,370000,41772,37428,65700,0,15928,0,2171661833,63
i,1723545721.738576,172.16.5.2,20571,172.16.1.2,5102,7500,20320,2086,62848,65728,6,6,4,1460,120937,1,16778208,370000,49964,49964,65700,0,20272,0,2171661833,63
o,1723545721.738659,172.16.5.2,20571,172.16.1.2,5102,7500,20320,2086,62848,65728,6,6,4,1460,120937,1,16778208,360000,49964,47068,65700,0,17376,0,2171661833,63
i,1723545721.738904,172.16.5.2,20571,172.16.1.2,5102,7500,20320,2086,62848,65728,6,6,4,1460,120937,1,16778208,360000,49964,47068,65700,0,20272,0,2171661833,63
o,1723545721.738929,172.16.5.2,20571,172.16.1.2,5102,7500,20320,2086,62848,65728,6,6,4,1460,120937,1,16778208,350000,49964,44172,65700,0,17376,0,2171661833,63
i,1723545721.739139,172.16.5.2,20571,172.16.1.2,5102,7500,20320,2086,62848,65728,6,6,4,1460,120937,1,16778208,350000,49964,44172,65700,0,20272,0,2171661833,63
o,1723545721.739159,172.16.5.2,20571,172.16.1.2,5102,7500,20320,2086,64256,65728,6,6,4,1460,119687,1,16778208,350000,49964,41276,65700,0,17376,0,2171661833,63
i,1723545721.781282,172.16.5.2,20571,172.16.1.2,5102,7500,20320,2086,64256,65728,6,6,4,1460,119687,1,16778208,350000,49964,49964,65700,0,20272,0,2171661833,63
o,1723545721.781324,172.16.5.2,20571,172.16.1.2,5102,7500,20320,2086,64256,65728,6,6,4,1460,121250,1,16778208,350000,49964,47068,65700,0,17376,0,2171661833,63
o,1723545721.781552,172.16.5.2,20571,172.16.1.2,5102,7500,20320,2086,64256,65728,6,6,4,1460,121250,1,16778208,350000,49964,47068,65700,0,18824,0,2171661833,63
i,1723545721.789144,172.16.5.2,20571,172.16.1.2,5102,7500,20320,2086,64256,65728,6,6,4,1460,121250,1,16778208,350000,49964,49964,65700,0,20272,0,2171661833,63
o,1723545721.789146,172.16.5.2,20571,172.16.1.2,5102,7500,20320,2086,62848,65728,6,6,4,1460,118750,1,16778208,360000,49964,47068,65700,0,17376,0,2171661833,63
i,1723545721.810739,172.16.5.2,20571,172.16.1.2,5102,7500,20320,2086,62848,65728,6,6,4,1460,118750,1,16778208,360000,49964,49964,65700,0,20272,0,2171661833,63
o,1723545721.810847,172.16.5.2,20571,172.16.1.2,5102,7500,20320,2086,65728,65728,6,6,4,1460,116562,1,16778208,370000,49964,48516,65700,0,18824,0,2171661833,63
i,1723545721.842695,172.16.5.2,20571,172.16.1.2,5102,7500,20320,2086,65728,65728,6,6,4,1460,116562,1,16778208,370000,49964,48516,65700,0,20272,0,2171661833,63
o,1723545721.842716,172.16.5.2,20571,172.16.1.2,5102,7500,21780,2086,62848,65728,6,6,4,1460,118437,1,16778208,370000,49964,45620,65700,0,17376,0,2171661833,63
i,1723545721.860130,172.16.5.2,20571,172.16.1.2,5102,7500,21780,2086,62848,65728,6,6,4,1460,118437,1,16778208,370000,49964,49964,65700,0,21720,0,2171661833,63
o,1723545721.860211,172.16.5.2,20571,172.16.1.2,5102,7500,21780,2086,64256,65728,6,6,4,1460,121250,1,16778208,380000,49964,47068,65700,0,18824,0,2171661833,63
i,1723545721.868017,172.16.5.2,20571,172.16.1.2,5102,7500,21780,2086,64256,65728,6,6,4,1460,121250,1,16778208,380000,49964,49964,65700,0,21720,0,2171661833,63
o,1723545721.868035,172.16.5.2,20571,172.16.1.2,5102,7500,21780,2086,62848,65728,6,6,4,1460,122500,1,16778208,380000,49964,47068,65700,0,18824,0,2171661833,63
i,1723545721.877987,172.16.5.2,20571,172.16.1.2,5102,7500,21780,2086,62848,65728,6,6,4,1460,122500,1,16778208,380000,49964,49964,65700,0,21720,0,2171661833,63
o,1723545721.878009,172.16.5.2,20571,172.16.1.2,5102,7500,21780,2086,59968,65728,6,6,4,1460,124687,1,16778208,380000,49964,47068,65700,0,18824,0,2171661833,63
i,1723545721.878153,172.16.5.2,20571,172.16.1.2,5102,7500,21780,2086,59968,65728,6,6,4,1460,124687,1,16778208,380000,49964,47068,65700,0,21720,0,2171661833,63
o,1723545721.878183,172.16.5.2,20571,172.16.1.2,5102,7500,21780,2086,64256,65728,6,6,4,1460,126875,1,16778208,390000,49964,44172,65700,0,18824,0,2171661833,63
o,1723545721.878314,172.16.5.2,20571,172.16.1.2,5102,7500,21780,2086,64256,65728,6,6,4,1460,126875,1,16778208,390000,49964,44172,65700,0,20272,0,2171661833,63
i,1723545721.900237,172.16.5.2,20571,172.16.1.2,5102,7500,21780,2086,64256,65728,6,6,4,1460,126875,1,16778208,390000,49964,49964,65700,0,21720,0,2171661833,63
o,1723545721.900325,172.16.5.2,20571,172.16.1.2,5102,7500,21780,2086,64256,65728,6,6,4,1460,126250,1,16778208,380000,49964,47068,65700,0,18824,0,2171661833,63
i,1723545721.937926,172.16.5.2,20571,172.16.1.2,5102,7500,21780,2086,64256,65728,6,6,4,1460,126250,1,16778208,380000,49964,49964,65700,0,21720,0,2171661833,63
o,1723545721.937999,172.16.5.2,20571,172.16.1.2,5102,7500,21780,2086,64256,65728,6,6,4,1460,129375,1,16778208,390000,49964,47068,65700,0,18824,0,2171661833,63
i,1723545721.968766,172.16.5.2,20571,172.16.1.2,5102,7500,21780,2086,64256,65728,6,6,4,1460,129375,1,16778208,390000,49964,49964,65700,0,21720,0,2171661833,63
o,1723545721.968806,172.16.5.2,20571,172.16.1.2,5102,7500,21780,2086,62848,65728,6,6,4,1460,128437,1,16778208,380000,49964,47068,65700,0,18824,0,2171661833,63
i,1723545721.969008,172.16.5.2,20571,172.16.1.2,5102,7500,21780,2086,62848,65728,6,6,4,1460,128437,1,16778208,380000,49964,47068,65700,0,21720,0,2171661833,63
o,1723545721.969028,172.16.5.2,20571,172.16.1.2,5102,7500,23240,2086,64256,65728,6,6,4,1460,127500,1,16778208,380000,49964,44172,65700,0,18824,0,2171661833,63
i,1723545721.979569,172.16.5.2,20571,172.16.1.2,5102,7500,23240,2086,64256,65728,6,6,4,1460,127500,1,16778208,380000,58156,58156,65700,0,23168,0,2171661833,63
o,1723545721.979594,172.16.5.2,20571,172.16.1.2,5102,7500,23240,2086,62848,65728,6,6,4,1460,126562,1,16778208,370000,58156,55260,65700,0,20272,0,2171661833,63
i,1723545721.979763,172.16.5.2,20571,172.16.1.2,5102,7500,23240,2086,62848,65728,6,6,4,1460,126562,1,16778208,370000,58156,55260,65700,0,23168,0,2171661833,63
o,1723545721.979783,172.16.5.2,20571,172.16.1.2,5102,7500,23240,2086,59968,65728,6,6,4,1460,124687,1,16778208,370000,58156,52364,65700,0,20272,0,2171661833,63
i,1723545721.979962,172.16.5.2,20571,172.16.1.2,5102,7500,23240,2086,59968,65728,6,6,4,1460,124687,1,16778208,370000,58156,52364,65700,0,23168,0,2171661833,63
o,1723545721.979981,172.16.5.2,20571,172.16.1.2,5102,7500,23240,2086,62848,65728,6,6,4,1460,121875,1,16778208,380000,58156,49468,65700,0,20272,0,2171661833,63
o,1723545721.980101,172.16.5.2,20571,172.16.1.2,5102,7500,23240,2086,62848,65728,6,6,4,1460,121875,1,16778208,380000,58156,49468,65700,0,21720,0,2171661833,63
i,1723545722.008610,172.16.5.2,20571,172.16.1.2,5102,7500,23240,2086,62848,65728,6,6,4,1460,121875,1,16778208,380000,58156,58156,65700,0,23168,0,2171661833,63
o,1723545722.008634,172.16.5.2,20571,172.16.1.2,5102,7500,23240,2086,64256,65728,6,6,4,1460,123125,1,16778208,380000,58156,55260,65700,0,20272,0,2171661833,63
i,1723545722.029666,172.16.5.2,20571,172.16.1.2,5102,7500,23240,2086,64256,65728,6,6,4,1460,123125,1,16778208,380000,58156,58156,65700,0,23168,0,2171661833,63
o,1723545722.029749,172.16.5.2,20571,172.16.1.2,5102,7500,23240,2086,65728,65728,6,6,4,1460,122812,1,16778208,370000,58156,56708,65700,0,21720,0,2171661833,63
i,1723545722.048188,172.16.5.2,20571,172.16.1.2,5102,7500,23240,2086,65728,65728,6,6,4,1460,122812,1,16778208,370000,58156,56708,65700,0,23168,0,2171661833,63
o,1723545722.048307,172.16.5.2,20571,172.16.1.2,5102,7500,23240,2086,62848,65728,6,6,4,1460,121250,1,16778208,370000,58156,53812,65700,0,20272,0,2171661833,63
i,1723545722.069720,172.16.5.2,20571,172.16.1.2,5102,7500,23240,2086,62848,65728,6,6,4,1460,121250,1,16778208,370000,58156,58156,65700,0,23168,0,2171661833,63
o,1723545722.069788,172.16.5.2,20571,172.16.1.2,5102,7500,23240,2086,62848,65728,6,6,4,1460,118750,1,16778208,370000,58156,55260,65700,0,20272,0,2171661833,63
i,1723545722.069940,172.16.5.2,20571,172.16.1.2,5102,7500,23240,2086,62848,65728,6,6,4,1460,118750,1,16778208,370000,58156,55260,65700,0,23168,0,2171661833,63
o,1723545722.069966,172.16.5.2,20571,172.16.1.2,5102,7500,24700,2086,64256,65728,6,6,4,1460,116562,1,16778208,370000,58156,52364,65700,0,20272,0,2171661833,63
i,1723545722.076645,172.16.5.2,20571,172.16.1.2,5102,7500,24700,2086,64256,65728,6,6,4,1460,116562,1,16778208,370000,58156,58156,65700,0,24616,0,2171661833,63
o,1723545722.076912,172.16.5.2,20571,172.16.1.2,5102,7500,24700,2086,64256,65728,6,6,4,1460,115937,1,16778208,360000,58156,55260,65700,0,21720,0,2171661833,63
i,1723545722.100870,172.16.5.2,20571,172.16.1.2,5102,7500,24700,2086,64256,65728,6,6,4,1460,115937,1,16778208,360000,58156,58156,65700,0,24616,0,2171661833,63
o,1723545722.100907,172.16.5.2,20571,172.16.1.2,5102,7500,24700,2086,62848,65728,6,6,4,1460,116562,1,16778208,360000,58156,55260,65700,0,21720,0,2171661833,63
i,1723545722.101100,172.16.5.2,20571,172.16.1.2,5102,7500,24700,2086,62848,65728,6,6,4,1460,116562,1,16778208,360000,58156,55260,65700,0,24616,0,2171661833,63
o,1723545722.101126,172.16.5.2,20571,172.16.1.2,5102,7500,24700,2086,62848,65728,6,6,4,1460,117187,1,16778208,350000,58156,52364,65700,0,21720,0,2171661833,63
o,1723545722.101254,172.16.5.2,20571,172.16.1.2,5102,7500,24700,2086,62848,65728,6,6,4,1460,117187,1,16778208,350000,58156,52364,65700,0,23168,0,2171661833,63
i,1723545722.130678,172.16.5.2,20571,172.16.1.2,5102,7500,24700,2086,62848,65728,6,6,4,1460,117187,1,16778208,350000,58156,58156,65700,0,24616,0,2171661833,63
o,1723545722.130752,172.16.5.2,20571,172.16.1.2,5102,7500,24700,2086,64256,65728,6,6,4,1460,121562,1,16778208,380000,58156,55260,65700,0,21720,0,2171661833,63
i,1723545722.139624,172.16.5.2,20571,172.16.1.2,5102,7500,24700,2086,64256,65728,6,6,4,1460,121562,1,16778208,380000,58156,58156,65700,0,24616,0,2171661833,63
o,1723545722.139708,172.16.5.2,20571,172.16.1.2,5102,7500,24700,2086,64256,65728,6,6,4,1460,122812,1,16778208,380000,58156,55260,65700,0,21720,0,2171661833,63
i,1723545722.159158,172.16.5.2,20571,172.16.1.2,5102,7500,24700,2086,64256,65728,6,6,4,1460,122812,1,16778208,380000,58156,58156,65700,0,24616,0,2171661833,63
o,1723545722.159180,172.16.5.2,20571,172.16.1.2,5102,7500,24700,2086,62848,65728,6,6,4,1460,121250,1,16778208,370000,58156,55260,65700,0,21720,0,2171661833,63
i,1723545722.188832,172.16.5.2,20571,172.16.1.2,5102,7500,24700,2086,62848,65728,6,6,4,1460,121250,1,16778208,370000,58156,58156,65700,0,24616,0,2171661833,63
o,1723545722.188938,172.16.5.2,20571,172.16.1.2,5102,7500,24700,2086,62848,65728,6,6,4,1460,121250,1,16778208,360000,58156,55260,65700,0,21720,0,2171661833,63
i,1723545722.189126,172.16.5.2,20571,172.16.1.2,5102,7500,24700,2086,62848,65728,6,6,4,1460,121250,1,16778208,360000,58156,55260,65700,0,24616,0,2171661833,63
o,1723545722.189143,172.16.5.2,20571,172.16.1.2,5102,7500,24700,2086,59968,65728,6,6,4,1460,121250,1,16778208,350000,58156,52364,65700,0,21720,0,2171661833,63
i,1723545722.199314,172.16.5.2,20571,172.16.1.2,5102,7500,24700,2086,59968,65728,6,6,4,1460,121250,1,16778208,350000,58156,58156,65700,0,24616,0,2171661833,63
o,1723545722.199335,172.16.5.2,20571,172.16.1.2,5102,7500,26160,2086,64256,65728,6,6,4,1460,121250,1,16778208,340000,58156,55260,65700,0,21720,0,2171661833,63
i,1723545722.231018,172.16.5.2,20571,172.16.1.2,5102,7500,26160,2086,64256,65728,6,6,4,1460,121250,1,16778208,340000,58156,58156,65700,0,26064,0,2171661833,63
o,1723545722.231043,172.16.5.2,20571,172.16.1.2,5102,7500,26160,2086,64256,65728,6,6,4,1460,123750,1,16778208,360000,58156,55260,65700,0,23168,0,2171661833,63
i,1723545722.239568,172.16.5.2,20571,172.16.1.2,5102,7500,26160,2086,64256,65728,6,6,4,1460,123750,1,16778208,360000,58156,58156,65700,0,26064,0,2171661833,63
o,1723545722.239629,172.16.5.2,20571,172.16.1.2,5102,7500,26160,2086,64256,65728,6,6,4,1460,125937,1,16778208,370000,58156,55260,65700,0,23168,0,2171661833,63
o,1723545722.239972,172.16.5.2,20571,172.16.1.2,5102,7500,26160,2086,64256,65728,6,6,4,1460,125937,1,16778208,370000,58156,55260,65700,0,24616,0,2171661833,63
i,1723545722.240390,172.16.5.2,20571,172.16.1.2,5102,7500,26160,2086,64256,65728,6,6,4,1460,125937,1,16778208,370000,58156,55260,65700,0,26064,0,2171661833,63
o,1723545722.240501,172.16.5.2,20571,172.16.1.2,5102,7500,26160,2086,62848,65728,6,6,4,1460,127812,1,16778208,380000,58156,52364,65700,0,23168,0,2171661833,63
i,1723545722.259710,172.16.5.2,20571,172.16.1.2,5102,7500,26160,2086,62848,65728,6,6,4,1460,127812,1,16778208,380000,58156,58156,65700,0,26064,0,2171661833,63
o,1723545722.259732,172.16.5.2,20571,172.16.1.2,5102,7500,26160,2086,64256,65728,6,6,4,1460,126875,1,16778208,370000,58156,55260,65700,0,23168,0,2171661833,63
i,1723545722.278581,172.16.5.2,20571,172.16.1.2,5102,7500,26160,2086,64256,65728,6,6,4,1460,126875,1,16778208,370000,58156,58156,65700,0,26064,0,2171661833,63
o,1723545722.278621,172.16.5.2,20571,172.16.1.2,5102,7500,26160,2086,64256,65728,6,6,4,1460,128750,1,16778208,380000,58156,55260,65700,0,23168,0,2171661833,63
i,1723545722.309570,172.16.5.2,20571,172.16.1.2,5102,7500,26160,2086,64256,65728,6,6,4,1460,128750,1,16778208,380000,58156,58156,65700,0,26064,0,2171661833,63
o,1723545722.309590,172.16.5.2,20571,172.16.1.2,5102,7500,26160,2086,64256,65728,6,6,4,1460,130312,1,16778208,380000,58156,55260,65700,0,23168,0,2171661833,63
i,1723545722.309790,172.16.5.2,20571,172.16.1.2,5102,7500,26160,2086,64256,65728,6,6,4,1460,130312,1,16778208,380000,58156,55260,65700,0,26064,0,2171661833,63
o,1723545722.309809,172.16.5.2,20571,172.16.1.2,5102,7500,26160,2086,64256,65728,6,6,4,1460,127812,1,16778208,380000,58156,52364,65700,0,23168,0,2171661833,63
i,1723545722.317993,172.16.5.2,20571,172.16.1.2,5102,7500,26160,2086,64256,65728,6,6,4,1460,127812,1,16778208,380000,58156,58156,65700,0,26064,0,2171661833,63
o,1723545722.318073,172.16.5.2,20571,172.16.1.2,5102,7500,26160,2086,62848,65728,6,6,4,1460,126875,1,16778208,370000,58156,55260,65700,0,23168,0,2171661833,63
i,1723545722.318245,172.16.5.2,20571,172.16.1.2,5102,7500,26160,2086,62848,65728,6,6,4,1460,126875,1,16778208,370000,58156,55260,65700,0,26064,0,2171661833,63
o,1723545722.318262,172.16.5.2,20571,172.16.1.2,5102,7500,27620,2086,62848,65728,6,6,4,1460,126250,1,16778208,370000,58156,52364,65700,0,23168,0,2171661833,63
i,1723545722.339566,172.16.5.2,20571,172.16.1.2,5102,7500,27620,2086,62848,65728,6,6,4,1460,126250,1,16778208,370000,66348,66348,65700,0,27512,0,2171661833,63
o,1723545722.339637,172.16.5.2,20571,172.16.1.2,5102,7500,27620,2086,64256,65728,6,6,4,1460,123125,1,16778208,380000,66348,63452,65700,0,24616,0,2171661833,63
i,1723545722.348298,172.16.5.2,20571,172.16.1.2,5102,7500,27620,2086,64256,65728,6,6,4,1460,123125,1,16778208,380000,66348,66348,65700,0,27512,0,2171661833,63
o,1723545722.348316,172.16.5.2,20571,172.16.1.2,5102,7500,27620,2086,62848,65728,6,6,4,1460,120312,1,16778208,380000,66348,63452,65700,0,24616,0,2171661833,63
o,1723545722.348435,172.16.5.2,20571,172.16.1.2,5102,7500,27620,2086,62848,65728,6,6,4,1460,120312,1,16778208,380000,66348,63452,65700,0,26064,0,2171661833,63
i,1723545722.348622,172.16.5.2,20571,172.16.1.2,5102,7500,27620,2086,62848,65728,6,6,4,1460,120312,1,16778208,380000,66348,63452,65700,0,27512,0,2171661833,63
o,1723545722.348638,172.16.5.2,20571,172.16.1.2,5102,7500,27620,2086,59968,65728,6,6,4,1460,117812,1,16778208,390000,66348,60556,65700,0,24616,0,2171661833,63
i,1723545722.379005,172.16.5.2,20571,172.16.1.2,5102,7500,27620,2086,59968,65728,6,6,4,1460,117812,1,16778208,390000,66348,66348,65700,0,27512,0,2171661833,63
o,1723545722.379086,172.16.5.2,20571,172.16.1.2,5102,7500,27620,2086,62848,65728,6,6,4,1460,118125,1,16778208,370000,66348,63452,65700,0,24616,0,2171661833,63
i,1723545722.398199,172.16.5.2,20571,172.16.1.2,5102,7500,27620,2086,62848,65728,6,6,4,1460,118125,1,16778208,370000,66348,65216,65700,0,27512,0,2171661833,63
o,1723545722.398273,172.16.5.2,20571,172.16.1.2,5102,7500,27620,2086,62848,65728,6,6,4,1460,118437,1,16778208,360000,66348,62320,65700,0,24616,0,2171661833,63
i,1723545722.420686,172.16.5.2,20571,172.16.1.2,5102,7500,27620,2086,62848,65728,6,6,4,1460,118437,1,16778208,360000,66348,66348,65700,0,27512,0,2171661833,63
o,1723545722.420762,172.16.5.2,20571,172.16.1.2,5102,7500,27620,2086,62848,65728,6,6,4,1460,117500,1,16778208,360000,66348,63452,65700,0,24616,0,2171661833,63
i,1723545722.438200,172.16.5.2,20571,172.16.1.2,5102,7500,27620,2086,62848,65728,6,6,4,1460,117500,1,16778208,360000,66348,66348,65700,0,27512,0,2171661833,63
o,1723545722.438287,172.16.5.2,20571,172.16.1.2,5102,7500,27620,2086,62848,65728,6,6,4,1460,119062,1,16778208,360000,66348,63452,65700,0,24616,0,2171661833,63
i,1723545722.438451,172.16.5.2,20571,172.16.1.2,5102,7500,27620,2086,62848,65728,6,6,4,1460,119062,1,16778208,360000,66348,63452,65700,0,27512,0,2171661833,63
o,1723545722.438471,172.16.5.2,20571,172.16.1.2,5102,7500,27620,2086,64256,65728,6,6,4,1460,119375,1,16778208,350000,66348,60556,65700,0,24616,0,2171661833,63
i,1723545722.439872,172.16.5.2,20571,172.16.1.2,5102,7500,27620,2086,64256,65728,6,6,4,1460,119375,1,16778208,350000,66348,66348,65700,0,27512,0,2171661833,63
o,1723545722.439949,172.16.5.2,20571,172.16.1.2,5102,7500,29080,2086,64256,65728,6,6,4,1460,119687,1,16778208,350000,66348,63452,65700,0,24616,0,2171661833,63
i,1723545722.448443,172.16.5.2,20571,172.16.1.2,5102,7500,29080,2086,64256,65728,6,6,4,1460,119687,1,16778208,350000,66348,66348,65700,0,28960,0,2171661833,63
o,1723545722.448512,172.16.5.2,20571,172.16.1.2,5102,7500,29080,2086,64256,65728,6,6,4,1460,121250,1,16778208,350000,66348,63452,65700,0,26064,0,2171661833,63
i,1723545722.479630,172.16.5.2,20571,172.16.1.2,5102,7500,29080,2086,64256,65728,6,6,4,1460,121250,1,16778208,350000,66348,66348,65700,0,28960,0,2171661833,63
o,1723545722.479658,172.16.5.2,20571,172.16.1.2,5102,7500,29080,2086,64256,65728,6,6,4,1460,123750,1,16778208,370000,66348,63452,65700,0,26064,0,2171661833,63
o,1723545722.479884,172.16.5.2,20571,172.16.1.2,5102,7500,29080,2086,64256,65728,6,6,4,1460,123750,1,16778208,370000,66348,63452,65700,0,27512,0,2171661833,63
i,1723545722.488344,172.16.5.2,20571,172.16.1.2,5102,7500,29080,2086,64256,65728,6,6,4,1460,123750,1,16778208,370000,66348,66348,65700,0,28960,0,2171661833,63
o,1723545722.488362,172.16.5.2,20571,172.16.1.2,5102,7500,29080,2086,64256,65728,6,6,4,1460,125937,1,16778208,380000,66348,63452,65700,0,26064,0,2171661833,63
i,1723545722.508923,172.16.5.2,20571,172.16.1.2,5102,7500,29080,2086,64256,65728,6,6,4,1460,125937,1,16778208,380000,66348,66348,65700,0,28960,0,2171661833,63
o,1723545722.509009,172.16.5.2,20571,172.16.1.2,5102,7500,29080,2086,64256,65728,6,6,4,1460,130312,1,16778208,400000,66348,63452,65700,0,26064,0,2171661833,63
i,1723545722.518021,172.16.5.2,20571,172.16.1.2,5102,7500,29080,2086,64256,65728,6,6,4,1460,130312,1,16778208,400000,66348,66348,65700,0,28960,0,2171661833,63
o,1723545722.518039,172.16.5.2,20571,172.16.1.2,5102,7500,29080,2086,64256,65728,6,6,4,1460,130312,1,16778208,390000,66348,63452,65700,0,26064,0,2171661833,63
i,1723545722.529513,172.16.5.2,20571,172.16.1.2,5102,7500,29080,2086,64256,65728,6,6,4,1460,130312,1,16778208,390000,66348,66348,65700,0,28960,0,2171661833,63
o,1723545722.529554,172.16.5.2,20571,172.16.1.2,5102,7500,29080,2086,65728,65728,6,6,4,1460,130312,1,16778208,370000,66348,64900,65700,0,27512,0,2171661833,63
i,1723545722.548660,172.16.5.2,20571,172.16.1.2,5102,7500,29080,2086,65728,65728,6,6,4,1460,130312,1,16778208,370000,66348,64900,65700,0,28960,0,2171661833,63
o,1723545722.548681,172.16.5.2,20571,172.16.1.2,5102,7500,29080,2086,62848,65728,6,6,4,1460,130312,1,16778208,360000,66348,62004,65700,0,26064,0,2171661833,63
i,1723545722.569396,172.16.5.2,20571,172.16.1.2,5102,7500,29080,2086,62848,65728,6,6,4,1460,130312,1,16778208,360000,66348,66348,65700,0,28960,0,2171661833,63
o,1723545722.569923,172.16.5.2,20571,172.16.1.2,5102,7500,29080,2086,62848,65728,6,6,4,1460,129062,1,16778208,360000,66348,63452,65700,0,26064,0,2171661833,63
i,1723545722.570060,172.16.5.2,20571,172.16.1.2,5102,7500,29080,2086,62848,65728,6,6,4,1460,129062,1,16778208,360000,66348,63452,65700,0,28960,0,2171661833,63
o,1723545722.570076,172.16.5.2,20571,172.16.1.2,5102,7500,29080,2086,59968,65728,6,6,4,1460,128125,1,16778208,360000,66348,60556,65700,0,26064,0,2171661833,63
i,1723545722.570918,172.16.5.2,20571,172.16.1.2,5102,7500,29080,2086,59968,65728,6,6,4,1460,128125,1,16778208,360000,66348,66348,65700,0,28960,0,2171661833,63
o,1723545722.570937,172.16.5.2,20571,172.16.1.2,5102,7500,29080,2086,64256,65728,6,6,4,1460,127187,1,16778208,360000,66348,63452,65700,0,26064,0,2171661833,63
i,1723545722.571131,172.16.5.2,20571,172.16.1.2,5102,7500,29080,2086,64256,65728,6,6,4,1460,127187,1,16778208,360000,66348,63452,65700,0,28960,0,2171661833,63
o,1723545722.571148,172.16.5.2,20571,172.16.1.2,5102,7500,30540,2086,61376,65728,6,6,4,1460,126562,1,16778208,360000,66348,60556,65700,0,26064,0,2171661833,63
i,1723545722.590117,172.16.5.2,20571,172.16.1.2,5102,7500,30540,2086,61376,65728,6,6,4,1460,126562,1,16778208,360000,74540,74540,65700,0,30408,0,2171661833,63
o,1723545722.590194,172.16.5.2,20571,172.16.1.2,5102,7500,30540,2086,64256,65728,6,6,4,1460,128437,1,16778208,370000,74540,71644,65700,0,27512,0,2171661833,63
o,1723545722.590329,172.16.5.2,20571,172.16.1.2,5102,7500,30540,2086,64256,65728,6,6,4,1460,128437,1,16778208,370000,74540,71644,65700,0,28960,0,2171661833,63
i,1723545722.597754,172.16.5.2,20571,172.16.1.2,5102,7500,30540,2086,64256,65728,6,6,4,1460,128437,1,16778208,370000,74540,74540,65700,0,30408,0,2171661833,63
o,1723545722.597920,172.16.5.2,20571,172.16.1.2,5102,7500,30540,2086,64256,65728,6,6,4,1460,127500,1,16778208,360000,74540,71644,65700,0,27512,0,2171661833,63
i,1723545722.619148,172.16.5.2,20571,172.16.1.2,5102,7500,30540,2086,64256,65728,6,6,4,1460,127500,1,16778208,360000,74540,74540,65700,0,30408,0,2171661833,63
o,1723545722.619247,172.16.5.2,20571,172.16.1.2,5102,7500,30540,2086,64256,65728,6,6,4,1460,127812,1,16778208,360000,74540,71644,65700,0,27512,0,2171661833,63
i,1723545722.629281,172.16.5.2,20571,172.16.1.2,5102,7500,30540,2086,64256,65728,6,6,4,1460,127812,1,16778208,360000,74540,74540,65700,0,30408,0,2171661833,63
o,1723545722.629287,172.16.5.2,20571,172.16.1.2,5102,7500,30540,2086,64256,65728,6,6,4,1460,125625,1,16778208,360000,74540,71644,65700,0,27512,0,2171661833,63
i,1723545722.649277,172.16.5.2,20571,172.16.1.2,5102,7500,30540,2086,64256,65728,6,6,4,1460,125625,1,16778208,360000,74540,74540,65700,0,30408,0,2171661833,63
o,1723545722.649307,172.16.5.2,20571,172.16.1.2,5102,7500,30540,2086,64256,65728,6,6,4,1460,126250,1,16778208,360000,74540,71644,65700,0,27512,0,2171661833,63
i,1723545722.659145,172.16.5.2,20571,172.16.1.2,5102,7500,30540,2086,64256,65728,6,6,4,1460,126250,1,16778208,360000,74540,74540,65700,0,30408,0,2171661833,63
o,1723545722.659171,172.16.5.2,20571,172.16.1.2,5102,7500,30540,2086,64256,65728,6,6,4,1460,124375,1,16778208,360000,74540,71644,65700,0,27512,0,2171661833,63
i,1723545722.668941,172.16.5.2,20571,172.16.1.2,5102,7500,30540,2086,64256,65728,6,6,4,1460,124375,1,16778208,360000,74540,74540,65700,0,30408,0,2171661833,63
o,1723545722.668963,172.16.5.2,20571,172.16.1.2,5102,7500,30540,2086,62848,65728,6,6,4,1460,121562,1,16778208,370000,74540,71644,65700,0,27512,0,2171661833,63
i,1723545722.688437,172.16.5.2,20571,172.16.1.2,5102,7500,30540,2086,62848,65728,6,6,4,1460,121562,1,16778208,370000,74540,74540,65700,0,30408,0,2171661833,63
o,1723545722.688501,172.16.5.2,20571,172.16.1.2,5102,7500,30540,2086,64256,65728,6,6,4,1460,121562,1,16778208,360000,74540,71644,65700,0,27512,0,2171661833,63
i,1723545722.688680,172.16.5.2,20571,172.16.1.2,5102,7500,30540,2086,64256,65728,6,6,4,1460,121562,1,16778208,360000,74540,71644,65700,0,30408,0,2171661833,63
o,1723545722.688697,172.16.5.2,20571,172.16.1.2,5102,7500,30540,2086,62848,65728,6,6,4,1460,121562,1,16778208,350000,74540,68748,65700,0,27512,0,2171661833,63
i,1723545722.688849,172.16.5.2,20571,172.16.1.2,5102,7500,30540,2086,62848,65728,6,6,4,1460,121562,1,16778208,350000,74540,68748,65700,0,30408,0,2171661833,63
o,1723545722.688865,172.16.5.2,20571,172.16.1.2,5102,7500,32000,2086,62848,65728,6,6,4,1460,121562,1,16778208,340000,74540,65852,65700,0,27512,0,2171661833,63
i,1723545722.724856,172.16.5.2,20571,172.16.1.2,5102,7500,32000,2086,62848,65728,6,6,4,1460,121562,1,16778208,340000,74540,74540,65700,0,31856,0,2171661833,63
o,1723545722.725004,172.16.5.2,20571,172.16.1.2,5102,7500,32000,2086,64256,65728,6,6,4,1460,126562,1,16778208,380000,74540,71644,65700,0,28960,0,2171661833,63
o,1723545722.725251,172.16.5.2,20571,172.16.1.2,5102,7500,32000,2086,64256,65728,6,6,4,1460,126562,1,16778208,380000,74540,71644,65700,0,30408,0,2171661833,63
i,1723545722.725546,172.16.5.2,20571,172.16.1.2,5102,7500,32000,2086,64256,65728,6,6,4,1460,126562,1,16778208,380000,74540,71644,65700,0,31856,0,2171661833,63
o,1723545722.725580,172.16.5.2,20571,172.16.1.2,5102,7500,32000,2086,64256,65728,6,6,4,1460,128437,1,16778208,390000,74540,68748,65700,0,28960,0,2171661833,63
i,1723545722.738569,172.16.5.2,20571,172.16.1.2,5102,7500,32000,2086,64256,65728,6,6,4,1460,128437,1,16778208,390000,74540,74540,65700,0,31856,0,2171661833,63
o,1723545722.738590,172.16.5.2,20571,172.16.1.2,5102,7500,32000,2086,64256,65728,6,6,4,1460,130000,1,16778208,390000,74540,71644,65700,0,28960,0,2171661833,63
i,1723545722.747842,172.16.5.2,20571,172.16.1.2,5102,7500,32000,2086,64256,65728,6,6,4,1460,130000,1,16778208,390000,74540,74540,65700,0,31856,0,2171661833,63
o,1723545722.747919,172.16.5.2,20571,172.16.1.2,5102,7500,32000,2086,64256,65728,6,6,4,1460,128750,1,16778208,380000,74540,71644,65700,0,28960,0,2171661833,63
i,1723545722.770090,172.16.5.2,20571,172.16.1.2,5102,7500,32000,2086,64256,65728,6,6,4,1460,128750,1,16778208,380000,74540,74540,65700,0,31856,0,2171661833,63
o,1723545722.770176,172.16.5.2,20571,172.16.1.2,5102,7500,32000,2086,64256,65728,6,6,4,1460,130312,1,16778208,380000,74540,71644,65700,0,28960,0,2171661833,63
i,1723545722.778544,172.16.5.2,20571,172.16.1.2,5102,7500,32000,2086,64256,65728,6,6,4,1460,130312,1,16778208,380000,74540,74540,65700,0,31856,0,2171661833,63
o,1723545722.778582,172.16.5.2,20571,172.16.1.2,5102,7500,32000,2086,64256,65728,6,6,4,1460,130312,1,16778208,370000,74540,71644,65700,0,28960,0,2171661833,63
i,1723545722.798573,172.16.5.2,20571,172.16.1.2,5102,7500,32000,2086,64256,65728,6,6,4,1460,130312,1,16778208,370000,74540,74540,65700,0,31856,0,2171661833,63
o,1723545722.798650,172.16.5.2,20571,172.16.1.2,5102,7500,32000,2086,64256,65728,6,6,4,1460,130312,1,16778208,360000,74540,71644,65700,0,28960,0,2171661833,63
i,1723545722.818750,172.16.5.2,20571,172.16.1.2,5102,7500,32000,2086,64256,65728,6,6,4,1460,130312,1,16778208,360000,74540,74540,65700,0,31856,0,2171661833,63
o,1723545722.818772,172.16.5.2,20571,172.16.1.2,5102,7500,32000,2086,64256,65728,6,6,4,1460,132812,1,16778208,370000,74540,71644,65700,0,28960,0,2171661833,63
i,1723545722.818945,172.16.5.2,20571,172.16.1.2,5102,7500,32000,2086,64256,65728,6,6,4,1460,132812,1,16778208,370000,74540,71644,65700,0,31856,0,2171661833,63
o,1723545722.818963,172.16.5.2,20571,172.16.1.2,5102,7500,32000,2086,64256,65728,6,6,4,1460,132500,1,16778208,370000,74540,68748,65700,0,28960,0,2171661833,63
i,1723545722.819127,172.16.5.2,20571,172.16.1.2,5102,7500,32000,2086,64256,65728,6,6,4,1460,132500,1,16778208,370000,74540,68748,65700,0,31856,0,2171661833,63
o,1723545722.819174,172.16.5.2,20571,172.16.1.2,5102,7500,32000,2086,64256,65728,6,6,4,1460,132187,1,16778208,360000,74540,65852,65700,0,28960,0,2171661833,63
i,1723545722.819344,172.16.5.2,20571,172.16.1.2,5102,7500,32000,2086,64256,65728,6,6,4,1460,132187,1,16778208,360000,74540,65852,65700,0,31856,0,2171661833,63
o,1723545722.819361,172.16.5.2,20571,172.16.1.2,5102,7500,33460,2086,62848,65728,6,6,4,1460,132187,1,16778208,350000,74540,62956,65700,0,28960,0,2171661833,63
i,1723545722.828676,172.16.5.2,20571,172.16.1.2,5102,7500,33460,2086,62848,65728,6,6,4,1460,132187,1,16778208,350000,74540,74540,65700,0,33304,0,2171661833,63
o,1723545722.828738,172.16.5.2,20571,172.16.1.2,5102,7500,33460,2086,62848,65728,6,6,4,1460,128437,1,16778208,370000,74540,71644,65700,0,30408,0,2171661833,63
o,1723545722.828879,172.16.5.2,20571,172.16.1.2,5102,7500,33460,2086,62848,65728,6,6,4,1460,128437,1,16778208,370000,74540,71644,65700,0,31856,0,2171661833,63
i,1723545722.848693,172.16.5.2,20571,172.16.1.2,5102,7500,33460,2086,62848,65728,6,6,4,1460,128437,1,16778208,370000,74540,74540,65700,0,33304,0,2171661833,63
o,1723545722.848759,172.16.5.2,20571,172.16.1.2,5102,7500,33460,2086,62848,65728,6,6,4,1460,127500,1,16778208,370000,74540,71644,65700,0,30408,0,2171661833,63
i,1723545722.859933,172.16.5.2,20571,172.16.1.2,5102,7500,33460,2086,62848,65728,6,6,4,1460,127500,1,16778208,370000,74540,74540,65700,0,33304,0,2171661833,63
o,1723545722.860013,172.16.5.2,20571,172.16.1.2,5102,7500,33460,2086,62848,65728,6,6,4,1460,126562,1,16778208,360000,74540,71644,65700,0,30408,0,2171661833,63
i,1723545722.861783,172.16.5.2,20571,172.16.1.2,5102,7500,33460,2086,62848,65728,6,6,4,1460,126562,1,16778208,360000,74540,74540,65700,0,33304,0,2171661833,63
o,1723545722.861802,172.16.5.2,20571,172.16.1.2,5102,7500,33460,2086,64256,65728,6,6,4,1460,124687,1,16778208,370000,74540,71644,65700,0,30408,0,2171661833,63
i,1723545722.868661,172.16.5.2,20571,172.16.1.2,5102,7500,33460,2086,64256,65728,6,6,4,1460,124687,1,16778208,370000,74540,74540,65700,0,33304,0,2171661833,63
o,1723545722.868681,172.16.5.2,20571,172.16.1.2,5102,7500,33460,2086,62848,65728,6,6,4,1460,120625,1,16778208,390000,74540,71644,65700,0,30408,0,2171661833,63
i,1723545722.907412,172.16.5.2,20571,172.16.1.2,5102,7500,33460,2086,62848,65728,6,6,4,1460,120625,1,16778208,390000,74540,74540,65700,0,33304,0,2171661833,63
o,1723545722.907473,172.16.5.2,20571,172.16.1.2,5102,7500,33460,2086,64256,65728,6,6,4,1460,121875,1,16778208,380000,74540,71644,65700,0,30408,0,2171661833,63
i,1723545722.918643,172.16.5.2,20571,172.16.1.2,5102,7500,33460,2086,64256,65728,6,6,4,1460,121875,1,16778208,380000,74540,73208,65700,0,33304,0,2171661833,63
o,1723545722.918661,172.16.5.2,20571,172.16.1.2,5102,7500,33460,2086,62848,65728,6,6,4,1460,121875,1,16778208,360000,74540,70312,65700,0,30408,0,2171661833,63
i,1723545722.929690,172.16.5.2,20571,172.16.1.2,5102,7500,33460,2086,62848,65728,6,6,4,1460,121875,1,16778208,360000,74540,74540,65700,0,33304,0,2171661833,63
o,1723545722.929783,172.16.5.2,20571,172.16.1.2,5102,7500,33460,2086,62848,65728,6,6,4,1460,120625,1,16778208,360000,74540,71644,65700,0,30408,0,2171661833,63
i,1723545722.929919,172.16.5.2,20571,172.16.1.2,5102,7500,33460,2086,62848,65728,6,6,4,1460,120625,1,16778208,360000,74540,71644,65700,0,33304,0,2171661833,63
o,1723545722.929935,172.16.5.2,20571,172.16.1.2,5102,7500,33460,2086,62848,65728,6,6,4,1460,119375,1,16778208,360000,74540,68748,65700,0,30408,0,2171661833,63
i,1723545722.938707,172.16.5.2,20571,172.16.1.2,5102,7500,33460,2086,62848,65728,6,6,4,1460,119375,1,16778208,360000,74540,74540,65700,0,33304,0,2171661833,63
o,1723545722.938727,172.16.5.2,20571,172.16.1.2,5102,7500,33460,2086,62848,65728,6,6,4,1460,119687,1,16778208,350000,74540,71644,65700,0,30408,0,2171661833,63
i,1723545722.938872,172.16.5.2,20571,172.16.1.2,5102,7500,33460,2086,62848,65728,6,6,4,1460,119687,1,16778208,350000,74540,71644,65700,0,33304,0,2171661833,63
o,1723545722.938888,172.16.5.2,20571,172.16.1.2,5102,7500,33460,2086,62848,65728,6,6,4,1460,120000,1,16778208,350000,74540,68748,65700,0,30408,0,2171661833,63
i,1723545722.977587,172.16.5.2,20571,172.16.1.2,5102,7500,33460,2086,62848,65728,6,6,4,1460,120000,1,16778208,350000,74540,74540,65700,0,33304,0,2171661833,63
o,1723545722.977623,172.16.5.2,20571,172.16.1.2,5102,7500,34920,2086,64256,65728,6,6,4,1460,125000,1,16778208,390000,74540,71644,65700,0,30408,0,2171661833,63
o,1723545722.977812,172.16.5.2,20571,172.16.1.2,5102,7500,34920,2086,64256,65728,6,6,4,1460,125000,1,16778208,390000,74540,71644,65700,0,31856,0,2171661833,63
i,1723545722.978019,172.16.5.2,20571,172.16.1.2,5102,7500,34920,2086,64256,65728,6,6,4,1460,125000,1,16778208,390000,74540,71644,65700,0,34752,0,2171661833,63
o,1723545722.978041,172.16.5.2,20571,172.16.1.2,5102,7500,34920,2086,64256,65728,6,6,4,1460,126875,1,16778208,390000,74540,68748,65700,0,31856,0,2171661833,63
i,1723545722.993095,172.16.5.2,20571,172.16.1.2,5102,7500,34920,2086,64256,65728,6,6,4,1460,126875,1,16778208,390000,82732,82732,65700,0,34752,0,2171661833,63
o,1723545722.993298,172.16.5.2,20571,172.16.1.2,5102,7500,34920,2086,64256,65728,6,6,4,1460,128750,1,16778208,390000,82732,79836,65700,0,31856,0,2171661833,63
i,1723545722.993721,172.16.5.2,20571,172.16.1.2,5102,7500,34920,2086,64256,65728,6,6,4,1460,128750,1,16778208,390000,82732,79836,65700,0,34752,0,2171661833,63
o,1723545722.993772,172.16.5.2,20571,172.16.1.2,5102,7500,34920,2086,61376,65728,6,6,4,1460,130312,1,16778208,390000,82732,76940,65700,0,31856,0,2171661833,63
i,1723545723.001127,172.16.5.2,20571,172.16.1.2,5102,7500,34920,2086,61376,65728,6,6,4,1460,130312,1,16778208,390000,82732,82732,65700,0,34752,0,2171661833,63
o,1723545723.001200,172.16.5.2,20571,172.16.1.2,5102,7500,34920,2086,64256,65728,6,6,4,1460,131562,1,16778208,380000,82732,79836,65700,0,31856,0,2171661833,63
i,1723545723.027945,172.16.5.2,20571,172.16.1.2,5102,7500,34920,2086,64256,65728,6,6,4,1460,131562,1,16778208,380000,82732,82732,65700,0,34752,0,2171661833,63
o,1723545723.028264,172.16.5.2,20571,172.16.1.2,5102,7500,34920,2086,64256,65728,6,6,4,1460,135312,1,16778208,410000,82732,79836,65700,0,31856,0,2171661833,63
i,1723545723.050148,172.16.5.2,20571,172.16.1.2,5102,7500,34920,2086,64256,65728,6,6,4,1460,135312,1,16778208,410000,82732,82732,65700,0,34752,0,2171661833,63
o,1723545723.050188,172.16.5.2,20571,172.16.1.2,5102,7500,34920,2086,64256,65728,6,6,4,1460,135937,1,16778208,390000,82732,79836,65700,0,31856,0,2171661833,63
i,1723545723.050404,172.16.5.2,20571,172.16.1.2,5102,7500,34920,2086,64256,65728,6,6,4,1460,135937,1,16778208,390000,82732,79836,65700,0,34752,0,2171661833,63
o,1723545723.050431,172.16.5.2,20571,172.16.1.2,5102,7500,34920,2086,62848,65728,6,6,4,1460,134062,1,16778208,390000,82732,76940,65700,0,31856,0,2171661833,63
i,1723545723.050735,172.16.5.2,20571,172.16.1.2,5102,7500,34920,2086,62848,65728,6,6,4,1460,134062,1,16778208,390000,82732,76940,65700,0,34752,0,2171661833,63
o,1723545723.050762,172.16.5.2,20571,172.16.1.2,5102,7500,34920,2086,59968,65728,6,6,4,1460,132500,1,16778208,390000,82732,74044,65700,0,31856,0,2171661833,63
i,1723545723.058327,172.16.5.2,20571,172.16.1.2,5102,7500,34920,2086,59968,65728,6,6,4,1460,132500,1,16778208,390000,82732,82732,65700,0,34752,0,2171661833,63
o,1723545723.058348,172.16.5.2,20571,172.16.1.2,5102,7500,34920,2086,64256,65728,6,6,4,1460,132187,1,16778208,370000,82732,79836,65700,0,31856,0,2171661833,63
i,1723545723.058505,172.16.5.2,20571,172.16.1.2,5102,7500,34920,2086,64256,65728,6,6,4,1460,132187,1,16778208,370000,82732,79836,65700,0,34752,0,2171661833,63
o,1723545723.058524,172.16.5.2,20571,172.16.1.2,5102,7500,34920,2086,61376,65728,6,6,4,1460,129687,1,16778208,380000,82732,76940,65700,0,31856,0,2171661833,63
i,1723545723.078824,172.16.5.2,20571,172.16.1.2,5102,7500,34920,2086,61376,65728,6,6,4,1460,129687,1,16778208,380000,82732,82732,65700,0,34752,0,2171661833,63
o,1723545723.078845,172.16.5.2,20571,172.16.1.2,5102,7500,34920,2086,64256,65728,6,6,4,1460,130000,1,16778208,370000,82732,79836,65700,0,31856,0,2171661833,63
o,1723545723.078997,172.16.5.2,20571,172.16.1.2,5102,7500,34920,2086,64256,65728,6,6,4,1460,130000,1,16778208,370000,82732,79836,65700,0,33304,0,2171661833,63
i,1723545723.081271,172.16.5.2,20571,172.16.1.2,5102,7500,34920,2086,64256,65728,6,6,4,1460,130000,1,16778208,370000,82732,82732,65700,0,34752,0,2171661833,63
o,1723545723.081334,172.16.5.2,20571,172.16.1.2,5102,7500,36380,2086,62848,65728,6,6,4,1460,126250,1,16778208,390000,82732,79836,65700,0,31856,0,2171661833,63
i,1723545723.081486,172.16.5.2,20571,172.16.1.2,5102,7500,36380,2086,62848,65728,6,6,4,1460,126250,1,16778208,390000,82732,79836,65700,0,36200,0,2171661833,63
