enable_time_secs=1723545541	enable_time_usecs=888746	siftrver=1.3.0	sysname=FreeBSD	sysver=1401000	ipmode=4
o,1723545541.888966,10.0.2.15,22,10.0.2.2,52282,1073725440,17746,1026,65535,65700,0,0,4,1460,312,0,16777220,240000,33580,60,65700,0,0,0,3819904873,63
o,1723545541.890042,10.0.2.15,22,10.0.2.2,52282,1073725440,17746,1026,65535,65700,0,0,4,1460,312,0,16777220,240000,33580,164,65700,0,60,0,3819904873,63
i,1723545541.890174,10.0.2.15,22,10.0.2.2,52282,1073725440,17746,1026,65535,65700,0,0,4,1460,312,0,16777220,240000,33580,164,65700,0,164,0,3819904873,63
i,1723545541.890310,10.0.2.15,22,10.0.2.2,52282,1073725440,17806,1026,65535,65700,0,0,4,1460,312,0,4,240000,33580,104,65700,0,104,0,3819904873,63
o,1723545541.890650,10.0.2.15,22,10.0.2.2,52282,1073725440,17910,1026,65535,65700,0,0,4,1460,312,0,16777220,240000,33580,44,65700,0,0,0,3819904873,63
o,1723545541.890912,10.0.2.15,22,10.0.2.2,52282,1073725440,17910,1026,65535,65700,0,0,4,1460,312,0,16777220,240000,33580,116,65700,0,44,0,3819904873,63
i,1723545541.891569,10.0.2.15,22,10.0.2.2,52282,1073725440,17910,1026,65535,65700,0,0,4,1460,312,0,16777220,240000,33580,116,65700,0,116,0,3819904873,63
i,1723545541.891588,10.0.2.15,22,10.0.2.2,52282,1073725440,17954,1026,65535,65700,0,0,4,1460,312,0,4,240000,33580,72,65700,0,72,0,3819904873,63
i,1723545541.891603,10.0.2.15,22,10.0.2.2,52282,1073725440,18026,1026,65535,65700,0,0,4,1460,312,0,4,240000,33580,0,65700,0,0,0,3819904873,63
i,1723545541.891619,10.0.2.15,22,10.0.2.2,52282,1073725440,18026,1026,65535,65700,0,0,4,1460,312,0,4,240000,33580,0,65700,96,0,0,3819904873,63
o,1723545541.891639,10.0.2.15,22,10.0.2.2,52282,1073725440,18026,1026,65535,65604,0,0,5,1460,312,0,5,240000,33580,0,65700,96,0,0,3819904873,63
o,1723545541.892758,10.0.2.15,22,10.0.2.2,52282,1073725440,18026,1026,65535,65604,0,0,8,1460,312,0,4,240000,33580,0,65700,0,0,0,3819904873,63
i,1723545541.893384,10.0.2.15,22,10.0.2.2,52282,1073725440,18026,1026,65535,65604,0,0,8,1460,312,0,67108884,240000,33580,0,65700,0,1,0,3819904873,63
i,1723545545.154167,10.0.2.15,22,10.0.2.2,52294,1073725440,14600,0,65535,65700,0,0,4,1460,312,0,16777216,270000,33580,0,65700,0,0,0,4202005304,63
o,1723545545.166010,10.0.2.15,22,10.0.2.2,52294,1073725440,14600,1026,65535,65700,0,0,4,1460,312,0,16777216,270000,33580,38,65700,42,0,0,4202005304,63
i,1723545545.167918,10.0.2.15,22,10.0.2.2,52294,1073725440,14600,1026,65535,65700,0,0,4,1460,312,0,16777216,270000,33580,38,65700,0,38,0,4202005304,63
i,1723545545.167937,10.0.2.15,22,10.0.2.2,52294,1073725440,14638,1026,65535,65700,0,0,4,1460,312,0,0,240000,33580,0,65700,0,0,0,4202005304,63
i,1723545545.167950,10.0.2.15,22,10.0.2.2,52294,1073725440,14638,1026,65535,65700,0,0,4,1460,312,0,0,240000,33580,0,65700,1460,0,0,4202005304,63
o,1723545545.167966,10.0.2.15,22,10.0.2.2,52294,1073725440,14638,1026,65535,65700,0,0,4,1460,312,0,1,240000,33580,0,65700,1536,0,0,4202005304,63
o,1723545545.168788,10.0.2.15,22,10.0.2.2,52294,1073725440,14638,1026,65535,65700,0,0,4,1460,312,0,16777216,240000,33580,1120,65700,1536,0,0,4202005304,63
i,1723545545.169722,10.0.2.15,22,10.0.2.2,52294,1073725440,14638,1026,65535,65700,0,0,4,1460,312,0,16777216,240000,33580,1120,65700,0,1120,0,4202005304,63
i,1723545545.170733,10.0.2.15,22,10.0.2.2,52294,1073725440,15758,1026,65535,65700,0,0,4,1460,312,0,0,240000,33580,0,65700,0,0,0,4202005304,63
o,1723545545.174042,10.0.2.15,22,10.0.2.2,52294,1073725440,15758,1026,65535,65700,0,0,4,1460,312,0,16777216,240000,33580,492,65700,0,0,0,4202005304,63
i,1723545545.174566,10.0.2.15,22,10.0.2.2,52294,1073725440,15758,1026,65535,65700,0,0,4,1460,312,0,16777216,240000,33580,492,65700,0,492,0,4202005304,63
i,1723545545.179133,10.0.2.15,22,10.0.2.2,52294,1073725440,16250,1026,65535,65700,0,0,4,1460,312,0,0,240000,33580,0,65700,0,0,0,4202005304,63
i,1723545545.179150,10.0.2.15,22,10.0.2.2,52294,1073725440,16250,1026,65535,65700,0,0,4,1460,312,0,0,240000,33580,0,65700,16,0,0,4202005304,63
o,1723545545.179164,10.0.2.15,22,10.0.2.2,52294,1073725440,16250,1026,65535,65700,0,0,4,1460,312,0,1,240000,33580,0,65700,60,0,0,4202005304,63
o,1723545545.179303,10.0.2.15,22,10.0.2.2,52294,1073725440,16250,1026,65535,65700,0,0,4,1460,312,0,16777216,240000,33580,44,65700,0,0,0,4202005304,63
i,1723545545.180067,10.0.2.15,22,10.0.2.2,52294,1073725440,16250,1026,65535,65700,0,0,4,1460,312,0,16777216,240000,33580,44,65700,0,44,0,4202005304,63
i,1723545545.180110,10.0.2.15,22,10.0.2.2,52294,1073725440,16294,1026,65535,65700,0,0,4,1460,312,0,0,240000,33580,0,65700,0,0,0,4202005304,63
o,1723545545.181769,10.0.2.15,22,10.0.2.2,52294,1073725440,16294,1026,65535,65700,0,0,4,1460,312,0,16777216,240000,33580,68,65700,0,0,0,4202005304,63
i,1723545545.182421,10.0.2.15,22,10.0.2.2,52294,1073725440,16294,1026,65535,65700,0,0,4,1460,312,0,16777216,240000,33580,68,65700,0,68,0,4202005304,63
i,1723545545.182437,10.0.2.15,22,10.0.2.2,52294,1073725440,16362,1026,65535,65700,0,0,4,1460,312,0,0,230000,33580,0,65700,0,0,0,4202005304,63
o,1723545545.183607,10.0.2.15,22,10.0.2.2,52294,1073725440,16362,1026,65535,65700,0,0,4,1460,312,0,16777216,230000,33580,332,65700,0,0,0,4202005304,63
i,1723545545.184362,10.0.2.15,22,10.0.2.2,52294,1073725440,16362,1026,65535,65700,0,0,4,1460,312,0,16777216,230000,33580,332,65700,0,332,0,4202005304,63
i,1723545545.185727,10.0.2.15,22,10.0.2.2,52294,1073725440,16694,1026,65535,65700,0,0,4,1460,312,0,0,230000,33580,0,65700,0,0,0,4202005304,63
o,1723545545.203959,10.0.2.15,22,10.0.2.2,52294,1073725440,16694,1026,65535,65700,0,0,4,1460,312,0,16777216,230000,33580,28,65700,0,0,0,4202005304,63
i,1723545545.204416,10.0.2.15,22,10.0.2.2,52294,1073725440,16694,1026,65535,65700,0,0,4,1460,312,0,16777216,230000,33580,28,65700,0,28,0,4202005304,63
i,1723545545.204714,10.0.2.15,22,10.0.2.2,52294,1073725440,16722,1026,65535,65700,0,0,4,1460,312,0,0,230000,33580,0,65700,0,0,0,4202005304,63
o,1723545545.205566,10.0.2.15,22,10.0.2.2,52294,1073725440,16722,1026,65535,65700,0,0,4,1460,312,0,16777216,230000,33580,768,65700,112,0,0,4202005304,63
i,1723545545.206564,10.0.2.15,22,10.0.2.2,52294,1073725440,16722,1026,65535,65700,0,0,4,1460,312,0,16777216,230000,33580,908,65700,0,768,0,4202005304,63
o,1723545545.206597,10.0.2.15,22,10.0.2.2,52294,1073725440,17490,1026,65535,65700,0,0,4,1460,312,0,16777216,230000,33580,140,65700,0,0,0,4202005304,63
i,1723545545.207802,10.0.2.15,22,10.0.2.2,52294,1073725440,17490,1026,65535,65700,0,0,4,1460,312,0,16777216,230000,33580,184,65700,0,140,0,4202005304,63
o,1723545545.207819,10.0.2.15,22,10.0.2.2,52294,1073725440,17630,1026,65535,65700,0,0,4,1460,312,0,16777216,240000,33580,44,65700,0,0,0,4202005304,63
i,1723545545.208509,10.0.2.15,22,10.0.2.2,52294,1073725440,17630,1026,65535,65700,0,0,4,1460,312,0,16777216,240000,33580,44,65700,0,44,0,4202005304,63
i,1723545545.208540,10.0.2.15,22,10.0.2.2,52294,1073725440,17674,1026,65535,65700,0,0,4,1460,312,0,0,240000,33580,0,65700,0,0,0,4202005304,63
o,1723545545.209106,10.0.2.15,22,10.0.2.2,52294,1073725440,17674,1026,65535,65700,0,0,4,1460,312,0,16777220,240000,33580,72,65700,0,0,0,4202005304,63
i,1723545545.209922,10.0.2.15,22,10.0.2.2,52294,1073725440,17674,1026,65535,65700,0,0,4,1460,312,0,16777220,240000,33580,72,65700,0,72,0,4202005304,63
o,1723545545.214484,10.0.2.15,22,10.0.2.2,52294,1073725440,17746,1026,65535,65700,0,0,4,1460,312,0,16777220,240000,33580,104,65700,0,0,0,4202005304,63
i,1723545545.215087,10.0.2.15,22,10.0.2.2,52294,1073725440,17746,1026,65535,65700,0,0,4,1460,312,0,16777220,240000,33580,104,65700,0,104,0,4202005304,63
o,1723545545.215242,10.0.2.15,22,10.0.2.2,52294,1073725440,17850,1026,65535,65700,0,0,4,1460,312,0,16777220,240000,33580,72,65700,0,0,0,4202005304,63
i,1723545545.216158,10.0.2.15,22,10.0.2.2,52294,1073725440,17850,1026,65535,65700,0,0,4,1460,312,0,16777220,240000,33580,72,65700,0,72,0,4202005304,63
i,1723545545.216176,10.0.2.15,22,10.0.2.2,52294,1073725440,17922,1026,65535,65700,0,0,4,1460,312,0,4,240000,33580,0,65700,0,0,0,4202005304,63
i,1723545545.216194,10.0.2.15,22,10.0.2.2,52294,1073725440,17922,1026,65535,65700,0,0,4,1460,312,0,4,240000,33580,0,65700,96,0,0,4202005304,63
o,1723545545.216213,10.0.2.15,22,10.0.2.2,52294,1073725440,17922,1026,65535,65604,0,0,5,1460,312,0,5,240000,33580,0,65700,96,0,0,4202005304,63
o,1723545545.216727,10.0.2.15,22,10.0.2.2,52294,1073725440,17922,1026,65535,65604,0,0,8,1460,312,0,4,240000,33580,0,65700,0,0,0,4202005304,63
i,1723545545.217823,10.0.2.15,22,10.0.2.2,52294,1073725440,17922,1026,65535,65604,0,0,8,1460,312,0,67108884,240000,33580,0,65700,0,1,0,4202005304,63
i,1723545546.291639,10.0.2.15,22,10.0.2.2,52296,1073725440,14600,0,65535,65700,0,0,4,1460,312,0,16777216,270000,33580,0,65700,0,0,0,3604163033,63
o,1723545546.311318,10.0.2.15,22,10.0.2.2,52296,1073725440,14600,1026,65535,65700,0,0,4,1460,312,0,16777216,270000,33580,38,65700,42,0,0,3604163033,63
i,1723545546.312765,10.0.2.15,22,10.0.2.2,52296,1073725440,14600,1026,65535,65700,0,0,4,1460,312,0,16777216,270000,33580,38,65700,0,38,0,3604163033,63
i,1723545546.312818,10.0.2.15,22,10.0.2.2,52296,1073725440,14638,1026,65535,65700,0,0,4,1460,312,0,0,240000,33580,0,65700,0,0,0,3604163033,63
i,1723545546.312833,10.0.2.15,22,10.0.2.2,52296,1073725440,14638,1026,65535,65700,0,0,4,1460,312,0,0,240000,33580,0,65700,1460,0,0,3604163033,63
o,1723545546.312852,10.0.2.15,22,10.0.2.2,52296,1073725440,14638,1026,65535,65700,0,0,4,1460,312,0,1,240000,33580,0,65700,1536,0,0,3604163033,63
o,1723545546.314346,10.0.2.15,22,10.0.2.2,52296,1073725440,14638,1026,65535,65700,0,0,4,1460,312,0,16777216,240000,33580,1120,65700,1536,0,0,3604163033,63
i,1723545546.315410,10.0.2.15,22,10.0.2.2,52296,1073725440,14638,1026,65535,65700,0,0,4,1460,312,0,16777216,240000,33580,1120,65700,0,1120,0,3604163033,63
i,1723545546.317245,10.0.2.15,22,10.0.2.2,52296,1073725440,15758,1026,65535,65700,0,0,4,1460,312,0,0,240000,33580,0,65700,0,0,0,3604163033,63
o,1723545546.321026,10.0.2.15,22,10.0.2.2,52296,1073725440,15758,1026,65535,65700,0,0,4,1460,312,0,16777216,240000,33580,492,65700,0,0,0,3604163033,63
i,1723545546.321496,10.0.2.15,22,10.0.2.2,52296,1073725440,15758,1026,65535,65700,0,0,4,1460,312,0,16777216,240000,33580,492,65700,0,492,0,3604163033,63
i,1723545546.326107,10.0.2.15,22,10.0.2.2,52296,1073725440,16250,1026,65535,65700,0,0,4,1460,312,0,0,240000,33580,0,65700,0,0,0,3604163033,63
i,1723545546.326129,10.0.2.15,22,10.0.2.2,52296,1073725440,16250,1026,65535,65700,0,0,4,1460,312,0,0,240000,33580,0,65700,16,0,0,3604163033,63
o,1723545546.326149,10.0.2.15,22,10.0.2.2,52296,1073725440,16250,1026,65535,65700,0,0,4,1460,312,0,1,240000,33580,0,65700,60,0,0,3604163033,63
o,1723545546.326410,10.0.2.15,22,10.0.2.2,52296,1073725440,16250,1026,65535,65700,0,0,4,1460,312,0,16777216,240000,33580,44,65700,0,0,0,3604163033,63
i,1723545546.328457,10.0.2.15,22,10.0.2.2,52296,1073725440,16250,1026,65535,65700,0,0,4,1460,312,0,16777216,240000,33580,44,65700,0,44,0,3604163033,63
i,1723545546.328474,10.0.2.15,22,10.0.2.2,52296,1073725440,16294,1026,65535,65700,0,0,4,1460,312,0,0,240000,33580,0,65700,0,0,0,3604163033,63
o,1723545546.330314,10.0.2.15,22,10.0.2.2,52296,1073725440,16294,1026,65535,65700,0,0,4,1460,312,0,16777216,240000,33580,68,65700,0,0,0,3604163033,63
i,1723545546.330808,10.0.2.15,22,10.0.2.2,52296,1073725440,16294,1026,65535,65700,0,0,4,1460,312,0,16777216,240000,33580,68,65700,0,68,0,3604163033,63
i,1723545546.330826,10.0.2.15,22,10.0.2.2,52296,1073725440,16362,1026,65535,65700,0,0,4,1460,312,0,0,240000,33580,0,65700,0,0,0,3604163033,63
o,1723545546.332425,10.0.2.15,22,10.0.2.2,52296,1073725440,16362,1026,65535,65700,0,0,4,1460,312,0,16777216,240000,33580,332,65700,0,0,0,3604163033,63
i,1723545546.333377,10.0.2.15,22,10.0.2.2,52296,1073725440,16362,1026,65535,65700,0,0,4,1460,312,0,16777216,240000,33580,332,65700,0,332,0,3604163033,63
i,1723545546.334762,10.0.2.15,22,10.0.2.2,52296,1073725440,16694,1026,65535,65700,0,0,4,1460,312,0,0,240000,33580,0,65700,0,0,0,3604163033,63
o,1723545546.353102,10.0.2.15,22,10.0.2.2,52296,1073725440,16694,1026,65535,65700,0,0,4,1460,312,0,16777216,240000,33580,28,65700,0,0,0,3604163033,63
i,1723545546.353541,10.0.2.15,22,10.0.2.2,52296,1073725440,16694,1026,65535,65700,0,0,4,1460,312,0,16777216,240000,33580,28,65700,0,28,0,3604163033,63
i,1723545546.353561,10.0.2.15,22,10.0.2.2,52296,1073725440,16722,1026,65535,65700,0,0,4,1460,312,0,0,240000,33580,0,65700,0,0,0,3604163033,63
o,1723545546.355641,10.0.2.15,22,10.0.2.2,52296,1073725440,16722,1026,65535,65700,0,0,4,1460,312,0,16777216,240000,33580,768,65700,112,0,0,3604163033,63
i,1723545546.356453,10.0.2.15,22,10.0.2.2,52296,1073725440,16722,1026,65535,65700,0,0,4,1460,312,0,16777216,240000,33580,908,65700,112,768,0,3604163033,63
o,1723545546.356471,10.0.2.15,22,10.0.2.2,52296,1073725440,17490,1026,65535,65700,0,0,4,1460,312,0,16777216,240000,33580,140,65700,112,0,0,3604163033,63
i,1723545546.356835,10.0.2.15,22,10.0.2.2,52296,1073725440,17490,1026,65535,65700,0,0,4,1460,312,0,16777216,240000,33580,140,65700,112,140,0,3604163033,63
o,1723545546.357779,10.0.2.15,22,10.0.2.2,52296,1073725440,17630,1026,65535,65700,0,0,4,1460,312,0,16777216,240000,33580,44,65700,0,0,0,3604163033,63
i,1723545546.358439,10.0.2.15,22,10.0.2.2,52296,1073725440,17630,1026,65535,65700,0,0,4,1460,312,0,16777216,240000,33580,44,65700,0,44,0,3604163033,63
i,1723545546.362128,10.0.2.15,22,10.0.2.2,52296,1073725440,17674,1026,65535,65700,0,0,4,1460,312,0,0,240000,33580,0,65700,0,0,0,3604163033,63
o,1723545546.363030,10.0.2.15,22,10.0.2.2,52296,1073725440,17674,1026,65535,65700,0,0,4,1460,312,0,16777220,240000,33580,72,65700,0,0,0,3604163033,63
i,1723545546.363390,10.0.2.15,22,10.0.2.2,52296,1073725440,17674,1026,65535,65700,0,0,4,1460,312,0,16777220,240000,33580,72,65700,0,72,0,3604163033,63
o,1723545546.538404,172.16.5.2,64229,172.16.1.2,5102,1073725440,14480,2082,65535,65700,6,6,4,1460,160000,1,16778209,680000,33580,0,65700,0,0,0,387141043,63
o,1723545546.538763,172.16.5.2,64229,172.16.1.2,5102,1073725440,14480,2082,65535,65700,6,6,4,1460,160000,1,16778212,680000,33580,37,65700,0,0,0,387141043,63
i,1723545546.666424,172.16.5.2,64229,172.16.1.2,5102,1073725440,14480,2082,65535,65700,6,6,4,1460,160000,1,16778212,680000,33580,37,65700,0,37,0,387141043,63
o,1723545546.667079,172.16.5.2,64229,172.16.1.2,5102,1073725440,14517,3106,65728,65728,6,6,4,1460,156250,1,16778212,620000,33580,4,65700,0,0,0,387141043,63
o,1723545546.667196,172.16.5.2,64229,172.16.1.2,5102,1073725440,14517,3106,65728,65728,6,6,4,1460,156250,1,16778212,620000,33580,130,65700,0,4,0,387141043,63
i,1723545546.780855,172.16.5.2,64229,172.16.1.2,5102,1073725440,14517,3106,65728,65728,6,6,4,1460,156250,1,16778212,620000,33580,130,65700,0,130,0,387141043,63
i,1723545546.781014,172.16.5.2,64229,172.16.1.2,5102,1073725440,14647,3106,65600,65728,6,6,4,1460,149375,1,996,600000,33580,0,65700,0,0,0,387141043,63
o,1723545546.813631,172.16.5.2,64229,172.16.1.2,5102,1073725440,14647,3106,65728,65728,6,6,4,1460,149375,1,997,600000,33580,0,65700,0,0,0,387141043,63
o,1723545546.896772,172.16.5.2,45705,172.16.1.2,5102,1073725440,14480,2082,65535,65700,6,6,4,1460,130000,1,16778209,590000,33580,0,65700,0,0,0,1199941594,63
o,1723545546.899461,172.16.5.2,45705,172.16.1.2,5102,1073725440,14480,2082,65535,65700,6,6,4,1460,130000,1,16778208,590000,33580,37,65700,0,0,0,1199941594,63
i,1723545547.019359,172.16.5.2,64229,172.16.1.2,5102,1073725440,14647,3106,65728,65728,6,6,4,1460,149375,1,996,600000,33580,0,65700,0,0,0,387141043,63
i,1723545547.019414,172.16.5.2,64229,172.16.1.2,5102,1073725440,14647,3106,65728,65728,6,6,4,1460,149375,1,996,600000,33580,0,65700,1,0,0,387141043,63
o,1723545547.019438,172.16.5.2,64229,172.16.1.2,5102,1073725440,14647,3106,65728,65728,6,6,4,1460,149375,1,997,600000,33580,0,65700,2,0,0,387141043,63
o,1723545547.020078,172.16.5.2,45705,172.16.1.2,5102,1073725440,14480,2086,65535,65700,6,6,4,1460,130000,1,16778208,590000,33580,33580,65700,0,37,0,1199941594,63
i,1723545547.048939,172.16.5.2,45705,172.16.1.2,5102,1073725440,14480,2086,65535,65700,6,6,4,1460,130000,1,16778208,590000,33580,33580,65700,0,13069,0,1199941594,63
o,1723545547.048965,172.16.5.2,45705,172.16.1.2,5102,1073725440,14517,2086,65728,65728,6,6,4,1460,131250,1,16778208,530000,33580,33543,65700,0,13032,0,1199941594,63
i,1723545547.398472,172.16.5.2,45705,172.16.1.2,5102,1073725440,14517,2086,65728,65728,6,6,4,1460,131250,1,16778208,530000,33580,33543,65700,0,14480,0,1199941594,63
o,1723545547.398547,172.16.5.2,45705,172.16.1.2,5102,1073725440,17413,2086,64256,65728,6,6,4,1460,162500,1,16778208,760000,33580,30647,65700,0,11584,0,1199941594,63
i,1723545547.455931,172.16.5.2,45705,172.16.1.2,5102,1073725440,17413,2086,64256,65728,6,6,4,1460,162500,1,16778208,760000,41772,41772,65700,0,17376,0,1199941594,63
o,1723545547.456005,172.16.5.2,45705,172.16.1.2,5102,9251,17376,2086,64256,65728,6,6,4,1460,197187,1,553649120,970000,41772,38876,65700,0,14480,0,1199941594,63
i,1723545547.499448,172.16.5.2,45705,172.16.1.2,5102,9251,17376,2086,64256,65728,6,6,4,1460,197187,1,553649120,970000,41772,41772,65700,0,17376,0,1199941594,63
o,1723545547.499481,172.16.5.2,45705,172.16.1.2,5102,9251,15928,2082,64256,65728,6,6,4,1460,232812,1,553649120,1150000,41772,38876,65700,0,14480,0,1199941594,63
i,1723545547.550116,172.16.5.2,45705,172.16.1.2,5102,9251,15928,2082,64256,65728,6,6,4,1460,232812,1,553649120,1150000,41772,41772,65700,0,15928,0,1199941594,63
o,1723545547.550201,172.16.5.2,45705,172.16.1.2,5102,9251,14480,2082,64256,65728,6,6,4,1460,270000,1,553649120,1310000,41772,38876,65700,0,13032,0,1199941594,63
i,1723545547.598552,172.16.5.2,45705,172.16.1.2,5102,9251,14480,2082,64256,65728,6,6,4,1460,270000,1,553649120,1310000,41772,41772,65700,0,14480,0,1199941594,63
o,1723545547.598628,172.16.5.2,45705,172.16.1.2,5102,9251,13032,2082,64256,65728,6,6,4,1460,308750,1,553649120,1440000,41772,38876,65700,0,11584,0,1199941594,63
i,1723545547.840378,172.16.5.2,45705,172.16.1.2,5102,9251,13032,2082,64256,65728,6,6,4,1460,308750,1,553649120,1440000,41772,41772,65700,0,13032,0,1199941594,63
o,1723545547.840735,172.16.5.2,45705,172.16.1.2,5102,9251,13044,2086,64256,65728,6,6,4,1460,325312,1,553649120,1360000,41772,38876,65700,0,10136,0,1199941594,63
i,1723545547.916002,172.16.5.2,45705,172.16.1.2,5102,9251,13044,2086,64256,65728,6,6,4,1460,325312,1,553649120,1360000,41772,41772,65700,0,13032,0,1199941594,63
i,1723545547.916244,172.16.5.2,45705,172.16.1.2,5102,9251,10136,2086,64256,65728,6,6,4,1460,348437,1,553649120,1360000,41772,38876,65700,0,10136,0,1199941594,63
i,1723545547.932689,172.16.5.2,45705,172.16.1.2,5102,5464,8688,2150,65728,65728,6,6,4,1460,362500,1,553649120,1280000,41772,41772,65700,0,8688,0,1199941594,63
o,1723545547.932764,172.16.5.2,45705,172.16.1.2,5102,5464,8700,2086,65728,65728,6,6,4,1460,375937,1,553649120,1220000,41772,40324,65700,0,7240,0,1199941594,63
i,1723545547.960201,172.16.5.2,45705,172.16.1.2,5102,5464,8700,2086,65728,65728,6,6,4,1460,375937,1,553649120,1220000,41772,40324,65700,0,8688,0,1199941594,63
i,1723545547.987310,172.16.5.2,45705,172.16.1.2,5102,5464,5792,2086,64256,65728,6,6,4,1460,386562,1,553649120,1160000,41772,41772,65700,0,5792,0,1199941594,63
o,1723545547.987391,172.16.5.2,45705,172.16.1.2,5102,5464,5792,2082,65728,65728,6,6,4,1460,387187,1,553649120,1020000,41772,40324,65700,0,4344,0,1199941594,63
i,1723545548.060235,172.16.5.2,45705,172.16.1.2,5102,5464,5792,2082,65728,65728,6,6,4,1460,387187,1,553649120,1020000,41772,40324,65700,0,5792,0,1199941594,63
o,1723545548.060266,172.16.5.2,45705,172.16.1.2,5102,5464,5792,2082,65728,65728,6,6,4,1460,365312,1,553649120,1070000,41772,38876,65700,0,4344,0,1199941594,63
i,1723545548.068961,172.16.5.2,45705,172.16.1.2,5102,5464,5792,2082,65728,65728,6,6,4,1460,365312,1,553649120,1070000,41772,41772,65700,0,5792,0,1199941594,63
o,1723545548.069030,172.16.5.2,45705,172.16.1.2,5102,5464,5792,2086,64256,65728,6,6,4,1460,348437,1,16778208,1060000,41772,38876,65700,0,2896,0,1199941594,63
i,1723545548.147844,172.16.5.2,45705,172.16.1.2,5102,5464,5792,2086,64256,65728,6,6,4,1460,348437,1,16778208,1060000,41772,41772,65700,0,5792,0,1199941594,63
o,1723545548.147932,172.16.5.2,45705,172.16.1.2,5102,5464,5792,2082,65728,65728,6,6,4,1460,325000,1,16778208,1100000,41772,40324,65700,0,4344,0,1199941594,63
i,1723545548.225559,172.16.5.2,45705,172.16.1.2,5102,5464,5792,2082,65728,65728,6,6,4,1460,325000,1,16778208,1100000,41772,40324,65700,0,5792,0,1199941594,63
o,1723545548.225688,172.16.5.2,45705,172.16.1.2,5102,5464,5792,2086,64256,65728,6,6,4,1460,305625,1,16778208,1090000,41772,37428,65700,0,2896,0,1199941594,63
i,1723545548.248460,172.16.5.2,45705,172.16.1.2,5102,5464,5792,2086,64256,65728,6,6,4,1460,305625,1,16778208,1090000,41772,41772,65700,0,5792,0,1199941594,63
o,1723545548.248525,172.16.5.2,45705,172.16.1.2,5102,5464,7252,2086,65728,65728,6,6,4,1460,288750,1,16778208,1060000,41772,40324,65700,0,4344,0,1199941594,63
i,1723545548.319536,172.16.5.2,45705,172.16.1.2,5102,5464,7252,2086,65728,65728,6,6,4,1460,288750,1,16778208,1060000,41772,40324,65700,0,7240,0,1199941594,63
o,1723545548.319613,172.16.5.2,45705,172.16.1.2,5102,5464,7252,2086,65728,65728,6,6,4,1460,274062,1,16778208,1020000,41772,38876,65700,0,5792,0,1199941594,63
i,1723545548.428799,172.16.5.2,45705,172.16.1.2,5102,5464,7252,2086,65728,65728,6,6,4,1460,274062,1,16778208,1020000,41772,41772,65700,0,7240,0,1199941594,63
o,1723545548.428906,172.16.5.2,45705,172.16.1.2,5102,5464,7252,2086,64256,65728,6,6,4,1460,265000,1,16778208,950000,41772,38876,65700,0,4344,0,1199941594,63
i,1723545548.458065,172.16.5.2,45705,172.16.1.2,5102,5464,7252,2086,64256,65728,6,6,4,1460,265000,1,16778208,950000,41772,41772,65700,0,7240,0,1199941594,63
o,1723545548.458143,172.16.5.2,45705,172.16.1.2,5102,5464,7252,2086,64256,65728,6,6,4,1460,258125,1,16778208,880000,41772,38876,65700,0,4344,0,1199941594,63
i,1723545548.528327,172.16.5.2,45705,172.16.1.2,5102,5464,7252,2086,64256,65728,6,6,4,1460,258125,1,16778208,880000,41772,41772,65700,0,7240,0,1199941594,63
o,1723545548.528358,172.16.5.2,45705,172.16.1.2,5102,5464,8712,2086,65728,65728,6,6,4,1460,252187,1,16778208,810000,41772,40324,65700,0,5792,0,1199941594,63
o,1723545548.528478,172.16.5.2,45705,172.16.1.2,5102,5464,8712,2086,65728,65728,6,6,4,1460,252187,1,16778208,810000,41772,40324,65700,0,7240,0,1199941594,63
i,1723545548.627979,172.16.5.2,45705,172.16.1.2,5102,5464,8712,2086,65728,65728,6,6,4,1460,252187,1,16778208,810000,41772,40324,65700,0,8688,0,1199941594,63
o,1723545548.628010,172.16.5.2,45705,172.16.1.2,5102,5464,8712,2086,64256,65728,6,6,4,1460,245937,1,16778208,770000,41772,37428,65700,0,5792,0,1199941594,63
i,1723545548.686573,172.16.5.2,45705,172.16.1.2,5102,5464,8712,2086,64256,65728,6,6,4,1460,245937,1,16778208,770000,41772,41772,65700,0,8688,0,1199941594,63
o,1723545548.686649,172.16.5.2,45705,172.16.1.2,5102,5464,8712,2086,64256,65728,6,6,4,1460,244062,1,16778208,700000,41772,38876,65700,0,5792,0,1199941594,63
i,1723545548.790181,172.16.5.2,45705,172.16.1.2,5102,5464,8712,2086,64256,65728,6,6,4,1460,244062,1,16778208,700000,41772,41772,65700,0,8688,0,1199941594,63
o,1723545548.790358,172.16.5.2,45705,172.16.1.2,5102,5464,8712,2086,65728,65728,6,6,4,1460,246250,1,16778208,650000,41772,40324,65700,0,7240,0,1199941594,63
i,1723545548.874681,172.16.5.2,45705,172.16.1.2,5102,5464,8712,2086,65728,65728,6,6,4,1460,246250,1,16778208,650000,41772,40324,65700,0,8688,0,1199941594,63
o,1723545548.874781,172.16.5.2,45705,172.16.1.2,5102,5464,10172,2086,65728,65728,6,6,4,1460,259375,1,16778208,720000,41772,38876,65700,0,7240,0,1199941594,63
i,1723545548.929236,172.16.5.2,45705,172.16.1.2,5102,5464,10172,2086,65728,65728,6,6,4,1460,259375,1,16778208,720000,41772,41772,65700,0,10136,0,1199941594,63
o,1723545548.929310,172.16.5.2,45705,172.16.1.2,5102,5464,10172,2086,65728,65728,6,6,4,1460,263437,1,16778208,690000,41772,40324,65700,0,8688,0,1199941594,63
i,1723545548.948730,172.16.5.2,45705,172.16.1.2,5102,5464,10172,2086,65728,65728,6,6,4,1460,263437,1,16778208,690000,41772,40324,65700,0,10136,0,1199941594,63
o,1723545548.948797,172.16.5.2,45705,172.16.1.2,5102,6591,8688,2082,64256,65728,6,6,4,1460,269375,1,553649120,690000,41772,37428,65700,0,7240,0,1199941594,63
i,1723545549.029132,172.16.5.2,45705,172.16.1.2,5102,6591,8688,2082,64256,65728,6,6,4,1460,269375,1,553649120,690000,41772,41772,65700,0,8688,0,1199941594,63
o,1723545549.029171,172.16.5.2,45705,172.16.1.2,5102,6591,8688,2082,65728,65728,6,6,4,1460,278437,1,553649120,710000,41772,40324,65700,0,7240,0,1199941594,63
i,1723545549.109973,172.16.5.2,45705,172.16.1.2,5102,6591,8688,2082,65728,65728,6,6,4,1460,278437,1,553649120,710000,41772,40324,65700,0,8688,0,1199941594,63
o,1723545549.110047,172.16.5.2,45705,172.16.1.2,5102,6591,8700,2086,65728,65728,6,6,4,1460,283750,1,553649120,700000,41772,38876,65700,0,7240,0,1199941594,63
i,1723545549.169498,172.16.5.2,45705,172.16.1.2,5102,6591,8700,2086,65728,65728,6,6,4,1460,283750,1,553649120,700000,41772,41772,65700,0,8688,0,1199941594,63
o,1723545549.169613,172.16.5.2,45705,172.16.1.2,5102,6591,8688,2086,64256,65728,6,6,4,1460,284687,1,553649120,650000,41772,38876,65700,0,5792,0,1199941594,63
i,1723545549.247947,172.16.5.2,45705,172.16.1.2,5102,6591,8688,2086,64256,65728,6,6,4,1460,284687,1,553649120,650000,41772,41772,65700,0,8688,0,1199941594,63
o,1723545549.247990,172.16.5.2,45705,172.16.1.2,5102,6591,8688,2086,64256,65728,6,6,4,1460,289375,1,16778208,650000,41772,38876,65700,0,5792,0,1199941594,63
i,1723545549.329063,172.16.5.2,45705,172.16.1.2,5102,6591,8688,2086,64256,65728,6,6,4,1460,289375,1,16778208,650000,41772,41772,65700,0,8688,0,1199941594,63
o,1723545549.329140,172.16.5.2,45705,172.16.1.2,5102,5808,8688,2082,65728,65728,6,6,4,1460,290937,1,553649120,630000,41772,40324,65700,0,7240,0,1199941594,63
i,1723545549.408129,172.16.5.2,45705,172.16.1.2,5102,5808,8688,2082,65728,65728,6,6,4,1460,290937,1,553649120,630000,41772,40324,65700,0,8688,0,1199941594,63
i,1723545549.468383,172.16.5.2,45705,172.16.1.2,5102,5808,7240,2082,65728,65728,6,6,4,1460,290937,1,536871904,590000,41772,41772,65700,0,7240,0,1199941594,63
o,1723545549.468507,172.16.5.2,45705,172.16.1.2,5102,5808,8688,2086,64256,65728,6,6,4,1460,292187,1,553649120,580000,41772,38876,65700,0,4344,0,1199941594,63
o,1723545549.468676,172.16.5.2,45705,172.16.1.2,5102,5808,8688,2086,64256,65728,6,6,4,1460,292187,1,553649120,580000,41772,38876,65700,0,5792,0,1199941594,63
i,1723545549.519245,172.16.5.2,45705,172.16.1.2,5102,5808,8688,2086,64256,65728,6,6,4,1460,292187,1,553649120,580000,41772,41772,65700,0,8688,0,1199941594,63
i,1723545549.568265,172.16.5.2,45705,172.16.1.2,5102,5808,7240,2086,65728,65728,6,6,4,1460,289687,1,553649120,570000,41772,40324,65700,0,7240,0,1199941594,63
o,1723545549.568343,172.16.5.2,45705,172.16.1.2,5102,5808,7240,2086,64256,65728,6,6,4,1460,293750,1,16778208,590000,41772,37428,65700,0,4344,0,1199941594,63
i,1723545549.690269,172.16.5.2,45705,172.16.1.2,5102,5808,7240,2086,64256,65728,6,6,4,1460,293750,1,16778208,590000,41772,41772,65700,0,7240,0,1199941594,63
o,1723545549.690373,172.16.5.2,45705,172.16.1.2,5102,5808,7240,2086,64256,65728,6,6,4,1460,284687,1,16778208,630000,41772,38876,65700,0,4344,0,1199941594,63
o,1723545549.690511,172.16.5.2,45705,172.16.1.2,5102,5808,7240,2082,64256,65728,6,6,4,1460,284687,1,16778208,630000,41772,38876,65700,0,5792,0,1199941594,63
i,1723545549.789508,172.16.5.2,45705,172.16.1.2,5102,5808,7240,2082,64256,65728,6,6,4,1460,284687,1,16778208,630000,41772,41772,65700,0,7240,0,1199941594,63
o,1723545549.789601,172.16.5.2,45705,172.16.1.2,5102,5808,7240,2086,64256,65728,6,6,4,1460,288125,1,16778208,620000,41772,38876,65700,0,4344,0,1199941594,63
i,1723545549.851727,172.16.5.2,45705,172.16.1.2,5102,5808,7240,2086,64256,65728,6,6,4,1460,288125,1,16778208,620000,41772,41772,65700,0,7240,0,1199941594,63
o,1723545549.851819,172.16.5.2,45705,172.16.1.2,5102,5808,8700,2086,65728,65728,6,6,4,1460,287187,1,16778208,590000,41772,40324,65700,0,5792,0,1199941594,63
i,1723545549.908108,172.16.5.2,45705,172.16.1.2,5102,5808,8700,2086,65728,65728,6,6,4,1460,287187,1,16778208,590000,41772,40324,65700,0,8688,0,1199941594,63
o,1723545549.908175,172.16.5.2,45705,172.16.1.2,5102,5808,8700,2086,65728,65728,6,6,4,1460,277812,1,16778208,630000,41772,38876,65700,0,7240,0,1199941594,63
i,1723545549.978861,172.16.5.2,45705,172.16.1.2,5102,5808,8700,2086,65728,65728,6,6,4,1460,277812,1,16778208,630000,41772,41772,65700,0,8688,0,1199941594,63
o,1723545549.978961,172.16.5.2,45705,172.16.1.2,5102,5808,8700,2086,64256,65728,6,6,4,1460,278125,1,16778208,600000,41772,38876,65700,0,5792,0,1199941594,63
i,1723545550.086489,172.16.5.2,45705,172.16.1.2,5102,5808,8700,2086,64256,65728,6,6,4,1460,278125,1,16778208,600000,41772,41296,65700,0,8688,0,1199941594,63
o,1723545550.086752,172.16.5.2,45705,172.16.1.2,5102,6122,8688,2082,65728,65728,6,6,4,1460,280937,1,553649120,590000,41772,39848,65700,0,7240,0,1199941594,63
i,1723545550.139199,172.16.5.2,45705,172.16.1.2,5102,6122,8688,2082,65728,65728,6,6,4,1460,280937,1,553649120,590000,41772,39848,65700,0,8688,0,1199941594,63
o,1723545550.139229,172.16.5.2,45705,172.16.1.2,5102,6122,8700,2086,64256,65728,6,6,4,1460,282187,1,553649120,570000,41772,36952,65700,0,5792,0,1199941594,63
i,1723545550.228232,172.16.5.2,45705,172.16.1.2,5102,6122,8700,2086,64256,65728,6,6,4,1460,282187,1,553649120,570000,41772,41772,65700,0,8688,0,1199941594,63
o,1723545550.228376,172.16.5.2,45705,172.16.1.2,5102,6122,8688,2086,64256,65728,6,6,4,1460,287187,1,553649120,600000,41772,38876,65700,0,5792,0,1199941594,63
o,1723545550.228585,172.16.5.2,45705,172.16.1.2,5102,6122,8688,2082,64256,65728,6,6,4,1460,287187,1,553649120,600000,41772,38876,65700,0,7240,0,1199941594,63
i,1723545550.308920,172.16.5.2,45705,172.16.1.2,5102,6122,8688,2082,64256,65728,6,6,4,1460,287187,1,553649120,600000,41772,41772,65700,0,8688,0,1199941594,63
i,1723545550.358723,172.16.5.2,45705,172.16.1.2,5102,6122,7240,2082,65728,65728,6,6,4,1460,292812,1,553649120,620000,41772,40324,65700,0,7240,0,1199941594,63
o,1723545550.358943,172.16.5.2,45705,172.16.1.2,5102,6122,7240,2082,65728,65728,6,6,4,1460,290000,1,16778208,610000,41772,38876,65700,0,5792,0,1199941594,63
i,1723545550.447402,172.16.5.2,45705,172.16.1.2,5102,6122,7240,2082,65728,65728,6,6,4,1460,290000,1,16778208,610000,41772,41772,65700,0,7240,0,1199941594,63
o,1723545550.447484,172.16.5.2,45705,172.16.1.2,5102,5024,5792,2082,64256,65728,6,6,4,1460,291250,1,553649120,590000,41772,38876,65700,0,4344,0,1199941594,63
i,1723545550.516308,172.16.5.2,45705,172.16.1.2,5102,5024,5792,2082,64256,65728,6,6,4,1460,291250,1,553649120,590000,41772,41772,65700,0,5792,0,1199941594,63
o,1723545550.516395,172.16.5.2,45705,172.16.1.2,5102,5024,7240,2086,64256,65728,6,6,4,1460,290000,1,553649120,570000,41772,38876,65700,0,2896,0,1199941594,63
o,1723545550.516523,172.16.5.2,45705,172.16.1.2,5102,5024,7240,2086,64256,65728,6,6,4,1460,290000,1,553649120,570000,41772,38876,65700,0,4344,0,1199941594,63
i,1723545550.608931,172.16.5.2,45705,172.16.1.2,5102,5024,7240,2086,64256,65728,6,6,4,1460,290000,1,553649120,570000,41772,41772,65700,0,7240,0,1199941594,63
i,1723545550.609016,172.16.5.2,45705,172.16.1.2,5102,5024,5792,2086,65728,65728,6,6,4,1460,283750,1,553649120,600000,41772,40324,65700,0,5792,0,1199941594,63
o,1723545550.609034,172.16.5.2,45705,172.16.1.2,5102,5024,5792,2082,65728,65728,6,6,4,1460,268437,1,16778208,680000,41772,38876,65700,0,4344,0,1199941594,63
i,1723545550.708045,172.16.5.2,45705,172.16.1.2,5102,5024,5792,2082,65728,65728,6,6,4,1460,268437,1,16778208,680000,41772,41772,65700,0,5792,0,1199941594,63
o,1723545550.708238,172.16.5.2,45705,172.16.1.2,5102,5024,5792,2086,64256,65728,6,6,4,1460,258750,1,16778208,690000,41772,38876,65700,0,2896,0,1199941594,63
o,1723545550.708366,172.16.5.2,45705,172.16.1.2,5102,5024,5792,2082,64256,65728,6,6,4,1460,258750,1,16778208,690000,41772,38876,65700,0,4344,0,1199941594,63
i,1723545550.768212,172.16.5.2,45705,172.16.1.2,5102,5024,5792,2082,64256,65728,6,6,4,1460,258750,1,16778208,690000,41772,41772,65700,0,5792,0,1199941594,63
o,1723545550.768331,172.16.5.2,45705,172.16.1.2,5102,5024,5792,2082,65728,65728,6,6,4,1460,257812,1,16778208,640000,41772,40324,65700,0,4344,0,1199941594,63
i,1723545550.857928,172.16.5.2,45705,172.16.1.2,5102,5024,5792,2082,65728,65728,6,6,4,1460,257812,1,16778208,640000,41772,40324,65700,0,5792,0,1199941594,63
o,1723545550.858029,172.16.5.2,45705,172.16.1.2,5102,5024,7252,2086,65728,65728,6,6,4,1460,256875,1,16778208,600000,41772,38876,65700,0,4344,0,1199941594,63
i,1723545550.879076,172.16.5.2,45705,172.16.1.2,5102,5024,7252,2086,65728,65728,6,6,4,1460,256875,1,16778208,600000,41772,41772,65700,0,7240,0,1199941594,63
o,1723545550.879164,172.16.5.2,45705,172.16.1.2,5102,5024,7252,2086,64256,65728,6,6,4,1460,246250,1,16778208,640000,41772,38876,65700,0,4344,0,1199941594,63
o,1723545550.879314,172.16.5.2,45705,172.16.1.2,5102,5024,7252,2086,64256,65728,6,6,4,1460,246250,1,16778208,640000,41772,38876,65700,0,5792,0,1199941594,63
i,1723545550.972580,172.16.5.2,45705,172.16.1.2,5102,5024,7252,2086,64256,65728,6,6,4,1460,246250,1,16778208,640000,41772,41772,65700,0,7240,0,1199941594,63
o,1723545550.972662,172.16.5.2,45705,172.16.1.2,5102,5024,7252,2086,65728,65728,6,6,4,1460,241875,1,16778208,620000,41772,40324,65700,0,5792,0,1199941594,63
i,1723545551.077534,172.16.5.2,45705,172.16.1.2,5102,5024,7252,2086,65728,65728,6,6,4,1460,241875,1,16778208,620000,41772,40324,65700,0,7240,0,1199941594,63
o,1723545551.077635,172.16.5.2,45705,172.16.1.2,5102,5024,7252,2086,64256,65728,6,6,4,1460,239375,1,16778208,590000,41772,37428,65700,0,4344,0,1199941594,63
i,1723545551.138745,172.16.5.2,45705,172.16.1.2,5102,5024,7252,2086,64256,65728,6,6,4,1460,239375,1,16778208,590000,41772,41772,65700,0,7240,0,1199941594,63
o,1723545551.138823,172.16.5.2,45705,172.16.1.2,5102,5383,7252,2086,64256,65728,6,6,4,1460,242187,1,553649120,580000,41772,38876,65700,0,4344,0,1199941594,63
o,1723545551.138901,172.16.5.2,45705,172.16.1.2,5102,5383,7252,2086,64256,65728,6,6,4,1460,242187,1,553649120,580000,41772,38876,65700,0,5792,0,1199941594,63
i,1723545551.237689,172.16.5.2,45705,172.16.1.2,5102,5383,7252,2086,64256,65728,6,6,4,1460,242187,1,553649120,580000,41772,41772,65700,0,7240,0,1199941594,63
o,1723545551.237777,172.16.5.2,45705,172.16.1.2,5102,5383,7240,2086,64256,65728,6,6,4,1460,244687,1,553649120,570000,41772,38876,65700,0,4344,0,1199941594,63
i,1723545551.301718,172.16.5.2,45705,172.16.1.2,5102,5383,7240,2086,64256,65728,6,6,4,1460,244687,1,553649120,570000,41772,41772,65700,0,7240,0,1199941594,63
i,1723545551.328828,172.16.5.2,45705,172.16.1.2,5102,5383,5792,2086,65728,65728,6,6,4,1460,241875,1,553649120,560000,41772,40324,65700,0,5792,0,1199941594,63
o,1723545551.328906,172.16.5.2,45705,172.16.1.2,5102,5383,5792,2082,65728,65728,6,6,4,1460,235625,1,16778208,570000,41772,38876,65700,0,4344,0,1199941594,63
i,1723545551.429170,172.16.5.2,45705,172.16.1.2,5102,5383,5792,2082,65728,65728,6,6,4,1460,235625,1,16778208,570000,41772,41772,65700,0,5792,0,1199941594,63
o,1723545551.429262,172.16.5.2,45705,172.16.1.2,5102,5383,5792,2086,64256,65728,6,6,4,1460,242500,1,16778208,600000,41772,38876,65700,0,2896,0,1199941594,63
i,1723545551.508360,172.16.5.2,45705,172.16.1.2,5102,5383,5792,2086,64256,65728,6,6,4,1460,242500,1,16778208,600000,41772,41772,65700,0,5792,0,1199941594,63
o,1723545551.508392,172.16.5.2,45705,172.16.1.2,5102,5383,5792,2082,65728,65728,6,6,4,1460,245937,1,16778208,590000,41772,40324,65700,0,4344,0,1199941594,63
i,1723545551.559136,172.16.5.2,45705,172.16.1.2,5102,5383,5792,2082,65728,65728,6,6,4,1460,245937,1,16778208,590000,41772,40324,65700,0,5792,0,1199941594,63
o,1723545551.559223,172.16.5.2,45705,172.16.1.2,5102,5383,7252,2086,65728,65728,6,6,4,1460,244062,1,16778208,570000,41772,38876,65700,0,4344,0,1199941594,63
o,1723545551.559670,172.16.5.2,45705,172.16.1.2,5102,5383,7252,2086,65728,65728,6,6,4,1460,244062,1,16778208,570000,41772,38876,65700,0,5792,0,1199941594,63
i,1723545551.618415,172.16.5.2,45705,172.16.1.2,5102,5383,7252,2086,65728,65728,6,6,4,1460,244062,1,16778208,570000,41772,41772,65700,0,7240,0,1199941594,63
o,1723545551.618496,172.16.5.2,45705,172.16.1.2,5102,5383,7252,2086,64256,65728,6,6,4,1460,237500,1,16778208,580000,41772,38876,65700,0,4344,0,1199941594,63
i,1723545551.708763,172.16.5.2,45705,172.16.1.2,5102,5383,7252,2086,64256,65728,6,6,4,1460,237500,1,16778208,580000,41772,41772,65700,0,7240,0,1199941594,63
o,1723545551.708838,172.16.5.2,45705,172.16.1.2,5102,5383,7252,2086,64256,65728,6,6,4,1460,232812,1,16778208,580000,41772,38876,65700,0,4344,0,1199941594,63
o,1723545551.708951,172.16.5.2,45705,172.16.1.2,5102,5383,7252,2086,64256,65728,6,6,4,1460,232812,1,16778208,580000,41772,38876,65700,0,5792,0,1199941594,63
i,1723545551.781559,172.16.5.2,45705,172.16.1.2,5102,5383,7252,2086,64256,65728,6,6,4,1460,232812,1,16778208,580000,41772,41772,65700,0,7240,0,1199941594,63
o,1723545551.781663,172.16.5.2,45705,172.16.1.2,5102,5383,7252,2086,65728,65728,6,6,4,1460,231250,1,16778208,550000,41772,40324,65700,0,5792,0,1199941594,63
i,1723545551.844574,172.16.5.2,45705,172.16.1.2,5102,5383,7252,2086,65728,65728,6,6,4,1460,231250,1,16778208,550000,41772,40324,65700,0,7240,0,1199941594,63
o,1723545551.844658,172.16.5.2,45705,172.16.1.2,5102,5383,8712,2086,65728,65728,6,6,4,1460,231250,1,16778208,520000,41772,38876,65700,0,5792,0,1199941594,63
i,1723545551.924810,172.16.5.2,45705,172.16.1.2,5102,5383,8712,2086,65728,65728,6,6,4,1460,231250,1,16778208,520000,41772,41772,65700,0,8688,0,1199941594,63
o,1723545551.924889,172.16.5.2,45705,172.16.1.2,5102,5383,8712,2086,64256,65728,6,6,4,1460,241250,1,16778208,590000,41772,38876,65700,0,5792,0,1199941594,63
o,1723545551.925071,172.16.5.2,45705,172.16.1.2,5102,5383,8712,2086,64256,65728,6,6,4,1460,241250,1,16778208,590000,41772,38876,65700,0,7240,0,1199941594,63
i,1723545552.000177,172.16.5.2,45705,172.16.1.2,5102,5383,8712,2086,64256,65728,6,6,4,1460,241250,1,16778208,590000,41772,41772,65700,0,8688,0,1199941594,63
o,1723545552.000334,172.16.5.2,45705,172.16.1.2,5102,5383,8712,2086,65728,65728,6,6,4,1460,247500,1,16778208,610000,41772,40324,65700,0,7240,0,1199941594,63
i,1723545552.061710,172.16.5.2,45705,172.16.1.2,5102,5383,8712,2086,65728,65728,6,6,4,1460,247500,1,16778208,610000,41772,40324,65700,0,8688,0,1199941594,63
o,1723545552.061791,172.16.5.2,45705,172.16.1.2,5102,5383,8712,2086,64256,65728,6,6,4,1460,251562,1,16778208,600000,41772,37428,65700,0,5792,0,1199941594,63
i,1723545552.166081,172.16.5.2,45705,172.16.1.2,5102,5383,8712,2086,64256,65728,6,6,4,1460,251562,1,16778208,600000,41772,41772,65700,0,8688,0,1199941594,63
o,1723545552.166161,172.16.5.2,45705,172.16.1.2,5102,6807,10148,2086,65728,65728,6,6,4,1460,260312,1,553649120,650000,41772,40324,65700,0,7240,0,1199941594,63
i,1723545552.188721,172.16.5.2,45705,172.16.1.2,5102,6807,10148,2086,65728,65728,6,6,4,1460,260312,1,553649120,650000,41772,40324,65700,0,10136,0,1199941594,63
i,1723545552.259001,172.16.5.2,45705,172.16.1.2,5102,6807,7240,2086,64256,65728,6,6,4,1460,259062,1,536871904,610000,41772,41772,65700,0,7240,0,1199941594,63
o,1723545552.259103,172.16.5.2,45705,172.16.1.2,5102,6807,7240,2086,64256,65728,6,6,4,1460,258125,1,553649120,580000,41772,38876,65700,0,4344,0,1199941594,63
o,1723545552.259372,172.16.5.2,45705,172.16.1.2,5102,6807,7240,2082,64256,65728,6,6,4,1460,258125,1,553649120,580000,41772,38876,65700,0,5792,0,1199941594,63
i,1723545552.288721,172.16.5.2,45705,172.16.1.2,5102,6807,7240,2082,64256,65728,6,6,4,1460,258125,1,553649120,580000,41772,41772,65700,0,7240,0,1199941594,63
o,1723545552.288808,172.16.5.2,45705,172.16.1.2,5102,6807,7240,2082,65728,65728,6,6,4,1460,253437,1,553649120,580000,41772,40324,65700,0,5792,0,1199941594,63
i,1723545552.349266,172.16.5.2,45705,172.16.1.2,5102,6807,7240,2082,65728,65728,6,6,4,1460,253437,1,553649120,580000,41772,40324,65700,0,7240,0,1199941594,63
o,1723545552.349360,172.16.5.2,45705,172.16.1.2,5102,6807,7240,2082,65728,65728,6,6,4,1460,244375,1,16778208,610000,41772,38876,65700,0,5792,0,1199941594,63
i,1723545552.389150,172.16.5.2,45705,172.16.1.2,5102,6807,7240,2082,65728,65728,6,6,4,1460,244375,1,16778208,610000,41772,41772,65700,0,7240,0,1199941594,63
o,1723545552.389288,172.16.5.2,45705,172.16.1.2,5102,6807,7240,2082,65728,65728,6,6,4,1460,240312,1,16778208,600000,41772,40324,65700,0,5792,0,1199941594,63
i,1723545552.456589,172.16.5.2,45705,172.16.1.2,5102,6807,7240,2082,65728,65728,6,6,4,1460,240312,1,16778208,600000,41772,40324,65700,0,7240,0,1199941594,63
o,1723545552.456691,172.16.5.2,45705,172.16.1.2,5102,6807,7240,2082,65728,65728,6,6,4,1460,235312,1,16778208,590000,41772,38876,65700,0,5792,0,1199941594,63
i,1723545552.479125,172.16.5.2,45705,172.16.1.2,5102,6807,7240,2082,65728,65728,6,6,4,1460,235312,1,16778208,590000,41772,41772,65700,0,7240,0,1199941594,63
o,1723545552.479157,172.16.5.2,45705,172.16.1.2,5102,6807,7240,2082,65728,65728,6,6,4,1460,233437,1,16778208,560000,41772,40324,65700,0,5792,0,1199941594,63
i,1723545552.529493,172.16.5.2,45705,172.16.1.2,5102,6807,7240,2082,65728,65728,6,6,4,1460,233437,1,16778208,560000,41772,40324,65700,0,7240,0,1199941594,63
o,1723545552.529619,172.16.5.2,45705,172.16.1.2,5102,6807,7240,2082,65728,65728,6,6,4,1460,234375,1,16778208,540000,41772,38876,65700,0,5792,0,1199941594,63
i,1723545552.578267,172.16.5.2,45705,172.16.1.2,5102,6807,7240,2082,65728,65728,6,6,4,1460,234375,1,16778208,540000,41772,41772,65700,0,7240,0,1199941594,63
o,1723545552.578867,172.16.5.2,45705,172.16.1.2,5102,6807,8700,2086,64256,65728,6,6,4,1460,232812,1,16778208,520000,41772,38876,65700,0,4344,0,1199941594,63
i,1723545552.706448,172.16.5.2,45705,172.16.1.2,5102,6807,8700,2086,64256,65728,6,6,4,1460,232812,1,16778208,520000,41772,41772,65700,0,8688,0,1199941594,63
o,1723545552.706490,172.16.5.2,45705,172.16.1.2,5102,6807,8700,2086,64256,65728,6,6,4,1460,233750,1,16778208,510000,41772,38876,65700,0,5792,0,1199941594,63
o,1723545552.706698,172.16.5.2,45705,172.16.1.2,5102,6807,8700,2086,64256,65728,6,6,4,1460,233750,1,16778208,510000,41772,38876,65700,0,7240,0,1199941594,63
i,1723545552.829612,172.16.5.2,45705,172.16.1.2,5102,6807,8700,2086,64256,65728,6,6,4,1460,233750,1,16778208,510000,41772,41772,65700,0,8688,0,1199941594,63
o,1723545552.829646,172.16.5.2,45705,172.16.1.2,5102,6807,8700,2086,65728,65728,6,6,4,1460,242187,1,16778208,560000,41772,40324,65700,0,7240,0,1199941594,63
i,1723545552.829824,172.16.5.2,45705,172.16.1.2,5102,6807,8700,2086,65728,65728,6,6,4,1460,242187,1,16778208,560000,41772,40324,65700,0,8688,0,1199941594,63
o,1723545552.829842,172.16.5.2,45705,172.16.1.2,5102,6819,8700,2086,64256,65728,6,6,4,1460,243437,1,553649120,550000,41772,37428,65700,0,5792,0,1199941594,63
i,1723545552.898447,172.16.5.2,45705,172.16.1.2,5102,6819,8700,2086,64256,65728,6,6,4,1460,243437,1,553649120,550000,41772,41772,65700,0,8688,0,1199941594,63
o,1723545552.898678,172.16.5.2,45705,172.16.1.2,5102,6819,8688,2086,64256,65728,6,6,4,1460,253125,1,553649120,610000,41772,38876,65700,0,5792,0,1199941594,63
o,1723545552.899033,172.16.5.2,45705,172.16.1.2,5102,6819,8688,2082,64256,65728,6,6,4,1460,253125,1,553649120,610000,41772,38876,65700,0,7240,0,1199941594,63
i,1723545552.958800,172.16.5.2,45705,172.16.1.2,5102,6819,8688,2082,64256,65728,6,6,4,1460,253125,1,553649120,610000,41772,41772,65700,0,8688,0,1199941594,63
i,1723545553.118304,172.16.5.2,45705,172.16.1.2,5102,6819,7240,2082,65728,65728,6,6,4,1460,252812,1,553649120,570000,41772,40324,65700,0,7240,0,1199941594,63
o,1723545553.118478,172.16.5.2,45705,172.16.1.2,5102,6819,7240,2082,65728,65728,6,6,4,1460,256250,1,553649120,570000,41772,38876,65700,0,5792,0,1199941594,63
i,1723545553.118805,172.16.5.2,45705,172.16.1.2,5102,6819,7240,2082,65728,65728,6,6,4,1460,256250,1,553649120,570000,41772,38876,65700,0,7240,0,1199941594,63
i,1723545553.128317,172.16.5.2,45705,172.16.1.2,5102,5727,5792,2146,65728,65728,6,6,4,1460,259375,1,553649120,570000,41772,40324,65700,0,5792,0,1199941594,63
o,1723545553.128392,172.16.5.2,45705,172.16.1.2,5102,5727,5792,2082,65728,65728,6,6,4,1460,263437,1,553649120,580000,41772,38876,65700,0,4344,0,1199941594,63
i,1723545553.192468,172.16.5.2,45705,172.16.1.2,5102,5727,5792,2082,65728,65728,6,6,4,1460,263437,1,553649120,580000,41772,41772,65700,0,5792,0,1199941594,63
o,1723545553.192544,172.16.5.2,45705,172.16.1.2,5102,5727,5792,2086,64256,65728,6,6,4,1460,266875,1,553649120,580000,41772,38876,65700,0,2896,0,1199941594,63
o,1723545553.192658,172.16.5.2,45705,172.16.1.2,5102,5727,5792,2082,64256,65728,6,6,4,1460,266875,1,553649120,580000,41772,38876,65700,0,4344,0,1199941594,63
i,1723545553.298958,172.16.5.2,45705,172.16.1.2,5102,5727,5792,2082,64256,65728,6,6,4,1460,266875,1,553649120,580000,41772,41772,65700,0,5792,0,1199941594,63
o,1723545553.299048,172.16.5.2,45705,172.16.1.2,5102,5727,5792,2086,64256,65728,6,6,4,1460,256250,1,16778208,630000,41772,38876,65700,0,2896,0,1199941594,63
i,1723545553.448057,172.16.5.2,45705,172.16.1.2,5102,5727,5792,2086,64256,65728,6,6,4,1460,256250,1,16778208,630000,41772,41772,65700,0,5792,0,1199941594,63
o,1723545553.449270,172.16.5.2,45705,172.16.1.2,5102,5727,5792,2086,64256,65728,6,6,4,1460,255625,1,16778208,590000,41772,38876,65700,0,2896,0,1199941594,63
o,1723545553.449409,172.16.5.2,45705,172.16.1.2,5102,5727,5792,2082,64256,65728,6,6,4,1460,255625,1,16778208,590000,41772,38876,65700,0,4344,0,1199941594,63
i,1723545553.478855,172.16.5.2,45705,172.16.1.2,5102,5727,5792,2082,64256,65728,6,6,4,1460,255625,1,16778208,590000,41772,41772,65700,0,5792,0,1199941594,63
o,1723545553.478945,172.16.5.2,45705,172.16.1.2,5102,5727,7252,2086,64256,65728,6,6,4,1460,246250,1,16778208,620000,41772,38876,65700,0,2896,0,1199941594,63
i,1723545553.688429,172.16.5.2,45705,172.16.1.2,5102,5727,7252,2086,64256,65728,6,6,4,1460,246250,1,16778208,620000,41772,41772,65700,0,7240,0,1199941594,63
o,1723545553.688536,172.16.5.2,45705,172.16.1.2,5102,5889,8688,2086,64256,65728,6,6,4,1460,245625,1,553649120,580000,41772,38876,65700,0,4344,0,1199941594,63
o,1723545553.688649,172.16.5.2,45705,172.16.1.2,5102,5889,8688,2086,64256,65728,6,6,4,1460,245625,1,553649120,580000,41772,38876,65700,0,5792,0,1199941594,63
i,1723545553.773587,172.16.5.2,45705,172.16.1.2,5102,5889,8688,2086,64256,65728,6,6,4,1460,245625,1,553649120,580000,41772,41772,65700,0,8688,0,1199941594,63
o,1723545553.773684,172.16.5.2,45705,172.16.1.2,5102,5889,8688,2086,64256,65728,6,6,4,1460,252500,1,553649120,610000,41772,38876,65700,0,5792,0,1199941594,63
i,1723545553.806029,172.16.5.2,45705,172.16.1.2,5102,5889,8688,2086,64256,65728,6,6,4,1460,252500,1,553649120,610000,41772,41772,65700,0,8688,0,1199941594,63
i,1723545553.877924,172.16.5.2,45705,172.16.1.2,5102,5889,7240,2086,65728,65728,6,6,4,1460,262187,1,553649120,650000,41772,40324,65700,0,7240,0,1199941594,63
o,1723545553.878326,172.16.5.2,45705,172.16.1.2,5102,5889,7240,2082,65728,65728,6,6,4,1460,253437,1,16778208,670000,41772,38876,65700,0,5792,0,1199941594,63
i,1723545553.926386,172.16.5.2,45705,172.16.1.2,5102,5889,7240,2082,65728,65728,6,6,4,1460,253437,1,16778208,670000,41772,41772,65700,0,7240,0,1199941594,63
o,1723545553.926684,172.16.5.2,45705,172.16.1.2,5102,5889,7240,2082,65728,65728,6,6,4,1460,250625,1,16778208,630000,41772,40324,65700,0,5792,0,1199941594,63
i,1723545554.002884,172.16.5.2,45705,172.16.1.2,5102,5889,7240,2082,65728,65728,6,6,4,1460,250625,1,16778208,630000,41772,40324,65700,0,7240,0,1199941594,63
o,1723545554.002920,172.16.5.2,45705,172.16.1.2,5102,5889,7240,2086,64256,65728,6,6,4,1460,258125,1,16778208,660000,41772,37428,65700,0,4344,0,1199941594,63
i,1723545554.086438,172.16.5.2,45705,172.16.1.2,5102,5889,7240,2086,64256,65728,6,6,4,1460,258125,1,16778208,660000,41772,41772,65700,0,7240,0,1199941594,63
o,1723545554.086975,172.16.5.2,45705,172.16.1.2,5102,5889,7240,2082,65728,65728,6,6,4,1460,264687,1,16778208,660000,41772,40324,65700,0,5792,0,1199941594,63
i,1723545554.138666,172.16.5.2,45705,172.16.1.2,5102,5889,7240,2082,65728,65728,6,6,4,1460,264687,1,16778208,660000,41772,40324,65700,0,7240,0,1199941594,63
o,1723545554.138793,172.16.5.2,45705,172.16.1.2,5102,5889,8700,2086,65728,65728,6,6,4,1460,263125,1,16778208,630000,41772,38876,65700,0,5792,0,1199941594,63
o,1723545554.138947,172.16.5.2,45705,172.16.1.2,5102,5889,8700,2086,65728,65728,6,6,4,1460,263125,1,16778208,630000,41772,38876,65700,0,7240,0,1199941594,63
i,1723545554.198908,172.16.5.2,45705,172.16.1.2,5102,5889,8700,2086,65728,65728,6,6,4,1460,263125,1,16778208,630000,41772,41772,65700,0,8688,0,1199941594,63
o,1723545554.198986,172.16.5.2,45705,172.16.1.2,5102,5889,8700,2086,64256,65728,6,6,4,1460,262812,1,16778208,590000,41772,38876,65700,0,5792,0,1199941594,63
i,1723545554.255493,172.16.5.2,45705,172.16.1.2,5102,5889,8700,2086,64256,65728,6,6,4,1460,262812,1,16778208,590000,41772,41772,65700,0,8688,0,1199941594,63
o,1723545554.255584,172.16.5.2,45705,172.16.1.2,5102,5889,8700,2086,65728,65728,6,6,4,1460,261250,1,16778208,570000,41772,40324,65700,0,7240,0,1199941594,63
i,1723545554.348774,172.16.5.2,45705,172.16.1.2,5102,5889,8700,2086,65728,65728,6,6,4,1460,261250,1,16778208,570000,41772,40324,65700,0,8688,0,1199941594,63
o,1723545554.348806,172.16.5.2,45705,172.16.1.2,5102,5889,8700,2086,65728,65728,6,6,4,1460,260000,1,16778208,550000,41772,38876,65700,0,7240,0,1199941594,63
i,1723545554.421458,172.16.5.2,45705,172.16.1.2,5102,5889,8700,2086,65728,65728,6,6,4,1460,260000,1,16778208,550000,41772,41772,65700,0,8688,0,1199941594,63
o,1723545554.421490,172.16.5.2,45705,172.16.1.2,5102,7044,8700,2086,64256,65728,6,6,4,1460,262500,1,553649120,550000,41772,38876,65700,0,5792,0,1199941594,63
o,1723545554.421609,172.16.5.2,45705,172.16.1.2,5102,7044,8700,2086,64256,65728,6,6,4,1460,262500,1,553649120,550000,41772,38876,65700,0,7240,0,1199941594,63
i,1723545554.494298,172.16.5.2,45705,172.16.1.2,5102,7044,8700,2086,64256,65728,6,6,4,1460,262500,1,553649120,550000,41772,41772,65700,0,8688,0,1199941594,63
o,1723545554.494411,172.16.5.2,45705,172.16.1.2,5102,7044,8688,2086,64256,65728,6,6,4,1460,267187,1,553649120,570000,41772,38876,65700,0,5792,0,1199941594,63
i,1723545554.582028,172.16.5.2,45705,172.16.1.2,5102,7044,8688,2086,64256,65728,6,6,4,1460,267187,1,553649120,570000,41772,41772,65700,0,8688,0,1199941594,63
i,1723545554.650207,172.16.5.2,45705,172.16.1.2,5102,7044,7240,2086,65728,65728,6,6,4,1460,274062,1,553649120,600000,41772,40324,65700,0,7240,0,1199941594,63
o,1723545554.650440,172.16.5.2,45705,172.16.1.2,5102,7044,7240,2082,65728,65728,6,6,4,1460,277500,1,553649120,600000,41772,38876,65700,0,5792,0,1199941594,63
i,1723545554.688830,172.16.5.2,45705,172.16.1.2,5102,7044,7240,2082,65728,65728,6,6,4,1460,277500,1,553649120,600000,41772,41772,65700,0,7240,0,1199941594,63
o,1723545554.688921,172.16.5.2,45705,172.16.1.2,5102,7044,7240,2082,65728,65728,6,6,4,1460,276562,1,16778208,580000,41772,40324,65700,0,5792,0,1199941594,63
i,1723545554.764554,172.16.5.2,45705,172.16.1.2,5102,7044,7240,2082,65728,65728,6,6,4,1460,276562,1,16778208,580000,41772,40324,65700,0,7240,0,1199941594,63
o,1723545554.764666,172.16.5.2,45705,172.16.1.2,5102,5901,8688,2086,64256,65728,6,6,4,1460,285937,1,553649120,640000,41772,37428,65700,0,4344,0,1199941594,63
i,1723545554.796071,172.16.5.2,45705,172.16.1.2,5102,5901,8688,2086,64256,65728,6,6,4,1460,285937,1,553649120,640000,41772,41772,65700,0,8688,0,1199941594,63
i,1723545554.829427,172.16.5.2,45705,172.16.1.2,5102,5901,7240,2086,65728,65728,6,6,4,1460,287812,1,553649120,620000,41772,40324,65700,0,7240,0,1199941594,63
o,1723545554.829658,172.16.5.2,45705,172.16.1.2,5102,5901,7240,2082,65728,65728,6,6,4,1460,273125,1,553649120,690000,41772,38876,65700,0,5792,0,1199941594,63
i,1723545554.879679,172.16.5.2,45705,172.16.1.2,5102,5901,7240,2082,65728,65728,6,6,4,1460,273125,1,553649120,690000,41772,41772,65700,0,7240,0,1199941594,63
o,1723545554.879710,172.16.5.2,45705,172.16.1.2,5102,5901,7240,2082,65728,65728,6,6,4,1460,262812,1,553649120,710000,41772,40324,65700,0,5792,0,1199941594,63
i,1723545554.941211,172.16.5.2,45705,172.16.1.2,5102,5901,7240,2082,65728,65728,6,6,4,1460,262812,1,553649120,710000,41772,40324,65700,0,7240,0,1199941594,63
o,1723545554.941297,172.16.5.2,45705,172.16.1.2,5102,5901,7240,2082,65728,65728,6,6,4,1460,251250,1,16778208,730000,41772,38876,65700,0,5792,0,1199941594,63
i,1723545554.968037,172.16.5.2,45705,172.16.1.2,5102,5901,7240,2082,65728,65728,6,6,4,1460,251250,1,16778208,730000,41772,41772,65700,0,7240,0,1199941594,63
o,1723545554.968057,172.16.5.2,45705,172.16.1.2,5102,5901,7240,2082,65728,65728,6,6,4,1460,245000,1,16778208,700000,41772,40324,65700,0,5792,0,1199941594,63
i,1723545555.024810,172.16.5.2,45705,172.16.1.2,5102,5901,7240,2082,65728,65728,6,6,4,1460,245000,1,16778208,700000,41772,40324,65700,0,7240,0,1199941594,63
o,1723545555.024901,172.16.5.2,45705,172.16.1.2,5102,5901,7240,2082,65728,65728,6,6,4,1460,246875,1,16778208,650000,41772,38876,65700,0,5792,0,1199941594,63
i,1723545555.098324,172.16.5.2,45705,172.16.1.2,5102,5901,7240,2082,65728,65728,6,6,4,1460,246875,1,16778208,650000,41772,41772,65700,0,7240,0,1199941594,63
o,1723545555.098512,172.16.5.2,45705,172.16.1.2,5102,5901,7240,2082,65728,65728,6,6,4,1460,250000,1,16778208,630000,41772,40324,65700,0,5792,0,1199941594,63
i,1723545555.149409,172.16.5.2,45705,172.16.1.2,5102,5901,7240,2082,65728,65728,6,6,4,1460,250000,1,16778208,630000,41772,40324,65700,0,7240,0,1199941594,63
o,1723545555.149486,172.16.5.2,45705,172.16.1.2,5102,5901,7240,2082,65728,65728,6,6,4,1460,251250,1,16778208,590000,41772,38876,65700,0,5792,0,1199941594,63
i,1723545555.189657,172.16.5.2,45705,172.16.1.2,5102,5901,7240,2082,65728,65728,6,6,4,1460,251250,1,16778208,590000,41772,41772,65700,0,7240,0,1199941594,63
o,1723545555.189750,172.16.5.2,45705,172.16.1.2,5102,5901,8700,2086,65728,65728,6,6,4,1460,251250,1,16778208,560000,41772,40324,65700,0,5792,0,1199941594,63
i,1723545555.238284,172.16.5.2,45705,172.16.1.2,5102,5901,8700,2086,65728,65728,6,6,4,1460,251250,1,16778208,560000,41772,40324,65700,0,8688,0,1199941594,63
o,1723545555.238408,172.16.5.2,45705,172.16.1.2,5102,5901,8700,2086,65728,65728,6,6,4,1460,253750,1,16778208,550000,41772,38876,65700,0,7240,0,1199941594,63
i,1723545555.279394,172.16.5.2,45705,172.16.1.2,5102,5901,8700,2086,65728,65728,6,6,4,1460,253750,1,16778208,550000,41772,41772,65700,0,8688,0,1199941594,63
o,1723545555.279494,172.16.5.2,45705,172.16.1.2,5102,5901,8700,2086,65728,65728,6,6,4,1460,253437,1,16778208,530000,41772,40324,65700,0,7240,0,1199941594,63
i,1723545555.339343,172.16.5.2,45705,172.16.1.2,5102,5901,8700,2086,65728,65728,6,6,4,1460,253437,1,16778208,530000,41772,40324,65700,0,8688,0,1199941594,63
o,1723545555.339429,172.16.5.2,45705,172.16.1.2,5102,5901,8700,2086,65728,65728,6,6,4,1460,250625,1,16778208,530000,41772,38876,65700,0,7240,0,1199941594,63
i,1723545555.429141,172.16.5.2,45705,172.16.1.2,5102,5901,8700,2086,65728,65728,6,6,4,1460,250625,1,16778208,530000,41772,41772,65700,0,8688,0,1199941594,63
o,1723545555.429249,172.16.5.2,45705,172.16.1.2,5102,5901,8700,2086,65728,65728,6,6,4,1460,254375,1,16778208,540000,41772,40324,65700,0,7240,0,1199941594,63
i,1723545555.461740,172.16.5.2,45705,172.16.1.2,5102,5901,8700,2086,65728,65728,6,6,4,1460,254375,1,16778208,540000,41772,40324,65700,0,8688,0,1199941594,63
o,1723545555.461849,172.16.5.2,45705,172.16.1.2,5102,5901,8700,2086,65728,65728,6,6,4,1460,256562,1,16778208,540000,41772,38876,65700,0,7240,0,1199941594,63
i,1723545555.503017,172.16.5.2,45705,172.16.1.2,5102,5901,8700,2086,65728,65728,6,6,4,1460,256562,1,16778208,540000,41772,41772,65700,0,8688,0,1199941594,63
o,1723545555.503270,172.16.5.2,45705,172.16.1.2,5102,7269,10136,2086,64256,65728,6,6,4,1460,263437,1,553649120,580000,41772,38876,65700,0,5792,0,1199941594,63
i,1723545555.550959,172.16.5.2,45705,172.16.1.2,5102,7269,10136,2086,64256,65728,6,6,4,1460,263437,1,553649120,580000,41772,41772,65700,0,10136,0,1199941594,63
i,1723545555.607108,172.16.5.2,45705,172.16.1.2,5102,7269,8688,2086,65728,65728,6,6,4,1460,264375,1,553649120,560000,41772,40324,65700,0,8688,0,1199941594,63
o,1723545555.607196,172.16.5.2,45705,172.16.1.2,5102,7269,8688,2082,65728,65728,6,6,4,1460,265312,1,553649120,540000,41772,38876,65700,0,7240,0,1199941594,63
i,1723545555.658398,172.16.5.2,45705,172.16.1.2,5102,7269,8688,2082,65728,65728,6,6,4,1460,265312,1,553649120,540000,41772,41772,65700,0,8688,0,1199941594,63
o,1723545555.658477,172.16.5.2,45705,172.16.1.2,5102,7269,8688,2082,65728,65728,6,6,4,1460,260937,1,553649120,550000,41772,40324,65700,0,7240,0,1199941594,63
i,1723545555.749269,172.16.5.2,45705,172.16.1.2,5102,7269,8688,2082,65728,65728,6,6,4,1460,260937,1,553649120,550000,41772,40324,65700,0,8688,0,1199941594,63
o,1723545555.749439,172.16.5.2,45705,172.16.1.2,5102,7269,8688,2086,64256,65728,6,6,4,1460,264687,1,16778208,560000,41772,37428,65700,0,5792,0,1199941594,63
i,1723545555.749945,172.16.5.2,45705,172.16.1.2,5102,7269,8688,2086,64256,65728,6,6,4,1460,264687,1,16778208,560000,41772,37428,65700,0,8688,0,1199941594,63
o,1723545555.750054,172.16.5.2,45705,172.16.1.2,5102,7269,8688,2082,65728,65728,6,6,4,1460,261875,1,16778208,560000,41772,35980,65700,0,7240,0,1199941594,63
i,1723545555.798466,172.16.5.2,45705,172.16.1.2,5102,7269,8688,2082,65728,65728,6,6,4,1460,261875,1,16778208,560000,41772,41772,65700,0,8688,0,1199941594,63
o,1723545555.798501,172.16.5.2,45705,172.16.1.2,5102,7269,8688,2082,65728,65728,6,6,4,1460,265625,1,16778208,570000,41772,40324,65700,0,7240,0,1199941594,63
i,1723545555.898310,172.16.5.2,45705,172.16.1.2,5102,7269,8688,2082,65728,65728,6,6,4,1460,265625,1,16778208,570000,41772,40324,65700,0,8688,0,1199941594,63
o,1723545555.898365,172.16.5.2,45705,172.16.1.2,5102,7269,8688,2082,65728,65728,6,6,4,1460,268750,1,16778208,570000,41772,38876,65700,0,7240,0,1199941594,63
i,1723545556.008319,172.16.5.2,45705,172.16.1.2,5102,7269,8688,2082,65728,65728,6,6,4,1460,268750,1,16778208,570000,41772,41772,65700,0,8688,0,1199941594,63
o,1723545556.008357,172.16.5.2,45705,172.16.1.2,5102,7250,8688,2082,65728,65728,6,6,4,1460,279062,1,553649120,640000,41772,40324,65700,0,7240,0,1199941594,63
i,1723545556.065301,172.16.5.2,45705,172.16.1.2,5102,7250,8688,2082,65728,65728,6,6,4,1460,279062,1,553649120,640000,41772,40324,65700,0,8688,0,1199941594,63
o,1723545556.065345,172.16.5.2,45705,172.16.1.2,5102,7250,10136,2086,64256,65728,6,6,4,1460,284375,1,553649120,650000,41772,37428,65700,0,5792,0,1199941594,63
i,1723545556.108369,172.16.5.2,45705,172.16.1.2,5102,7250,10136,2086,64256,65728,6,6,4,1460,284375,1,553649120,650000,41772,41772,65700,0,10136,0,1199941594,63
i,1723545556.127831,172.16.5.2,45705,172.16.1.2,5102,7250,8688,2086,65728,65728,6,6,4,1460,294062,1,553649120,690000,41772,40324,65700,0,8688,0,1199941594,63
o,1723545556.127901,172.16.5.2,45705,172.16.1.2,5102,7250,8688,2082,65728,65728,6,6,4,1460,297500,1,553649120,680000,41772,38876,65700,0,7240,0,1199941594,63
i,1723545556.179896,172.16.5.2,45705,172.16.1.2,5102,7250,8688,2082,65728,65728,6,6,4,1460,297500,1,553649120,680000,41772,41772,65700,0,8688,0,1199941594,63
o,1723545556.180008,172.16.5.2,45705,172.16.1.2,5102,7250,8688,2082,65728,65728,6,6,4,1460,295312,1,553649120,650000,41772,40324,65700,0,7240,0,1199941594,63
i,1723545556.239116,172.16.5.2,45705,172.16.1.2,5102,7250,8688,2082,65728,65728,6,6,4,1460,295312,1,553649120,650000,41772,40324,65700,0,8688,0,1199941594,63
o,1723545556.239203,172.16.5.2,45705,172.16.1.2,5102,7250,8688,2082,65728,65728,6,6,4,1460,285937,1,16778208,670000,41772,38876,65700,0,7240,0,1199941594,63
i,1723545556.293897,172.16.5.2,45705,172.16.1.2,5102,7250,8688,2082,65728,65728,6,6,4,1460,285937,1,16778208,670000,41772,41772,65700,0,8688,0,1199941594,63
o,1723545556.294080,172.16.5.2,45705,172.16.1.2,5102,7089,7240,2082,64256,65728,6,6,4,1460,277812,1,553649120,680000,41772,38876,65700,0,5792,0,1199941594,63
