enable_time_secs=1723548973	enable_time_usecs=098273	siftrver=1.3.0	sysname=FreeBSD	sysver=1401000	ipmode=4
o,1723548973.098617,10.0.2.15,22,10.0.2.2,52282,1073725440,17746,1026,65535,65700,0,0,4,1460,312,0,16777220,240000,33580,172,65700,0,0,0,3819904873,63
o,1723548973.098784,10.0.2.15,22,10.0.2.2,52282,1073725440,17746,1026,65535,65700,0,0,4,1460,312,0,16777220,240000,33580,244,65700,0,172,0,3819904873,63
i,1723548973.100066,10.0.2.15,22,10.0.2.2,52282,1073725440,17746,1026,65535,65700,0,0,4,1460,312,0,16777220,240000,33580,244,65700,0,244,0,3819904873,63
i,1723548973.100088,10.0.2.15,22,10.0.2.2,52282,1073725440,17918,1026,65535,65700,0,0,4,1460,312,0,4,240000,33580,72,65700,0,72,0,3819904873,63
i,1723548973.100102,10.0.2.15,22,10.0.2.2,52282,1073725440,17990,1026,65535,65700,0,0,4,1460,312,0,4,240000,33580,0,65700,0,0,0,3819904873,63
i,1723548973.100175,10.0.2.15,22,10.0.2.2,52282,1073725440,17990,1026,65535,65700,0,0,4,1460,312,0,4,240000,33580,0,65700,96,0,0,3819904873,63
o,1723548973.100192,10.0.2.15,22,10.0.2.2,52282,1073725440,17990,1026,65535,65604,0,0,5,1460,312,0,5,240000,33580,0,65700,96,0,0,3819904873,63
o,1723548973.101444,10.0.2.15,22,10.0.2.2,52282,1073725440,17990,1026,65535,65604,0,0,8,1460,312,0,4,240000,33580,0,65700,0,0,0,3819904873,63
i,1723548973.102796,10.0.2.15,22,10.0.2.2,52282,1073725440,17990,1026,65535,65604,0,0,8,1460,312,0,67108884,240000,33580,0,65700,0,1,0,3819904873,63
i,1723548976.343189,10.0.2.15,22,10.0.2.2,52246,1073725440,14600,0,65535,65700,0,0,4,1460,312,0,16777216,260000,33580,0,65700,0,0,0,1794103386,63
o,1723548976.354623,10.0.2.15,22,10.0.2.2,52246,1073725440,14600,1026,65535,65700,0,0,4,1460,312,0,16777216,260000,33580,38,65700,42,0,0,1794103386,63
i,1723548976.355557,10.0.2.15,22,10.0.2.2,52246,1073725440,14600,1026,65535,65700,0,0,4,1460,312,0,16777216,260000,33580,38,65700,0,38,0,1794103386,63
i,1723548976.355575,10.0.2.15,22,10.0.2.2,52246,1073725440,14638,1026,65535,65700,0,0,4,1460,312,0,0,230000,33580,0,65700,0,0,0,1794103386,63
i,1723548976.355589,10.0.2.15,22,10.0.2.2,52246,1073725440,14638,1026,65535,65700,0,0,4,1460,312,0,0,230000,33580,0,65700,1460,0,0,1794103386,63
o,1723548976.355607,10.0.2.15,22,10.0.2.2,52246,1073725440,14638,1026,65535,65700,0,0,4,1460,312,0,1,230000,33580,0,65700,1536,0,0,1794103386,63
o,1723548976.357029,10.0.2.15,22,10.0.2.2,52246,1073725440,14638,1026,65535,65700,0,0,4,1460,312,0,16777216,230000,33580,1120,65700,1536,0,0,1794103386,63
i,1723548976.357983,10.0.2.15,22,10.0.2.2,52246,1073725440,14638,1026,65535,65700,0,0,4,1460,312,0,16777216,230000,33580,1120,65700,0,1120,0,1794103386,63
i,1723548976.359185,10.0.2.15,22,10.0.2.2,52246,1073725440,15758,1026,65535,65700,0,0,4,1460,312,0,0,230000,33580,0,65700,0,0,0,1794103386,63
o,1723548976.362690,10.0.2.15,22,10.0.2.2,52246,1073725440,15758,1026,65535,65700,0,0,4,1460,312,0,16777216,230000,33580,492,65700,0,0,0,1794103386,63
i,1723548976.366205,10.0.2.15,22,10.0.2.2,52246,1073725440,15758,1026,65535,65700,0,0,4,1460,312,0,16777216,230000,33580,492,65700,0,492,0,1794103386,63
i,1723548976.367684,10.0.2.15,22,10.0.2.2,52246,1073725440,16250,1026,65535,65700,0,0,4,1460,312,0,0,240000,33580,0,65700,0,0,0,1794103386,63
i,1723548976.367704,10.0.2.15,22,10.0.2.2,52246,1073725440,16250,1026,65535,65700,0,0,4,1460,312,0,0,240000,33580,0,65700,16,0,0,1794103386,63
o,1723548976.367735,10.0.2.15,22,10.0.2.2,52246,1073725440,16250,1026,65535,65700,0,0,4,1460,312,0,1,240000,33580,0,65700,60,0,0,1794103386,63
o,1723548976.367945,10.0.2.15,22,10.0.2.2,52246,1073725440,16250,1026,65535,65700,0,0,4,1460,312,0,16777216,240000,33580,44,65700,0,0,0,1794103386,63
i,1723548976.368428,10.0.2.15,22,10.0.2.2,52246,1073725440,16250,1026,65535,65700,0,0,4,1460,312,0,16777216,240000,33580,44,65700,0,44,0,1794103386,63
i,1723548976.368445,10.0.2.15,22,10.0.2.2,52246,1073725440,16294,1026,65535,65700,0,0,4,1460,312,0,0,240000,33580,0,65700,0,0,0,1794103386,63
o,1723548976.369601,10.0.2.15,22,10.0.2.2,52246,1073725440,16294,1026,65535,65700,0,0,4,1460,312,0,16777216,240000,33580,68,65700,0,0,0,1794103386,63
i,1723548976.370053,10.0.2.15,22,10.0.2.2,52246,1073725440,16294,1026,65535,65700,0,0,4,1460,312,0,16777216,240000,33580,68,65700,0,68,0,1794103386,63
i,1723548976.372214,10.0.2.15,22,10.0.2.2,52246,1073725440,16362,1026,65535,65700,0,0,4,1460,312,0,0,240000,33580,0,65700,0,0,0,1794103386,63
o,1723548976.372921,10.0.2.15,22,10.0.2.2,52246,1073725440,16362,1026,65535,65700,0,0,4,1460,312,0,16777216,240000,33580,332,65700,0,0,0,1794103386,63
i,1723548976.373299,10.0.2.15,22,10.0.2.2,52246,1073725440,16362,1026,65535,65700,0,0,4,1460,312,0,16777216,240000,33580,332,65700,0,332,0,1794103386,63
i,1723548976.375782,10.0.2.15,22,10.0.2.2,52246,1073725440,16694,1026,65535,65700,0,0,4,1460,312,0,0,240000,33580,0,65700,0,0,0,1794103386,63
o,1723548976.392764,10.0.2.15,22,10.0.2.2,52246,1073725440,16694,1026,65535,65700,0,0,4,1460,312,0,16777216,240000,33580,28,65700,0,0,0,1794103386,63
i,1723548976.393651,10.0.2.15,22,10.0.2.2,52246,1073725440,16694,1026,65535,65700,0,0,4,1460,312,0,16777216,240000,33580,28,65700,0,28,0,1794103386,63
i,1723548976.394081,10.0.2.15,22,10.0.2.2,52246,1073725440,16722,1026,65535,65700,0,0,4,1460,312,0,0,240000,33580,0,65700,0,0,0,1794103386,63
o,1723548976.396136,10.0.2.15,22,10.0.2.2,52246,1073725440,16722,1026,65535,65700,0,0,4,1460,312,0,16777216,240000,33580,768,65700,112,0,0,1794103386,63
i,1723548976.396797,10.0.2.15,22,10.0.2.2,52246,1073725440,16722,1026,65535,65700,0,0,4,1460,312,0,16777216,240000,33580,952,65700,0,768,0,1794103386,63
o,1723548976.396815,10.0.2.15,22,10.0.2.2,52246,1073725440,17490,1026,65535,65700,0,0,4,1460,312,0,16777216,240000,33580,184,65700,0,0,0,1794103386,63
i,1723548976.397205,10.0.2.15,22,10.0.2.2,52246,1073725440,17490,1026,65535,65700,0,0,4,1460,312,0,16777216,240000,33580,184,65700,0,184,0,1794103386,63
i,1723548976.397994,10.0.2.15,22,10.0.2.2,52246,1073725440,17674,1026,65535,65700,0,0,4,1460,312,0,0,240000,33580,0,65700,0,0,0,1794103386,63
o,1723548976.398553,10.0.2.15,22,10.0.2.2,52246,1073725440,17674,1026,65535,65700,0,0,4,1460,312,0,16777220,240000,33580,72,65700,0,0,0,1794103386,63
i,1723548976.399070,10.0.2.15,22,10.0.2.2,52246,1073725440,17674,1026,65535,65700,0,0,4,1460,312,0,16777220,240000,33580,72,65700,0,72,0,1794103386,63
o,1723548976.401561,10.0.2.15,22,10.0.2.2,52246,1073725440,17746,1026,65535,65700,0,0,4,1460,312,0,16777220,240000,33580,104,65700,0,0,0,1794103386,63
i,1723548976.402476,10.0.2.15,22,10.0.2.2,52246,1073725440,17746,1026,65535,65700,0,0,4,1460,312,0,16777220,240000,33580,104,65700,0,104,0,1794103386,63
o,1723548976.419022,10.0.2.15,22,10.0.2.2,52246,1073725440,17850,1026,65535,65700,0,0,4,1460,312,0,16777220,240000,33580,72,65700,0,0,0,1794103386,63
i,1723548976.419833,10.0.2.15,22,10.0.2.2,52246,1073725440,17850,1026,65535,65700,0,0,4,1460,312,0,16777220,240000,33580,72,65700,0,72,0,1794103386,63
i,1723548976.419854,10.0.2.15,22,10.0.2.2,52246,1073725440,17922,1026,65535,65700,0,0,4,1460,312,0,4,240000,33580,0,65700,0,0,0,1794103386,63
i,1723548976.419871,10.0.2.15,22,10.0.2.2,52246,1073725440,17922,1026,65535,65700,0,0,4,1460,312,0,4,240000,33580,0,65700,96,0,0,1794103386,63
o,1723548976.419888,10.0.2.15,22,10.0.2.2,52246,1073725440,17922,1026,65535,65604,0,0,5,1460,312,0,5,240000,33580,0,65700,96,0,0,1794103386,63
o,1723548976.430075,10.0.2.15,22,10.0.2.2,52246,1073725440,17922,1026,65535,65604,0,0,8,1460,312,0,4,240000,33580,0,65700,0,0,0,1794103386,63
i,1723548976.430564,10.0.2.15,22,10.0.2.2,52246,1073725440,17922,1026,65535,65604,0,0,8,1460,312,0,67108884,240000,33580,0,65700,0,1,0,1794103386,63
i,1723548977.504871,10.0.2.15,22,10.0.2.2,52254,1073725440,14600,0,65535,65700,0,0,4,1460,312,0,16777216,270000,33580,0,65700,0,0,0,3201687713,63
o,1723548977.519255,10.0.2.15,22,10.0.2.2,52254,1073725440,14600,1026,65535,65700,0,0,4,1460,312,0,16777216,270000,33580,38,65700,42,0,0,3201687713,63
i,1723548977.520236,10.0.2.15,22,10.0.2.2,52254,1073725440,14600,1026,65535,65700,0,0,4,1460,312,0,16777216,270000,33580,38,65700,0,38,0,3201687713,63
i,1723548977.520270,10.0.2.15,22,10.0.2.2,52254,1073725440,14638,1026,65535,65700,0,0,4,1460,312,0,0,230000,33580,0,65700,0,0,0,3201687713,63
i,1723548977.520287,10.0.2.15,22,10.0.2.2,52254,1073725440,14638,1026,65535,65700,0,0,4,1460,312,0,0,230000,33580,0,65700,1460,0,0,3201687713,63
o,1723548977.520308,10.0.2.15,22,10.0.2.2,52254,1073725440,14638,1026,65535,65700,0,0,4,1460,312,0,1,230000,33580,0,65700,1536,0,0,3201687713,63
o,1723548977.521834,10.0.2.15,22,10.0.2.2,52254,1073725440,14638,1026,65535,65700,0,0,4,1460,312,0,16777216,230000,33580,1120,65700,1536,0,0,3201687713,63
i,1723548977.523001,10.0.2.15,22,10.0.2.2,52254,1073725440,14638,1026,65535,65700,0,0,4,1460,312,0,16777216,230000,33580,1120,65700,0,1120,0,3201687713,63
i,1723548977.524689,10.0.2.15,22,10.0.2.2,52254,1073725440,15758,1026,65535,65700,0,0,4,1460,312,0,0,240000,33580,0,65700,0,0,0,3201687713,63
o,1723548977.527799,10.0.2.15,22,10.0.2.2,52254,1073725440,15758,1026,65535,65700,0,0,4,1460,312,0,16777216,240000,33580,492,65700,0,0,0,3201687713,63
i,1723548977.528492,10.0.2.15,22,10.0.2.2,52254,1073725440,15758,1026,65535,65700,0,0,4,1460,312,0,16777216,240000,33580,492,65700,0,492,0,3201687713,63
i,1723548977.532908,10.0.2.15,22,10.0.2.2,52254,1073725440,16250,1026,65535,65700,0,0,4,1460,312,0,0,240000,33580,0,65700,0,0,0,3201687713,63
i,1723548977.532949,10.0.2.15,22,10.0.2.2,52254,1073725440,16250,1026,65535,65700,0,0,4,1460,312,0,0,240000,33580,0,65700,16,0,0,3201687713,63
o,1723548977.532968,10.0.2.15,22,10.0.2.2,52254,1073725440,16250,1026,65535,65700,0,0,4,1460,312,0,1,240000,33580,0,65700,60,0,0,3201687713,63
o,1723548977.533421,10.0.2.15,22,10.0.2.2,52254,1073725440,16250,1026,65535,65700,0,0,4,1460,312,0,16777216,240000,33580,44,65700,0,0,0,3201687713,63
i,1723548977.533946,10.0.2.15,22,10.0.2.2,52254,1073725440,16250,1026,65535,65700,0,0,4,1460,312,0,16777216,240000,33580,44,65700,0,44,0,3201687713,63
i,1723548977.534473,10.0.2.15,22,10.0.2.2,52254,1073725440,16294,1026,65535,65700,0,0,4,1460,312,0,0,240000,33580,0,65700,0,0,0,3201687713,63
o,1723548977.536181,10.0.2.15,22,10.0.2.2,52254,1073725440,16294,1026,65535,65700,0,0,4,1460,312,0,16777216,240000,33580,68,65700,0,0,0,3201687713,63
i,1723548977.537031,10.0.2.15,22,10.0.2.2,52254,1073725440,16294,1026,65535,65700,0,0,4,1460,312,0,16777216,240000,33580,68,65700,0,68,0,3201687713,63
i,1723548977.537074,10.0.2.15,22,10.0.2.2,52254,1073725440,16362,1026,65535,65700,0,0,4,1460,312,0,0,240000,33580,0,65700,0,0,0,3201687713,63
o,1723548977.539115,10.0.2.15,22,10.0.2.2,52254,1073725440,16362,1026,65535,65700,0,0,4,1460,312,0,16777216,240000,33580,332,65700,0,0,0,3201687713,63
i,1723548977.540238,10.0.2.15,22,10.0.2.2,52254,1073725440,16362,1026,65535,65700,0,0,4,1460,312,0,16777216,240000,33580,332,65700,0,332,0,3201687713,63
i,1723548977.541336,10.0.2.15,22,10.0.2.2,52254,1073725440,16694,1026,65535,65700,0,0,4,1460,312,0,0,240000,33580,0,65700,0,0,0,3201687713,63
o,1723548977.558621,10.0.2.15,22,10.0.2.2,52254,1073725440,16694,1026,65535,65700,0,0,4,1460,312,0,16777216,240000,33580,28,65700,0,0,0,3201687713,63
i,1723548977.559300,10.0.2.15,22,10.0.2.2,52254,1073725440,16694,1026,65535,65700,0,0,4,1460,312,0,16777216,240000,33580,28,65700,0,28,0,3201687713,63
i,1723548977.559318,10.0.2.15,22,10.0.2.2,52254,1073725440,16722,1026,65535,65700,0,0,4,1460,312,0,0,240000,33580,0,65700,0,0,0,3201687713,63
o,1723548977.561451,10.0.2.15,22,10.0.2.2,52254,1073725440,16722,1026,65535,65700,0,0,4,1460,312,0,16777216,240000,33580,768,65700,112,0,0,3201687713,63
i,1723548977.562562,10.0.2.15,22,10.0.2.2,52254,1073725440,16722,1026,65535,65700,0,0,4,1460,312,0,16777216,240000,33580,908,65700,112,768,0,3201687713,63
o,1723548977.562581,10.0.2.15,22,10.0.2.2,52254,1073725440,17490,1026,65535,65700,0,0,4,1460,312,0,16777216,240000,33580,140,65700,112,0,0,3201687713,63
i,1723548977.563055,10.0.2.15,22,10.0.2.2,52254,1073725440,17490,1026,65535,65700,0,0,4,1460,312,0,16777216,240000,33580,140,65700,112,140,0,3201687713,63
o,1723548977.563247,10.0.2.15,22,10.0.2.2,52254,1073725440,17630,1026,65535,65700,0,0,4,1460,312,0,16777216,240000,33580,44,65700,0,0,0,3201687713,63
i,1723548977.563784,10.0.2.15,22,10.0.2.2,52254,1073725440,17630,1026,65535,65700,0,0,4,1460,312,0,16777216,240000,33580,44,65700,0,44,0,3201687713,63
i,1723548977.563800,10.0.2.15,22,10.0.2.2,52254,1073725440,17674,1026,65535,65700,0,0,4,1460,312,0,0,240000,33580,0,65700,0,0,0,3201687713,63
o,1723548977.564550,10.0.2.15,22,10.0.2.2,52254,1073725440,17674,1026,65535,65700,0,0,4,1460,312,0,16777220,240000,33580,72,65700,0,0,0,3201687713,63
i,1723548977.565004,10.0.2.15,22,10.0.2.2,52254,1073725440,17674,1026,65535,65700,0,0,4,1460,312,0,16777220,240000,33580,72,65700,0,72,0,3201687713,63
o,1723548977.690377,172.16.5.2,53541,172.16.1.2,5102,9000,14480,2082,65535,65700,6,6,4,1460,203125,1,16778209,670000,33580,0,65700,0,0,0,1204362407,63
o,1723548977.690819,172.16.5.2,53541,172.16.1.2,5102,9000,14480,2082,65535,65700,6,6,4,1460,203125,1,16778212,670000,33580,37,65700,0,0,0,1204362407,63
i,1723548977.812981,172.16.5.2,53541,172.16.1.2,5102,9000,14480,2082,65535,65700,6,6,4,1460,203125,1,16778212,670000,33580,37,65700,0,37,0,1204362407,63
o,1723548977.813320,172.16.5.2,53541,172.16.1.2,5102,9000,14480,3106,65728,65728,6,6,4,1460,192812,1,16778212,670000,33580,4,65700,0,0,0,1204362407,63
o,1723548977.813864,172.16.5.2,53541,172.16.1.2,5102,9000,14480,3106,65728,65728,6,6,4,1460,192812,1,16778212,670000,33580,130,65700,0,4,0,1204362407,63
i,1723548977.932587,172.16.5.2,53541,172.16.1.2,5102,9000,14480,3106,65728,65728,6,6,4,1460,192812,1,16778212,670000,33580,130,65700,0,130,0,1204362407,63
i,1723548977.932642,172.16.5.2,53541,172.16.1.2,5102,9000,14480,3106,65600,65728,6,6,4,1460,183750,1,996,670000,33580,0,65700,0,0,0,1204362407,63
o,1723548977.972960,172.16.5.2,53541,172.16.1.2,5102,9000,14480,3106,65728,65728,6,6,4,1460,183750,1,997,670000,33580,0,65700,0,0,0,1204362407,63
o,1723548978.042385,172.16.5.2,46822,172.16.1.2,5102,9000,14480,2082,65535,65700,6,6,4,1460,200625,1,16778209,680000,33580,0,65700,0,0,0,4103733900,63
o,1723548978.042385,172.16.5.2,46822,172.16.1.2,5102,9000,14480,2082,65535,65700,6,6,4,1460,200625,1,16778208,680000,33580,37,65700,0,0,0,4103733900,63
i,1723548978.145784,172.16.5.2,53541,172.16.1.2,5102,9000,14480,3106,65728,65728,6,6,4,1460,183750,1,996,670000,33580,0,65700,0,0,0,1204362407,63
i,1723548978.146344,172.16.5.2,53541,172.16.1.2,5102,9000,14480,3106,65728,65728,6,6,4,1460,183750,1,996,670000,33580,0,65700,1,0,0,1204362407,63
o,1723548978.146577,172.16.5.2,53541,172.16.1.2,5102,9000,14480,3106,65728,65728,6,6,4,1460,183750,1,997,670000,33580,0,65700,2,0,0,1204362407,63
o,1723548978.148961,172.16.5.2,46822,172.16.1.2,5102,9000,14480,2086,65535,65700,6,6,4,1460,200625,1,16778208,680000,33580,33580,65700,0,37,0,4103733900,63
i,1723548978.178234,172.16.5.2,46822,172.16.1.2,5102,9000,14480,2086,65535,65700,6,6,4,1460,200625,1,16778208,680000,33580,33580,65700,0,13069,0,4103733900,63
o,1723548978.178311,172.16.5.2,46822,172.16.1.2,5102,9000,14480,2082,65728,65728,6,6,4,1460,191875,1,16778208,670000,33580,33543,65700,0,13032,0,4103733900,63
i,1723548978.241630,172.16.5.2,46822,172.16.1.2,5102,9000,14480,2082,65728,65728,6,6,4,1460,191875,1,16778208,670000,33580,33543,65700,0,14480,0,4103733900,63
o,1723548978.241746,172.16.5.2,46822,172.16.1.2,5102,9000,14480,2086,62848,65728,6,6,4,1460,178125,1,16778208,700000,33580,30647,65700,0,11584,0,4103733900,63
i,1723548978.273116,172.16.5.2,46822,172.16.1.2,5102,9000,14480,2086,62848,65728,6,6,4,1460,178125,1,16778208,700000,33580,33580,65700,0,14480,0,4103733900,63
o,1723548978.273214,172.16.5.2,46822,172.16.1.2,5102,9000,14480,2086,64256,65728,6,6,4,1460,170937,1,16778208,670000,33580,30684,65700,0,11584,0,4103733900,63
i,1723548978.273466,172.16.5.2,46822,172.16.1.2,5102,9000,14480,2086,64256,65728,6,6,4,1460,170937,1,16778208,670000,33580,30684,65700,0,14480,0,4103733900,63
o,1723548978.273512,172.16.5.2,46822,172.16.1.2,5102,9000,14480,2086,64256,65728,6,6,4,1460,164687,1,16778208,640000,33580,27788,65700,0,11584,0,4103733900,63
i,1723548978.273731,172.16.5.2,46822,172.16.1.2,5102,9000,14480,2086,64256,65728,6,6,4,1460,164687,1,16778208,640000,33580,27788,65700,0,14480,0,4103733900,63
o,1723548978.273762,172.16.5.2,46822,172.16.1.2,5102,9000,14480,2086,62848,65728,6,6,4,1460,159375,1,16778208,610000,33580,24892,65700,0,11584,0,4103733900,63
i,1723548978.298894,172.16.5.2,46822,172.16.1.2,5102,9000,14480,2086,62848,65728,6,6,4,1460,159375,1,16778208,610000,33580,33580,65700,0,14480,0,4103733900,63
o,1723548978.298966,172.16.5.2,46822,172.16.1.2,5102,9000,15940,2086,64256,65728,6,6,4,1460,157187,1,16778208,560000,33580,30684,65700,0,11584,0,4103733900,63
o,1723548978.299084,172.16.5.2,46822,172.16.1.2,5102,9000,15940,2086,64256,65728,6,6,4,1460,157187,1,16778208,560000,33580,30684,65700,0,13032,0,4103733900,63
i,1723548978.357925,172.16.5.2,46822,172.16.1.2,5102,9000,15940,2086,64256,65728,6,6,4,1460,157187,1,16778208,560000,41772,41772,65700,0,15928,0,4103733900,63
o,1723548978.357944,172.16.5.2,46822,172.16.1.2,5102,9000,15940,2086,62848,65728,6,6,4,1460,152812,1,16778208,540000,41772,38876,65700,0,13032,0,4103733900,63
i,1723548978.399057,172.16.5.2,46822,172.16.1.2,5102,9000,15940,2086,62848,65728,6,6,4,1460,152812,1,16778208,540000,41772,41772,65700,0,15928,0,4103733900,63
o,1723548978.399155,172.16.5.2,46822,172.16.1.2,5102,9000,15940,2086,62848,65728,6,6,4,1460,148750,1,16778208,520000,41772,38876,65700,0,13032,0,4103733900,63
i,1723548978.399316,172.16.5.2,46822,172.16.1.2,5102,9000,15940,2086,62848,65728,6,6,4,1460,148750,1,16778208,520000,41772,38876,65700,0,15928,0,4103733900,63
o,1723548978.399333,172.16.5.2,46822,172.16.1.2,5102,9000,15940,2086,62848,65728,6,6,4,1460,145312,1,16778208,500000,41772,35980,65700,0,13032,0,4103733900,63
i,1723548978.430338,172.16.5.2,46822,172.16.1.2,5102,9000,15940,2086,62848,65728,6,6,4,1460,145312,1,16778208,500000,41772,41772,65700,0,15928,0,4103733900,63
o,1723548978.430431,172.16.5.2,46822,172.16.1.2,5102,9000,15940,2086,64256,65728,6,6,4,1460,145937,1,16778208,470000,41772,38876,65700,0,13032,0,4103733900,63
i,1723548978.430819,172.16.5.2,46822,172.16.1.2,5102,9000,15940,2086,64256,65728,6,6,4,1460,145937,1,16778208,470000,41772,38876,65700,0,15928,0,4103733900,63
o,1723548978.430878,172.16.5.2,46822,172.16.1.2,5102,9000,15940,2086,62848,65728,6,6,4,1460,144062,1,16778208,450000,41772,35980,65700,0,13032,0,4103733900,63
o,1723548978.431181,172.16.5.2,46822,172.16.1.2,5102,9000,15940,2086,62848,65728,6,6,4,1460,144062,1,16778208,450000,41772,35980,65700,0,14480,0,4103733900,63
i,1723548978.450391,172.16.5.2,46822,172.16.1.2,5102,9000,15940,2086,62848,65728,6,6,4,1460,144062,1,16778208,450000,41772,41772,65700,0,15928,0,4103733900,63
o,1723548978.450465,172.16.5.2,46822,172.16.1.2,5102,9000,17400,2086,65728,65728,6,6,4,1460,145000,1,16778208,430000,41772,40324,65700,0,14480,0,4103733900,63
i,1723548978.492714,172.16.5.2,46822,172.16.1.2,5102,9000,17400,2086,65728,65728,6,6,4,1460,145000,1,16778208,430000,41772,40324,65700,0,17376,0,4103733900,63
o,1723548978.492738,172.16.5.2,46822,172.16.1.2,5102,9000,17400,2086,62848,65728,6,6,4,1460,144375,1,16778208,410000,41772,37428,65700,0,14480,0,4103733900,63
i,1723548978.519803,172.16.5.2,46822,172.16.1.2,5102,9000,17400,2086,62848,65728,6,6,4,1460,144375,1,16778208,410000,41772,41772,65700,0,17376,0,4103733900,63
o,1723548978.519824,172.16.5.2,46822,172.16.1.2,5102,9000,17400,2086,64256,65728,6,6,4,1460,140312,1,16778208,430000,41772,38876,65700,0,14480,0,4103733900,63
i,1723548978.520029,172.16.5.2,46822,172.16.1.2,5102,9000,17400,2086,64256,65728,6,6,4,1460,140312,1,16778208,430000,41772,38876,65700,0,17376,0,4103733900,63
o,1723548978.520045,172.16.5.2,46822,172.16.1.2,5102,9000,17400,2086,64256,65728,6,6,4,1460,136562,1,16778208,430000,41772,35980,65700,0,14480,0,4103733900,63
i,1723548978.551119,172.16.5.2,46822,172.16.1.2,5102,9000,17400,2086,64256,65728,6,6,4,1460,136562,1,16778208,430000,41772,41772,65700,0,17376,0,4103733900,63
o,1723548978.551192,172.16.5.2,46822,172.16.1.2,5102,9000,17400,2086,62848,65728,6,6,4,1460,134687,1,16778208,420000,41772,38876,65700,0,14480,0,4103733900,63
i,1723548978.551938,172.16.5.2,46822,172.16.1.2,5102,9000,17400,2086,62848,65728,6,6,4,1460,134687,1,16778208,420000,41772,38876,65700,0,17376,0,4103733900,63
o,1723548978.551955,172.16.5.2,46822,172.16.1.2,5102,9000,17400,2086,64256,65728,6,6,4,1460,133125,1,16778208,410000,41772,35980,65700,0,14480,0,4103733900,63
o,1723548978.552102,172.16.5.2,46822,172.16.1.2,5102,9000,17400,2086,64256,65728,6,6,4,1460,133125,1,16778208,410000,41772,35980,65700,0,15928,0,4103733900,63
i,1723548978.577905,172.16.5.2,46822,172.16.1.2,5102,9000,17400,2086,64256,65728,6,6,4,1460,133125,1,16778208,410000,41772,41772,65700,0,17376,0,4103733900,63
o,1723548978.578029,172.16.5.2,46822,172.16.1.2,5102,9000,18860,2086,62848,65728,6,6,4,1460,131562,1,16778208,400000,41772,38876,65700,0,14480,0,4103733900,63
i,1723548978.608795,172.16.5.2,46822,172.16.1.2,5102,9000,18860,2086,62848,65728,6,6,4,1460,131562,1,16778208,400000,41772,41772,65700,0,18824,0,4103733900,63
o,1723548978.608867,172.16.5.2,46822,172.16.1.2,5102,9000,18860,2086,62848,65728,6,6,4,1460,129062,1,16778208,400000,41772,38876,65700,0,15928,0,4103733900,63
i,1723548978.648876,172.16.5.2,46822,172.16.1.2,5102,9000,18860,2086,62848,65728,6,6,4,1460,129062,1,16778208,400000,41772,41772,65700,0,18824,0,4103733900,63
o,1723548978.648983,172.16.5.2,46822,172.16.1.2,5102,9000,18860,2086,62848,65728,6,6,4,1460,129375,1,16778208,380000,41772,38876,65700,0,15928,0,4103733900,63
i,1723548978.649190,172.16.5.2,46822,172.16.1.2,5102,9000,18860,2086,62848,65728,6,6,4,1460,129375,1,16778208,380000,41772,38876,65700,0,18824,0,4103733900,63
o,1723548978.649216,172.16.5.2,46822,172.16.1.2,5102,9000,18860,2086,64256,65728,6,6,4,1460,129687,1,16778208,370000,41772,35980,65700,0,15928,0,4103733900,63
i,1723548978.681198,172.16.5.2,46822,172.16.1.2,5102,9000,18860,2086,64256,65728,6,6,4,1460,129687,1,16778208,370000,41772,41772,65700,0,18824,0,4103733900,63
o,1723548978.681265,172.16.5.2,46822,172.16.1.2,5102,9000,18860,2086,62848,65728,6,6,4,1460,130000,1,16778208,370000,41772,38876,65700,0,15928,0,4103733900,63
i,1723548978.681420,172.16.5.2,46822,172.16.1.2,5102,9000,18860,2086,62848,65728,6,6,4,1460,130000,1,16778208,370000,41772,38876,65700,0,18824,0,4103733900,63
o,1723548978.681436,172.16.5.2,46822,172.16.1.2,5102,9000,18860,2086,64256,65728,6,6,4,1460,128750,1,16778208,360000,41772,35980,65700,0,15928,0,4103733900,63
o,1723548978.681598,172.16.5.2,46822,172.16.1.2,5102,9000,18860,2086,64256,65728,6,6,4,1460,128750,1,16778208,360000,41772,35980,65700,0,17376,0,4103733900,63
i,1723548978.708225,172.16.5.2,46822,172.16.1.2,5102,9000,18860,2086,64256,65728,6,6,4,1460,128750,1,16778208,360000,41772,41772,65700,0,18824,0,4103733900,63
o,1723548978.708294,172.16.5.2,46822,172.16.1.2,5102,9000,18860,2086,64256,65728,6,6,4,1460,129062,1,16778208,360000,41772,38876,65700,0,15928,0,4103733900,63
i,1723548978.738401,172.16.5.2,46822,172.16.1.2,5102,9000,18860,2086,64256,65728,6,6,4,1460,129062,1,16778208,360000,41772,41772,65700,0,18824,0,4103733900,63
o,1723548978.738426,172.16.5.2,46822,172.16.1.2,5102,9000,20320,2086,64256,65728,6,6,4,1460,133125,1,16778208,390000,41772,38876,65700,0,15928,0,4103733900,63
i,1723548978.773455,172.16.5.2,46822,172.16.1.2,5102,9000,20320,2086,64256,65728,6,6,4,1460,133125,1,16778208,390000,49964,49964,65700,0,20272,0,4103733900,63
o,1723548978.773491,172.16.5.2,46822,172.16.1.2,5102,9000,20320,2086,64256,65728,6,6,4,1460,137812,1,16778208,420000,49964,47068,65700,0,17376,0,4103733900,63
i,1723548978.773678,172.16.5.2,46822,172.16.1.2,5102,9000,20320,2086,64256,65728,6,6,4,1460,137812,1,16778208,420000,49964,47068,65700,0,20272,0,4103733900,63
o,1723548978.773695,172.16.5.2,46822,172.16.1.2,5102,9000,20320,2086,61376,65728,6,6,4,1460,136875,1,16778208,400000,49964,44172,65700,0,17376,0,4103733900,63
i,1723548978.804464,172.16.5.2,46822,172.16.1.2,5102,9000,20320,2086,61376,65728,6,6,4,1460,136875,1,16778208,400000,49964,49964,65700,0,20272,0,4103733900,63
o,1723548978.804532,172.16.5.2,46822,172.16.1.2,5102,9000,20320,2086,64256,65728,6,6,4,1460,140000,1,16778208,410000,49964,47068,65700,0,17376,0,4103733900,63
i,1723548978.804689,172.16.5.2,46822,172.16.1.2,5102,9000,20320,2086,64256,65728,6,6,4,1460,140000,1,16778208,410000,49964,47068,65700,0,20272,0,4103733900,63
o,1723548978.804706,172.16.5.2,46822,172.16.1.2,5102,9000,20320,2086,62848,65728,6,6,4,1460,138750,1,16778208,400000,49964,44172,65700,0,17376,0,4103733900,63
o,1723548978.804823,172.16.5.2,46822,172.16.1.2,5102,9000,20320,2086,62848,65728,6,6,4,1460,138750,1,16778208,400000,49964,44172,65700,0,18824,0,4103733900,63
i,1723548978.818605,172.16.5.2,46822,172.16.1.2,5102,9000,20320,2086,62848,65728,6,6,4,1460,138750,1,16778208,400000,49964,49964,65700,0,20272,0,4103733900,63
o,1723548978.818658,172.16.5.2,46822,172.16.1.2,5102,9000,20320,2086,64256,65728,6,6,4,1460,139062,1,16778208,390000,49964,47068,65700,0,17376,0,4103733900,63
i,1723548978.868171,172.16.5.2,46822,172.16.1.2,5102,9000,20320,2086,64256,65728,6,6,4,1460,139062,1,16778208,390000,49964,48536,65700,0,20272,0,4103733900,63
o,1723548978.868517,172.16.5.2,46822,172.16.1.2,5102,9000,20320,2086,64256,65728,6,6,4,1460,141875,1,16778208,400000,49964,45640,65700,0,17376,0,4103733900,63
i,1723548978.869802,172.16.5.2,46822,172.16.1.2,5102,9000,20320,2086,64256,65728,6,6,4,1460,141875,1,16778208,400000,49964,49964,65700,0,20272,0,4103733900,63
o,1723548978.869802,172.16.5.2,46822,172.16.1.2,5102,9000,21780,2086,62848,65728,6,6,4,1460,140625,1,16778208,400000,49964,47068,65700,0,17376,0,4103733900,63
i,1723548978.898714,172.16.5.2,46822,172.16.1.2,5102,9000,21780,2086,62848,65728,6,6,4,1460,140625,1,16778208,400000,49964,49964,65700,0,21720,0,4103733900,63
o,1723548978.898759,172.16.5.2,46822,172.16.1.2,5102,9000,21780,2086,64256,65728,6,6,4,1460,138125,1,16778208,400000,49964,47068,65700,0,18824,0,4103733900,63
i,1723548978.899758,172.16.5.2,46822,172.16.1.2,5102,9000,21780,2086,64256,65728,6,6,4,1460,138125,1,16778208,400000,49964,49964,65700,0,21720,0,4103733900,63
o,1723548978.899823,172.16.5.2,46822,172.16.1.2,5102,9000,21780,2086,61376,65728,6,6,4,1460,135937,1,16778208,400000,49964,47068,65700,0,18824,0,4103733900,63
i,1723548978.919622,172.16.5.2,46822,172.16.1.2,5102,9000,21780,2086,61376,65728,6,6,4,1460,135937,1,16778208,400000,49964,49964,65700,0,21720,0,4103733900,63
o,1723548978.919644,172.16.5.2,46822,172.16.1.2,5102,9000,21780,2086,64256,65728,6,6,4,1460,132812,1,16778208,410000,49964,47068,65700,0,18824,0,4103733900,63
i,1723548978.919881,172.16.5.2,46822,172.16.1.2,5102,9000,21780,2086,64256,65728,6,6,4,1460,132812,1,16778208,410000,49964,47068,65700,0,21720,0,4103733900,63
o,1723548978.919898,172.16.5.2,46822,172.16.1.2,5102,9000,21780,2086,64256,65728,6,6,4,1460,130000,1,16778208,410000,49964,44172,65700,0,18824,0,4103733900,63
o,1723548978.920005,172.16.5.2,46822,172.16.1.2,5102,9000,21780,2086,64256,65728,6,6,4,1460,130000,1,16778208,410000,49964,44172,65700,0,20272,0,4103733900,63
i,1723548978.928392,172.16.5.2,46822,172.16.1.2,5102,9000,21780,2086,64256,65728,6,6,4,1460,130000,1,16778208,410000,49964,49964,65700,0,21720,0,4103733900,63
o,1723548978.928493,172.16.5.2,46822,172.16.1.2,5102,9000,21780,2086,62848,65728,6,6,4,1460,127500,1,16778208,410000,49964,47068,65700,0,18824,0,4103733900,63
i,1723548978.979694,172.16.5.2,46822,172.16.1.2,5102,9000,21780,2086,62848,65728,6,6,4,1460,127500,1,16778208,410000,49964,49964,65700,0,21720,0,4103733900,63
o,1723548978.979780,172.16.5.2,46822,172.16.1.2,5102,9000,21780,2086,64256,65728,6,6,4,1460,124062,1,16778208,410000,49964,47068,65700,0,18824,0,4103733900,63
i,1723548978.979991,172.16.5.2,46822,172.16.1.2,5102,9000,21780,2086,64256,65728,6,6,4,1460,124062,1,16778208,410000,49964,47068,65700,0,21720,0,4103733900,63
o,1723548978.980019,172.16.5.2,46822,172.16.1.2,5102,9000,21780,2086,61376,65728,6,6,4,1460,121250,1,16778208,410000,49964,44172,65700,0,18824,0,4103733900,63
i,1723548979.008400,172.16.5.2,46822,172.16.1.2,5102,9000,21780,2086,61376,65728,6,6,4,1460,121250,1,16778208,410000,49964,49964,65700,0,21720,0,4103733900,63
o,1723548979.008527,172.16.5.2,46822,172.16.1.2,5102,9000,23240,2086,65728,65728,6,6,4,1460,122500,1,16778208,400000,49964,48516,65700,0,20272,0,4103733900,63
i,1723548979.008931,172.16.5.2,46822,172.16.1.2,5102,9000,23240,2086,65728,65728,6,6,4,1460,122500,1,16778208,400000,49964,48516,65700,0,23168,0,4103733900,63
o,1723548979.008988,172.16.5.2,46822,172.16.1.2,5102,9000,23240,2086,64256,65728,6,6,4,1460,119687,1,16778208,400000,49964,45620,65700,0,20272,0,4103733900,63
i,1723548979.009220,172.16.5.2,46822,172.16.1.2,5102,9000,23240,2086,64256,65728,6,6,4,1460,119687,1,16778208,400000,58156,45620,65700,0,23168,0,4103733900,63
o,1723548979.009278,172.16.5.2,46822,172.16.1.2,5102,9000,23240,2086,64256,65728,6,6,4,1460,117500,1,16778208,390000,58156,42724,65700,0,20272,0,4103733900,63
i,1723548979.038211,172.16.5.2,46822,172.16.1.2,5102,9000,23240,2086,64256,65728,6,6,4,1460,117500,1,16778208,390000,58156,58156,65700,0,23168,0,4103733900,63
o,1723548979.038232,172.16.5.2,46822,172.16.1.2,5102,9000,23240,2086,62848,65728,6,6,4,1460,117812,1,16778208,380000,58156,55260,65700,0,20272,0,4103733900,63
i,1723548979.040163,172.16.5.2,46822,172.16.1.2,5102,9000,23240,2086,62848,65728,6,6,4,1460,117812,1,16778208,380000,58156,55260,65700,0,23168,0,4103733900,63
o,1723548979.040200,172.16.5.2,46822,172.16.1.2,5102,9000,23240,2086,64256,65728,6,6,4,1460,118125,1,16778208,360000,58156,52364,65700,0,20272,0,4103733900,63
o,1723548979.040388,172.16.5.2,46822,172.16.1.2,5102,9000,23240,2086,64256,65728,6,6,4,1460,118125,1,16778208,360000,58156,52364,65700,0,21720,0,4103733900,63
i,1723548979.040566,172.16.5.2,46822,172.16.1.2,5102,9000,23240,2086,64256,65728,6,6,4,1460,118125,1,16778208,360000,58156,52364,65700,0,23168,0,4103733900,63
o,1723548979.040582,172.16.5.2,46822,172.16.1.2,5102,9000,23240,2086,64256,65728,6,6,4,1460,117187,1,16778208,360000,58156,49468,65700,0,20272,0,4103733900,63
i,1723548979.097650,172.16.5.2,46822,172.16.1.2,5102,9000,23240,2086,64256,65728,6,6,4,1460,117187,1,16778208,360000,58156,58156,65700,0,23168,0,4103733900,63
o,1723548979.097746,172.16.5.2,46822,172.16.1.2,5102,9000,23240,2086,62848,65728,6,6,4,1460,117812,1,16778208,350000,58156,55260,65700,0,20272,0,4103733900,63
i,1723548979.108446,172.16.5.2,46822,172.16.1.2,5102,9000,23240,2086,62848,65728,6,6,4,1460,117812,1,16778208,350000,58156,58156,65700,0,23168,0,4103733900,63
o,1723548979.108483,172.16.5.2,46822,172.16.1.2,5102,9000,23240,2086,62848,65728,6,6,4,1460,119375,1,16778208,360000,58156,55260,65700,0,20272,0,4103733900,63
i,1723548979.149023,172.16.5.2,46822,172.16.1.2,5102,9000,23240,2086,62848,65728,6,6,4,1460,119375,1,16778208,360000,58156,58156,65700,0,23168,0,4103733900,63
o,1723548979.149064,172.16.5.2,46822,172.16.1.2,5102,9000,24700,2086,62848,65728,6,6,4,1460,122187,1,16778208,370000,58156,55260,65700,0,20272,0,4103733900,63
i,1723548979.149455,172.16.5.2,46822,172.16.1.2,5102,9000,24700,2086,62848,65728,6,6,4,1460,122187,1,16778208,370000,58156,55260,65700,0,24616,0,4103733900,63
o,1723548979.149476,172.16.5.2,46822,172.16.1.2,5102,9000,24700,2086,59968,65728,6,6,4,1460,124687,1,16778208,380000,58156,52364,65700,0,21720,0,4103733900,63
i,1723548979.149646,172.16.5.2,46822,172.16.1.2,5102,9000,24700,2086,59968,65728,6,6,4,1460,124687,1,16778208,380000,58156,52364,65700,0,24616,0,4103733900,63
o,1723548979.149666,172.16.5.2,46822,172.16.1.2,5102,9000,24700,2086,62848,65728,6,6,4,1460,126875,1,16778208,390000,58156,49468,65700,0,21720,0,4103733900,63
i,1723548979.151010,172.16.5.2,46822,172.16.1.2,5102,9000,24700,2086,62848,65728,6,6,4,1460,126875,1,16778208,390000,58156,58156,65700,0,24616,0,4103733900,63
o,1723548979.151093,172.16.5.2,46822,172.16.1.2,5102,9000,24700,2086,64256,65728,6,6,4,1460,125000,1,16778208,390000,58156,55260,65700,0,21720,0,4103733900,63
i,1723548979.151322,172.16.5.2,46822,172.16.1.2,5102,9000,24700,2086,64256,65728,6,6,4,1460,125000,1,16778208,390000,58156,55260,65700,0,24616,0,4103733900,63
o,1723548979.151349,172.16.5.2,46822,172.16.1.2,5102,9000,24700,2086,62848,65728,6,6,4,1460,123125,1,16778208,380000,58156,52364,65700,0,21720,0,4103733900,63
o,1723548979.151537,172.16.5.2,46822,172.16.1.2,5102,9000,24700,2086,62848,65728,6,6,4,1460,123125,1,16778208,380000,58156,52364,65700,0,23168,0,4103733900,63
i,1723548979.153058,172.16.5.2,46822,172.16.1.2,5102,9000,24700,2086,62848,65728,6,6,4,1460,123125,1,16778208,380000,58156,58156,65700,0,24616,0,4103733900,63
o,1723548979.153140,172.16.5.2,46822,172.16.1.2,5102,9000,24700,2086,62848,65728,6,6,4,1460,121562,1,16778208,380000,58156,55260,65700,0,21720,0,4103733900,63
i,1723548979.213052,172.16.5.2,46822,172.16.1.2,5102,9000,24700,2086,62848,65728,6,6,4,1460,121562,1,16778208,380000,58156,58156,65700,0,24616,0,4103733900,63
o,1723548979.213082,172.16.5.2,46822,172.16.1.2,5102,9000,24700,2086,64256,65728,6,6,4,1460,121562,1,16778208,360000,58156,55260,65700,0,21720,0,4103733900,63
i,1723548979.213246,172.16.5.2,46822,172.16.1.2,5102,9000,24700,2086,64256,65728,6,6,4,1460,121562,1,16778208,360000,58156,55260,65700,0,24616,0,4103733900,63
o,1723548979.213265,172.16.5.2,46822,172.16.1.2,5102,9000,24700,2086,64256,65728,6,6,4,1460,119062,1,16778208,370000,58156,52364,65700,0,21720,0,4103733900,63
i,1723548979.268907,172.16.5.2,46822,172.16.1.2,5102,9000,24700,2086,64256,65728,6,6,4,1460,119062,1,16778208,370000,58156,58156,65700,0,24616,0,4103733900,63
o,1723548979.268994,172.16.5.2,46822,172.16.1.2,5102,9000,24700,2086,62848,65728,6,6,4,1460,119375,1,16778208,360000,58156,55260,65700,0,21720,0,4103733900,63
i,1723548979.269148,172.16.5.2,46822,172.16.1.2,5102,9000,24700,2086,62848,65728,6,6,4,1460,119375,1,16778208,360000,58156,55260,65700,0,24616,0,4103733900,63
o,1723548979.269164,172.16.5.2,46822,172.16.1.2,5102,9000,26160,2086,62848,65728,6,6,4,1460,119687,1,16778208,350000,58156,52364,65700,0,21720,0,4103733900,63
i,1723548979.294371,172.16.5.2,46822,172.16.1.2,5102,9000,26160,2086,62848,65728,6,6,4,1460,119687,1,16778208,350000,58156,58156,65700,0,26064,0,4103733900,63
o,1723548979.294392,172.16.5.2,46822,172.16.1.2,5102,9000,26160,2086,62848,65728,6,6,4,1460,123750,1,16778208,380000,58156,55260,65700,0,23168,0,4103733900,63
i,1723548979.294571,172.16.5.2,46822,172.16.1.2,5102,9000,26160,2086,62848,65728,6,6,4,1460,123750,1,16778208,380000,58156,55260,65700,0,26064,0,4103733900,63
o,1723548979.294588,172.16.5.2,46822,172.16.1.2,5102,9000,26160,2086,64256,65728,6,6,4,1460,127187,1,16778208,400000,58156,52364,65700,0,23168,0,4103733900,63
i,1723548979.296094,172.16.5.2,46822,172.16.1.2,5102,9000,26160,2086,64256,65728,6,6,4,1460,127187,1,16778208,400000,58156,58156,65700,0,26064,0,4103733900,63
o,1723548979.296672,172.16.5.2,46822,172.16.1.2,5102,9000,26160,2086,64256,65728,6,6,4,1460,130312,1,16778208,410000,58156,55260,65700,0,23168,0,4103733900,63
o,1723548979.296823,172.16.5.2,46822,172.16.1.2,5102,9000,26160,2086,64256,65728,6,6,4,1460,130312,1,16778208,410000,58156,55260,65700,0,24616,0,4103733900,63
i,1723548979.296979,172.16.5.2,46822,172.16.1.2,5102,9000,26160,2086,64256,65728,6,6,4,1460,130312,1,16778208,410000,58156,55260,65700,0,26064,0,4103733900,63
o,1723548979.296997,172.16.5.2,46822,172.16.1.2,5102,9000,26160,2086,62848,65728,6,6,4,1460,132812,1,16778208,410000,58156,52364,65700,0,23168,0,4103733900,63
i,1723548979.320010,172.16.5.2,46822,172.16.1.2,5102,9000,26160,2086,62848,65728,6,6,4,1460,132812,1,16778208,410000,58156,58156,65700,0,26064,0,4103733900,63
o,1723548979.320100,172.16.5.2,46822,172.16.1.2,5102,9000,26160,2086,64256,65728,6,6,4,1460,136250,1,16778208,420000,58156,55260,65700,0,23168,0,4103733900,63
i,1723548979.347682,172.16.5.2,46822,172.16.1.2,5102,9000,26160,2086,64256,65728,6,6,4,1460,136250,1,16778208,420000,58156,58156,65700,0,26064,0,4103733900,63
o,1723548979.347964,172.16.5.2,46822,172.16.1.2,5102,9000,26160,2086,64256,65728,6,6,4,1460,135625,1,16778208,400000,58156,55260,65700,0,23168,0,4103733900,63
i,1723548979.398290,172.16.5.2,46822,172.16.1.2,5102,9000,26160,2086,64256,65728,6,6,4,1460,135625,1,16778208,400000,58156,58156,65700,0,26064,0,4103733900,63
o,1723548979.398361,172.16.5.2,46822,172.16.1.2,5102,9000,26160,2086,64256,65728,6,6,4,1460,141250,1,16778208,440000,58156,55260,65700,0,23168,0,4103733900,63
i,1723548979.398493,172.16.5.2,46822,172.16.1.2,5102,9000,26160,2086,64256,65728,6,6,4,1460,141250,1,16778208,440000,58156,55260,65700,0,26064,0,4103733900,63
o,1723548979.398513,172.16.5.2,46822,172.16.1.2,5102,9000,26160,2086,61376,65728,6,6,4,1460,140000,1,16778208,420000,58156,52364,65700,0,23168,0,4103733900,63
i,1723548979.399807,172.16.5.2,46822,172.16.1.2,5102,9000,26160,2086,61376,65728,6,6,4,1460,140000,1,16778208,420000,58156,58156,65700,0,26064,0,4103733900,63
o,1723548979.399882,172.16.5.2,46822,172.16.1.2,5102,9000,27620,2086,64256,65728,6,6,4,1460,138750,1,16778208,410000,58156,55260,65700,0,23168,0,4103733900,63
i,1723548979.421535,172.16.5.2,46822,172.16.1.2,5102,9000,27620,2086,64256,65728,6,6,4,1460,138750,1,16778208,410000,58156,58156,65700,0,27512,0,4103733900,63
o,1723548979.421570,172.16.5.2,46822,172.16.1.2,5102,9000,27620,2086,62848,65728,6,6,4,1460,135312,1,16778208,420000,58156,55260,65700,0,24616,0,4103733900,63
i,1723548979.421776,172.16.5.2,46822,172.16.1.2,5102,9000,27620,2086,62848,65728,6,6,4,1460,135312,1,16778208,420000,58156,55260,65700,0,27512,0,4103733900,63
o,1723548979.421804,172.16.5.2,46822,172.16.1.2,5102,9000,27620,2086,62848,65728,6,6,4,1460,132187,1,16778208,420000,58156,52364,65700,0,24616,0,4103733900,63
i,1723548979.423121,172.16.5.2,46822,172.16.1.2,5102,9000,27620,2086,62848,65728,6,6,4,1460,132187,1,16778208,420000,66348,66348,65700,0,27512,0,4103733900,63
o,1723548979.423141,172.16.5.2,46822,172.16.1.2,5102,9000,27620,2086,62848,65728,6,6,4,1460,130937,1,16778208,400000,66348,63452,65700,0,24616,0,4103733900,63
o,1723548979.423309,172.16.5.2,46822,172.16.1.2,5102,9000,27620,2086,62848,65728,6,6,4,1460,130937,1,16778208,400000,66348,63452,65700,0,26064,0,4103733900,63
i,1723548979.423474,172.16.5.2,46822,172.16.1.2,5102,9000,27620,2086,62848,65728,6,6,4,1460,130937,1,16778208,400000,66348,63452,65700,0,27512,0,4103733900,63
o,1723548979.423491,172.16.5.2,46822,172.16.1.2,5102,9000,27620,2086,64256,65728,6,6,4,1460,129687,1,16778208,390000,66348,60556,65700,0,24616,0,4103733900,63
i,1723548979.449848,172.16.5.2,46822,172.16.1.2,5102,9000,27620,2086,64256,65728,6,6,4,1460,129687,1,16778208,390000,66348,65216,65700,0,27512,0,4103733900,63
o,1723548979.449930,172.16.5.2,46822,172.16.1.2,5102,9000,27620,2086,64256,65728,6,6,4,1460,130000,1,16778208,380000,66348,62320,65700,0,24616,0,4103733900,63
i,1723548979.483242,172.16.5.2,46822,172.16.1.2,5102,9000,27620,2086,64256,65728,6,6,4,1460,130000,1,16778208,380000,66348,66348,65700,0,27512,0,4103733900,63
o,1723548979.483321,172.16.5.2,46822,172.16.1.2,5102,9000,27620,2086,62848,65728,6,6,4,1460,131250,1,16778208,380000,66348,63452,65700,0,24616,0,4103733900,63
i,1723548979.509730,172.16.5.2,46822,172.16.1.2,5102,9000,27620,2086,62848,65728,6,6,4,1460,131250,1,16778208,380000,66348,66348,65700,0,27512,0,4103733900,63
o,1723548979.509765,172.16.5.2,46822,172.16.1.2,5102,9000,27620,2086,62848,65728,6,6,4,1460,127500,1,16778208,390000,66348,63452,65700,0,24616,0,4103733900,63
i,1723548979.509944,172.16.5.2,46822,172.16.1.2,5102,9000,27620,2086,62848,65728,6,6,4,1460,127500,1,16778208,390000,66348,63452,65700,0,27512,0,4103733900,63
o,1723548979.509977,172.16.5.2,46822,172.16.1.2,5102,9000,27620,2086,59968,65728,6,6,4,1460,124062,1,16778208,400000,66348,60556,65700,0,24616,0,4103733900,63
i,1723548979.522510,172.16.5.2,46822,172.16.1.2,5102,9000,27620,2086,59968,65728,6,6,4,1460,124062,1,16778208,400000,66348,66348,65700,0,27512,0,4103733900,63
o,1723548979.523551,172.16.5.2,46822,172.16.1.2,5102,9000,29080,2086,62848,65728,6,6,4,1460,123750,1,16778208,380000,66348,63452,65700,0,24616,0,4103733900,63
i,1723548979.547691,172.16.5.2,46822,172.16.1.2,5102,9000,29080,2086,62848,65728,6,6,4,1460,123750,1,16778208,380000,66348,66348,65700,0,28960,0,4103733900,63
o,1723548979.547717,172.16.5.2,46822,172.16.1.2,5102,9000,29080,2086,64256,65728,6,6,4,1460,125937,1,16778208,390000,66348,63452,65700,0,26064,0,4103733900,63
i,1723548979.548224,172.16.5.2,46822,172.16.1.2,5102,9000,29080,2086,64256,65728,6,6,4,1460,125937,1,16778208,390000,66348,63452,65700,0,28960,0,4103733900,63
o,1723548979.548243,172.16.5.2,46822,172.16.1.2,5102,9000,29080,2086,62848,65728,6,6,4,1460,126562,1,16778208,380000,66348,60556,65700,0,26064,0,4103733900,63
i,1723548979.548415,172.16.5.2,46822,172.16.1.2,5102,9000,29080,2086,62848,65728,6,6,4,1460,126562,1,16778208,380000,66348,60556,65700,0,28960,0,4103733900,63
o,1723548979.548432,172.16.5.2,46822,172.16.1.2,5102,9000,29080,2086,64256,65728,6,6,4,1460,127187,1,16778208,370000,66348,57660,65700,0,26064,0,4103733900,63
o,1723548979.548556,172.16.5.2,46822,172.16.1.2,5102,9000,29080,2086,64256,65728,6,6,4,1460,127187,1,16778208,370000,66348,57660,65700,0,27512,0,4103733900,63
i,1723548979.548702,172.16.5.2,46822,172.16.1.2,5102,9000,29080,2086,64256,65728,6,6,4,1460,127187,1,16778208,370000,66348,57660,65700,0,28960,0,4103733900,63
o,1723548979.548719,172.16.5.2,46822,172.16.1.2,5102,9000,29080,2086,61376,65728,6,6,4,1460,126562,1,16778208,360000,66348,54764,65700,0,26064,0,4103733900,63
i,1723548979.568602,172.16.5.2,46822,172.16.1.2,5102,9000,29080,2086,61376,65728,6,6,4,1460,126562,1,16778208,360000,66348,66348,65700,0,28960,0,4103733900,63
o,1723548979.568678,172.16.5.2,46822,172.16.1.2,5102,9000,29080,2086,62848,65728,6,6,4,1460,128437,1,16778208,370000,66348,63452,65700,0,26064,0,4103733900,63
i,1723548979.589043,172.16.5.2,46822,172.16.1.2,5102,9000,29080,2086,62848,65728,6,6,4,1460,128437,1,16778208,370000,66348,66348,65700,0,28960,0,4103733900,63
o,1723548979.589128,172.16.5.2,46822,172.16.1.2,5102,9000,29080,2086,65728,65728,6,6,4,1460,130000,1,16778208,380000,66348,64900,65700,0,27512,0,4103733900,63
i,1723548979.620583,172.16.5.2,46822,172.16.1.2,5102,9000,29080,2086,65728,65728,6,6,4,1460,130000,1,16778208,380000,66348,64900,65700,0,28960,0,4103733900,63
o,1723548979.620675,172.16.5.2,46822,172.16.1.2,5102,9000,29080,2086,64256,65728,6,6,4,1460,130000,1,16778208,360000,66348,62004,65700,0,26064,0,4103733900,63
i,1723548979.628468,172.16.5.2,46822,172.16.1.2,5102,9000,29080,2086,64256,65728,6,6,4,1460,130000,1,16778208,360000,66348,66348,65700,0,28960,0,4103733900,63
o,1723548979.628557,172.16.5.2,46822,172.16.1.2,5102,9000,29080,2086,62848,65728,6,6,4,1460,128750,1,16778208,360000,66348,63452,65700,0,26064,0,4103733900,63
i,1723548979.628810,172.16.5.2,46822,172.16.1.2,5102,9000,29080,2086,62848,65728,6,6,4,1460,128750,1,16778208,360000,66348,63452,65700,0,28960,0,4103733900,63
o,1723548979.628846,172.16.5.2,46822,172.16.1.2,5102,9000,29080,2086,64256,65728,6,6,4,1460,127812,1,16778208,360000,66348,60556,65700,0,26064,0,4103733900,63
i,1723548979.639388,172.16.5.2,46822,172.16.1.2,5102,9000,29080,2086,64256,65728,6,6,4,1460,127812,1,16778208,360000,66348,66348,65700,0,28960,0,4103733900,63
o,1723548979.639484,172.16.5.2,46822,172.16.1.2,5102,9000,29080,2086,62848,65728,6,6,4,1460,125625,1,16778208,370000,66348,63452,65700,0,26064,0,4103733900,63
i,1723548979.657977,172.16.5.2,46822,172.16.1.2,5102,9000,29080,2086,62848,65728,6,6,4,1460,125625,1,16778208,370000,66348,66348,65700,0,28960,0,4103733900,63
o,1723548979.658039,172.16.5.2,46822,172.16.1.2,5102,9000,30540,2086,64256,65728,6,6,4,1460,126250,1,16778208,360000,66348,63452,65700,0,26064,0,4103733900,63
i,1723548979.658161,172.16.5.2,46822,172.16.1.2,5102,9000,30540,2086,64256,65728,6,6,4,1460,126250,1,16778208,360000,66348,63452,65700,0,30408,0,4103733900,63
o,1723548979.658177,172.16.5.2,46822,172.16.1.2,5102,9000,30540,2086,62848,65728,6,6,4,1460,124375,1,16778208,370000,66348,60556,65700,0,27512,0,4103733900,63
i,1723548979.682734,172.16.5.2,46822,172.16.1.2,5102,9000,30540,2086,62848,65728,6,6,4,1460,124375,1,16778208,370000,74540,74540,65700,0,30408,0,4103733900,63
o,1723548979.682757,172.16.5.2,46822,172.16.1.2,5102,9000,30540,2086,64256,65728,6,6,4,1460,126562,1,16778208,380000,74540,71644,65700,0,27512,0,4103733900,63
o,1723548979.682872,172.16.5.2,46822,172.16.1.2,5102,9000,30540,2086,64256,65728,6,6,4,1460,126562,1,16778208,380000,74540,71644,65700,0,28960,0,4103733900,63
i,1723548979.683122,172.16.5.2,46822,172.16.1.2,5102,9000,30540,2086,64256,65728,6,6,4,1460,126562,1,16778208,380000,74540,71644,65700,0,30408,0,4103733900,63
o,1723548979.683138,172.16.5.2,46822,172.16.1.2,5102,9000,30540,2086,61376,65728,6,6,4,1460,128437,1,16778208,380000,74540,68748,65700,0,27512,0,4103733900,63
i,1723548979.684587,172.16.5.2,46822,172.16.1.2,5102,9000,30540,2086,61376,65728,6,6,4,1460,128437,1,16778208,380000,74540,74540,65700,0,30408,0,4103733900,63
o,1723548979.684656,172.16.5.2,46822,172.16.1.2,5102,9000,30540,2086,64256,65728,6,6,4,1460,130000,1,16778208,380000,74540,71644,65700,0,27512,0,4103733900,63
i,1723548979.700154,172.16.5.2,46822,172.16.1.2,5102,9000,30540,2086,64256,65728,6,6,4,1460,130000,1,16778208,380000,74540,74540,65700,0,30408,0,4103733900,63
o,1723548979.700371,172.16.5.2,46822,172.16.1.2,5102,9000,30540,2086,64256,65728,6,6,4,1460,130000,1,16778208,370000,74540,71644,65700,0,27512,0,4103733900,63
i,1723548979.734927,172.16.5.2,46822,172.16.1.2,5102,9000,30540,2086,64256,65728,6,6,4,1460,130000,1,16778208,370000,74540,74540,65700,0,30408,0,4103733900,63
o,1723548979.735105,172.16.5.2,46822,172.16.1.2,5102,9000,30540,2086,62848,65728,6,6,4,1460,127500,1,16778208,380000,74540,71644,65700,0,27512,0,4103733900,63
i,1723548979.758578,172.16.5.2,46822,172.16.1.2,5102,9000,30540,2086,62848,65728,6,6,4,1460,127500,1,16778208,380000,74540,74540,65700,0,30408,0,4103733900,63
o,1723548979.758668,172.16.5.2,46822,172.16.1.2,5102,9000,30540,2086,62848,65728,6,6,4,1460,126562,1,16778208,370000,74540,71644,65700,0,27512,0,4103733900,63
i,1723548979.761083,172.16.5.2,46822,172.16.1.2,5102,9000,30540,2086,62848,65728,6,6,4,1460,126562,1,16778208,370000,74540,74540,65700,0,30408,0,4103733900,63
o,1723548979.761157,172.16.5.2,46822,172.16.1.2,5102,9000,30540,2086,64256,65728,6,6,4,1460,125937,1,16778208,360000,74540,71644,65700,0,27512,0,4103733900,63
i,1723548979.764567,172.16.5.2,46822,172.16.1.2,5102,9000,30540,2086,64256,65728,6,6,4,1460,125937,1,16778208,360000,74540,74540,65700,0,30408,0,4103733900,63
o,1723548979.764598,172.16.5.2,46822,172.16.1.2,5102,9000,30540,2086,62848,65728,6,6,4,1460,126562,1,16778208,360000,74540,71644,65700,0,27512,0,4103733900,63
i,1723548979.792695,172.16.5.2,46822,172.16.1.2,5102,9000,30540,2086,62848,65728,6,6,4,1460,126562,1,16778208,360000,74540,74540,65700,0,30408,0,4103733900,63
o,1723548979.792740,172.16.5.2,46822,172.16.1.2,5102,9000,32000,2086,62848,65728,6,6,4,1460,128437,1,16778208,370000,74540,71644,65700,0,27512,0,4103733900,63
i,1723548979.792938,172.16.5.2,46822,172.16.1.2,5102,9000,32000,2086,62848,65728,6,6,4,1460,128437,1,16778208,370000,74540,71644,65700,0,31856,0,4103733900,63
o,1723548979.792958,172.16.5.2,46822,172.16.1.2,5102,9000,32000,2086,64256,65728,6,6,4,1460,130000,1,16778208,370000,74540,68748,65700,0,28960,0,4103733900,63
i,1723548979.792958,172.16.5.2,46822,172.16.1.2,5102,9000,32000,2086,64256,65728,6,6,4,1460,130000,1,16778208,370000,74540,68748,65700,0,31856,0,4103733900,63
o,1723548979.792958,172.16.5.2,46822,172.16.1.2,5102,9000,32000,2086,62848,65728,6,6,4,1460,131250,1,16778208,370000,74540,65852,65700,0,28960,0,4103733900,63
o,1723548979.792958,172.16.5.2,46822,172.16.1.2,5102,9000,32000,2086,62848,65728,6,6,4,1460,131250,1,16778208,370000,74540,65852,65700,0,30408,0,4103733900,63
i,1723548979.792958,172.16.5.2,46822,172.16.1.2,5102,9000,32000,2086,62848,65728,6,6,4,1460,131250,1,16778208,370000,74540,65852,65700,0,31856,0,4103733900,63
o,1723548979.792958,172.16.5.2,46822,172.16.1.2,5102,9000,32000,2086,64256,65728,6,6,4,1460,128750,1,16778208,380000,74540,62956,65700,0,28960,0,4103733900,63
i,1723548979.822435,172.16.5.2,46822,172.16.1.2,5102,9000,32000,2086,64256,65728,6,6,4,1460,128750,1,16778208,380000,74540,74540,65700,0,31856,0,4103733900,63
o,1723548979.822454,172.16.5.2,46822,172.16.1.2,5102,9000,32000,2086,62848,65728,6,6,4,1460,130312,1,16778208,380000,74540,71644,65700,0,28960,0,4103733900,63
i,1723548979.822592,172.16.5.2,46822,172.16.1.2,5102,9000,32000,2086,62848,65728,6,6,4,1460,130312,1,16778208,380000,74540,71644,65700,0,31856,0,4103733900,63
o,1723548979.822608,172.16.5.2,46822,172.16.1.2,5102,9000,32000,2086,64256,65728,6,6,4,1460,131562,1,16778208,380000,74540,68748,65700,0,28960,0,4103733900,63
i,1723548979.859465,172.16.5.2,46822,172.16.1.2,5102,9000,32000,2086,64256,65728,6,6,4,1460,131562,1,16778208,380000,74540,74540,65700,0,31856,0,4103733900,63
o,1723548979.859546,172.16.5.2,46822,172.16.1.2,5102,9000,32000,2086,64256,65728,6,6,4,1460,135312,1,16778208,400000,74540,71644,65700,0,28960,0,4103733900,63
i,1723548979.878722,172.16.5.2,46822,172.16.1.2,5102,9000,32000,2086,64256,65728,6,6,4,1460,135312,1,16778208,400000,74540,74540,65700,0,31856,0,4103733900,63
o,1723548979.878786,172.16.5.2,46822,172.16.1.2,5102,9000,32000,2086,64256,65728,6,6,4,1460,135937,1,16778208,390000,74540,71644,65700,0,28960,0,4103733900,63
i,1723548979.878963,172.16.5.2,46822,172.16.1.2,5102,9000,32000,2086,64256,65728,6,6,4,1460,135937,1,16778208,390000,74540,71644,65700,0,31856,0,4103733900,63
o,1723548979.878979,172.16.5.2,46822,172.16.1.2,5102,9000,32000,2086,64256,65728,6,6,4,1460,134062,1,16778208,390000,74540,68748,65700,0,28960,0,4103733900,63
i,1723548979.901154,172.16.5.2,46822,172.16.1.2,5102,9000,32000,2086,64256,65728,6,6,4,1460,134062,1,16778208,390000,74540,74540,65700,0,31856,0,4103733900,63
o,1723548979.901224,172.16.5.2,46822,172.16.1.2,5102,9000,32000,2086,62848,65728,6,6,4,1460,135000,1,16778208,380000,74540,71644,65700,0,28960,0,4103733900,63
i,1723548979.909390,172.16.5.2,46822,172.16.1.2,5102,9000,32000,2086,62848,65728,6,6,4,1460,135000,1,16778208,380000,74540,74540,65700,0,31856,0,4103733900,63
o,1723548979.909590,172.16.5.2,46822,172.16.1.2,5102,9000,32000,2086,64256,65728,6,6,4,1460,135625,1,16778208,380000,74540,71644,65700,0,28960,0,4103733900,63
i,1723548979.910019,172.16.5.2,46822,172.16.1.2,5102,9000,32000,2086,64256,65728,6,6,4,1460,135625,1,16778208,380000,74540,71644,65700,0,31856,0,4103733900,63
o,1723548979.910072,172.16.5.2,46822,172.16.1.2,5102,9000,33460,2086,64256,65728,6,6,4,1460,132500,1,16778208,390000,74540,71644,65700,0,28960,0,4103733900,63
i,1723548979.942646,172.16.5.2,46822,172.16.1.2,5102,9000,33460,2086,64256,65728,6,6,4,1460,132500,1,16778208,390000,74540,74540,65700,0,33304,0,4103733900,63
o,1723548979.942666,172.16.5.2,46822,172.16.1.2,5102,9000,33460,2086,64256,65728,6,6,4,1460,134687,1,16778208,390000,74540,71644,65700,0,30408,0,4103733900,63
i,1723548979.942803,172.16.5.2,46822,172.16.1.2,5102,9000,33460,2086,64256,65728,6,6,4,1460,134687,1,16778208,390000,74540,71644,65700,0,33304,0,4103733900,63
o,1723548979.942819,172.16.5.2,46822,172.16.1.2,5102,9000,33460,2086,61376,65728,6,6,4,1460,136875,1,16778208,400000,74540,68748,65700,0,30408,0,4103733900,63
o,1723548979.943018,172.16.5.2,46822,172.16.1.2,5102,9000,33460,2086,61376,65728,6,6,4,1460,136875,1,16778208,400000,74540,68748,65700,0,31856,0,4103733900,63
i,1723548979.943201,172.16.5.2,46822,172.16.1.2,5102,9000,33460,2086,61376,65728,6,6,4,1460,136875,1,16778208,400000,74540,68748,65700,0,33304,0,4103733900,63
o,1723548979.943217,172.16.5.2,46822,172.16.1.2,5102,9000,33460,2086,64256,65728,6,6,4,1460,138750,1,16778208,400000,74540,65852,65700,0,30408,0,4103733900,63
i,1723548979.947704,172.16.5.2,46822,172.16.1.2,5102,9000,33460,2086,64256,65728,6,6,4,1460,138750,1,16778208,400000,82732,81896,65700,0,33304,0,4103733900,63
o,1723548979.947722,172.16.5.2,46822,172.16.1.2,5102,9000,33460,2086,64256,65728,6,6,4,1460,136562,1,16778208,400000,82732,79000,65700,0,30408,0,4103733900,63
i,1723548979.947880,172.16.5.2,46822,172.16.1.2,5102,9000,33460,2086,64256,65728,6,6,4,1460,136562,1,16778208,400000,82732,79000,65700,0,33304,0,4103733900,63
o,1723548979.947896,172.16.5.2,46822,172.16.1.2,5102,9000,33460,2086,64256,65728,6,6,4,1460,134687,1,16778208,400000,82732,76104,65700,0,30408,0,4103733900,63
i,1723548979.969788,172.16.5.2,46822,172.16.1.2,5102,9000,33460,2086,64256,65728,6,6,4,1460,134687,1,16778208,400000,82732,82732,65700,0,33304,0,4103733900,63
o,1723548979.969805,172.16.5.2,46822,172.16.1.2,5102,9000,33460,2086,64256,65728,6,6,4,1460,131875,1,16778208,400000,82732,79836,65700,0,30408,0,4103733900,63
i,1723548979.994812,172.16.5.2,46822,172.16.1.2,5102,9000,33460,2086,64256,65728,6,6,4,1460,131875,1,16778208,400000,82732,82732,65700,0,33304,0,4103733900,63
o,1723548979.994912,172.16.5.2,46822,172.16.1.2,5102,9000,33460,2086,62848,65728,6,6,4,1460,130625,1,16778208,390000,82732,79836,65700,0,30408,0,4103733900,63
i,1723548980.020594,172.16.5.2,46822,172.16.1.2,5102,9000,33460,2086,62848,65728,6,6,4,1460,130625,1,16778208,390000,82732,82732,65700,0,33304,0,4103733900,63
o,1723548980.020613,172.16.5.2,46822,172.16.1.2,5102,9000,33460,2086,62848,65728,6,6,4,1460,130625,1,16778208,380000,82732,79836,65700,0,30408,0,4103733900,63
i,1723548980.047603,172.16.5.2,46822,172.16.1.2,5102,9000,33460,2086,62848,65728,6,6,4,1460,130625,1,16778208,380000,82732,82732,65700,0,33304,0,4103733900,63
o,1723548980.047621,172.16.5.2,46822,172.16.1.2,5102,9000,33460,2086,62848,65728,6,6,4,1460,133125,1,16778208,390000,82732,79836,65700,0,30408,0,4103733900,63
i,1723548980.047772,172.16.5.2,46822,172.16.1.2,5102,9000,33460,2086,62848,65728,6,6,4,1460,133125,1,16778208,390000,82732,79836,65700,0,33304,0,4103733900,63
o,1723548980.047788,172.16.5.2,46822,172.16.1.2,5102,9000,33460,2086,62848,65728,6,6,4,1460,132812,1,16778208,380000,82732,76940,65700,0,30408,0,4103733900,63
i,1723548980.048022,172.16.5.2,46822,172.16.1.2,5102,9000,33460,2086,62848,65728,6,6,4,1460,132812,1,16778208,380000,82732,76940,65700,0,33304,0,4103733900,63
o,1723548980.048038,172.16.5.2,46822,172.16.1.2,5102,9000,33460,2086,62848,65728,6,6,4,1460,132500,1,16778208,370000,82732,74044,65700,0,30408,0,4103733900,63
i,1723548980.058481,172.16.5.2,46822,172.16.1.2,5102,9000,33460,2086,62848,65728,6,6,4,1460,132500,1,16778208,370000,82732,82732,65700,0,33304,0,4103733900,63
o,1723548980.058502,172.16.5.2,46822,172.16.1.2,5102,9000,34920,2086,64256,65728,6,6,4,1460,133437,1,16778208,370000,82732,79836,65700,0,30408,0,4103733900,63
i,1723548980.058650,172.16.5.2,46822,172.16.1.2,5102,9000,34920,2086,64256,65728,6,6,4,1460,133437,1,16778208,370000,82732,79836,65700,0,34752,0,4103733900,63
o,1723548980.058667,172.16.5.2,46822,172.16.1.2,5102,9000,34920,2086,62848,65728,6,6,4,1460,130625,1,16778208,380000,82732,76940,65700,0,31856,0,4103733900,63
o,1723548980.058788,172.16.5.2,46822,172.16.1.2,5102,9000,34920,2086,62848,65728,6,6,4,1460,130625,1,16778208,380000,82732,76940,65700,0,33304,0,4103733900,63
i,1723548980.078783,172.16.5.2,46822,172.16.1.2,5102,9000,34920,2086,62848,65728,6,6,4,1460,130625,1,16778208,380000,82732,82732,65700,0,34752,0,4103733900,63
o,1723548980.078847,172.16.5.2,46822,172.16.1.2,5102,9000,34920,2086,64256,65728,6,6,4,1460,130625,1,16778208,370000,82732,79836,65700,0,31856,0,4103733900,63
i,1723548980.080855,172.16.5.2,46822,172.16.1.2,5102,9000,34920,2086,64256,65728,6,6,4,1460,130625,1,16778208,370000,82732,82732,65700,0,34752,0,4103733900,63
o,1723548980.080936,172.16.5.2,46822,172.16.1.2,5102,9000,34920,2086,62848,65728,6,6,4,1460,130625,1,16778208,360000,82732,79836,65700,0,31856,0,4103733900,63
i,1723548980.081083,172.16.5.2,46822,172.16.1.2,5102,9000,34920,2086,62848,65728,6,6,4,1460,130625,1,16778208,360000,82732,79836,65700,0,34752,0,4103733900,63
o,1723548980.081099,172.16.5.2,46822,172.16.1.2,5102,9000,34920,2086,62848,65728,6,6,4,1460,130625,1,16778208,350000,82732,76940,65700,0,31856,0,4103733900,63
i,1723548980.110404,172.16.5.2,46822,172.16.1.2,5102,9000,34920,2086,62848,65728,6,6,4,1460,130625,1,16778208,350000,82732,82732,65700,0,34752,0,4103733900,63
o,1723548980.110473,172.16.5.2,46822,172.16.1.2,5102,9000,34920,2086,64256,65728,6,6,4,1460,134375,1,16778208,380000,82732,79836,65700,0,31856,0,4103733900,63
i,1723548980.110618,172.16.5.2,46822,172.16.1.2,5102,9000,34920,2086,64256,65728,6,6,4,1460,134375,1,16778208,380000,82732,79836,65700,0,34752,0,4103733900,63
o,1723548980.110635,172.16.5.2,46822,172.16.1.2,5102,9000,34920,2086,61376,65728,6,6,4,1460,135312,1,16778208,380000,82732,76940,65700,0,31856,0,4103733900,63
i,1723548980.143209,172.16.5.2,46822,172.16.1.2,5102,9000,34920,2086,61376,65728,6,6,4,1460,135312,1,16778208,380000,82732,82732,65700,0,34752,0,4103733900,63
o,1723548980.143244,172.16.5.2,46822,172.16.1.2,5102,9000,34920,2086,64256,65728,6,6,4,1460,135937,1,16778208,370000,82732,79836,65700,0,31856,0,4103733900,63
i,1723548980.167718,172.16.5.2,46822,172.16.1.2,5102,9000,34920,2086,64256,65728,6,6,4,1460,135937,1,16778208,370000,82732,82732,65700,0,34752,0,4103733900,63
o,1723548980.167789,172.16.5.2,46822,172.16.1.2,5102,9000,34920,2086,64256,65728,6,6,4,1460,137812,1,16778208,380000,82732,79836,65700,0,31856,0,4103733900,63
i,1723548980.183627,172.16.5.2,46822,172.16.1.2,5102,9000,34920,2086,64256,65728,6,6,4,1460,137812,1,16778208,380000,82732,82732,65700,0,34752,0,4103733900,63
o,1723548980.183716,172.16.5.2,46822,172.16.1.2,5102,9000,34920,2086,64256,65728,6,6,4,1460,138125,1,16778208,370000,82732,79836,65700,0,31856,0,4103733900,63
i,1723548980.183924,172.16.5.2,46822,172.16.1.2,5102,9000,34920,2086,64256,65728,6,6,4,1460,138125,1,16778208,370000,82732,79836,65700,0,34752,0,4103733900,63
o,1723548980.183953,172.16.5.2,46822,172.16.1.2,5102,9000,34920,2086,61376,65728,6,6,4,1460,138437,1,16778208,370000,82732,76940,65700,0,31856,0,4103733900,63
i,1723548980.188597,172.16.5.2,46822,172.16.1.2,5102,9000,34920,2086,61376,65728,6,6,4,1460,138437,1,16778208,370000,82732,82732,65700,0,34752,0,4103733900,63
o,1723548980.188671,172.16.5.2,46822,172.16.1.2,5102,9000,34920,2086,64256,65728,6,6,4,1460,138750,1,16778208,360000,82732,79836,65700,0,31856,0,4103733900,63
i,1723548980.188839,172.16.5.2,46822,172.16.1.2,5102,9000,34920,2086,64256,65728,6,6,4,1460,138750,1,16778208,360000,82732,79836,65700,0,34752,0,4103733900,63
o,1723548980.188855,172.16.5.2,46822,172.16.1.2,5102,9000,36380,2086,64256,65728,6,6,4,1460,137812,1,16778208,360000,82732,76940,65700,0,31856,0,4103733900,63
i,1723548980.190135,172.16.5.2,46822,172.16.1.2,5102,9000,36380,2086,64256,65728,6,6,4,1460,137812,1,16778208,360000,82732,82732,65700,0,36200,0,4103733900,63
o,1723548980.190216,172.16.5.2,46822,172.16.1.2,5102,9000,36380,2086,62848,65728,6,6,4,1460,136875,1,16778208,360000,82732,79836,65700,0,33304,0,4103733900,63
o,1723548980.190376,172.16.5.2,46822,172.16.1.2,5102,9000,36380,2086,62848,65728,6,6,4,1460,136875,1,16778208,360000,82732,79836,65700,0,34752,0,4103733900,63
i,1723548980.198946,172.16.5.2,46822,172.16.1.2,5102,9000,36380,2086,62848,65728,6,6,4,1460,136875,1,16778208,360000,82732,82732,65700,0,36200,0,4103733900,63
o,1723548980.199050,172.16.5.2,46822,172.16.1.2,5102,9000,36380,2086,62848,65728,6,6,4,1460,133750,1,16778208,380000,82732,79836,65700,0,33304,0,4103733900,63
i,1723548980.226224,172.16.5.2,46822,172.16.1.2,5102,9000,36380,2086,62848,65728,6,6,4,1460,133750,1,16778208,380000,82732,82732,65700,0,36200,0,4103733900,63
