enable_time_secs=1723548798	enable_time_usecs=792902	siftrver=1.3.0	sysname=FreeBSD	sysver=1401000	ipmode=4
o,1723548798.793118,10.0.2.15,22,10.0.2.2,52234,1073725440,17746,1026,65535,65700,0,0,4,1460,312,0,16777220,240000,33580,60,65700,0,0,0,4240215338,63
o,1723548798.793836,10.0.2.15,22,10.0.2.2,52234,1073725440,17746,1026,65535,65700,0,0,4,1460,312,0,16777220,240000,33580,208,65700,0,60,0,4240215338,63
o,1723548798.794350,10.0.2.15,22,10.0.2.2,52234,1073725440,17746,1026,65535,65700,0,0,4,1460,312,0,16777220,240000,33580,280,65700,0,208,0,4240215338,63
i,1723548798.794460,10.0.2.15,22,10.0.2.2,52234,1073725440,17746,1026,65535,65700,0,0,4,1460,312,0,16777220,240000,33580,280,65700,0,280,0,4240215338,63
i,1723548798.794535,10.0.2.15,22,10.0.2.2,52234,1073725440,17806,1026,65535,65700,0,0,4,1460,312,0,4,240000,33580,220,65700,0,220,0,4240215338,63
i,1723548798.794560,10.0.2.15,22,10.0.2.2,52234,1073725440,17954,1026,65535,65700,0,0,4,1460,312,0,4,240000,33580,72,65700,0,72,0,4240215338,63
i,1723548798.795065,10.0.2.15,22,10.0.2.2,52234,1073725440,18026,1026,65535,65700,0,0,4,1460,312,0,4,240000,33580,0,65700,0,0,0,4240215338,63
i,1723548798.795083,10.0.2.15,22,10.0.2.2,52234,1073725440,18026,1026,65535,65700,0,0,4,1460,312,0,4,240000,33580,0,65700,36,0,0,4240215338,63
o,1723548798.795110,10.0.2.15,22,10.0.2.2,52234,1073725440,18026,1026,65535,65700,0,0,4,1460,312,0,5,240000,33580,0,65700,96,0,0,4240215338,63
i,1723548798.795203,10.0.2.15,22,10.0.2.2,52234,1073725440,18026,1026,65535,65700,0,0,4,1460,312,0,4,240000,33580,0,65700,96,0,0,4240215338,63
o,1723548798.795230,10.0.2.15,22,10.0.2.2,52234,1073725440,18026,1026,65535,65604,0,0,5,1460,312,0,7,240000,33580,0,65700,96,0,0,4240215338,63
o,1723548798.795682,10.0.2.15,22,10.0.2.2,52234,1073725440,18026,1026,65535,65604,0,0,8,1460,312,0,4,240000,33580,0,65700,0,0,0,4240215338,63
i,1723548798.795997,10.0.2.15,22,10.0.2.2,52234,1073725440,18026,1026,65535,65604,0,0,8,1460,312,0,67108884,240000,33580,0,65700,0,1,0,4240215338,63
i,1723548802.032779,10.0.2.15,22,10.0.2.2,52242,1073725440,14600,0,65535,65700,0,0,4,1460,312,0,16777216,270000,33580,0,65700,0,0,0,3264981420,63
o,1723548802.042193,10.0.2.15,22,10.0.2.2,52242,1073725440,14600,1026,65535,65700,0,0,4,1460,312,0,16777216,270000,33580,38,65700,42,0,0,3264981420,63
i,1723548802.042981,10.0.2.15,22,10.0.2.2,52242,1073725440,14600,1026,65535,65700,0,0,4,1460,312,0,16777216,270000,33580,38,65700,0,38,0,3264981420,63
i,1723548802.043002,10.0.2.15,22,10.0.2.2,52242,1073725440,14638,1026,65535,65700,0,0,4,1460,312,0,0,240000,33580,0,65700,0,0,0,3264981420,63
i,1723548802.043039,10.0.2.15,22,10.0.2.2,52242,1073725440,14638,1026,65535,65700,0,0,4,1460,312,0,0,240000,33580,0,65700,1460,0,0,3264981420,63
o,1723548802.043057,10.0.2.15,22,10.0.2.2,52242,1073725440,14638,1026,65535,65700,0,0,4,1460,312,0,1,240000,33580,0,65700,1536,0,0,3264981420,63
o,1723548802.043195,10.0.2.15,22,10.0.2.2,52242,1073725440,14638,1026,65535,65700,0,0,4,1460,312,0,16777216,240000,33580,1120,65700,1536,0,0,3264981420,63
i,1723548802.044612,10.0.2.15,22,10.0.2.2,52242,1073725440,14638,1026,65535,65700,0,0,4,1460,312,0,16777216,240000,33580,1120,65700,0,1120,0,3264981420,63
i,1723548802.045519,10.0.2.15,22,10.0.2.2,52242,1073725440,15758,1026,65535,65700,0,0,4,1460,312,0,0,240000,33580,0,65700,0,0,0,3264981420,63
o,1723548802.048378,10.0.2.15,22,10.0.2.2,52242,1073725440,15758,1026,65535,65700,0,0,4,1460,312,0,16777216,240000,33580,492,65700,0,0,0,3264981420,63
i,1723548802.049574,10.0.2.15,22,10.0.2.2,52242,1073725440,15758,1026,65535,65700,0,0,4,1460,312,0,16777216,240000,33580,492,65700,0,492,0,3264981420,63
i,1723548802.053960,10.0.2.15,22,10.0.2.2,52242,1073725440,16250,1026,65535,65700,0,0,4,1460,312,0,0,240000,33580,0,65700,0,0,0,3264981420,63
i,1723548802.054013,10.0.2.15,22,10.0.2.2,52242,1073725440,16250,1026,65535,65700,0,0,4,1460,312,0,0,240000,33580,0,65700,16,0,0,3264981420,63
o,1723548802.054029,10.0.2.15,22,10.0.2.2,52242,1073725440,16250,1026,65535,65700,0,0,4,1460,312,0,1,240000,33580,0,65700,60,0,0,3264981420,63
o,1723548802.054223,10.0.2.15,22,10.0.2.2,52242,1073725440,16250,1026,65535,65700,0,0,4,1460,312,0,16777216,240000,33580,44,65700,0,0,0,3264981420,63
i,1723548802.054700,10.0.2.15,22,10.0.2.2,52242,1073725440,16250,1026,65535,65700,0,0,4,1460,312,0,16777216,240000,33580,44,65700,0,44,0,3264981420,63
i,1723548802.056660,10.0.2.15,22,10.0.2.2,52242,1073725440,16294,1026,65535,65700,0,0,4,1460,312,0,0,240000,33580,0,65700,0,0,0,3264981420,63
o,1723548802.058248,10.0.2.15,22,10.0.2.2,52242,1073725440,16294,1026,65535,65700,0,0,4,1460,312,0,16777216,240000,33580,68,65700,0,0,0,3264981420,63
i,1723548802.059679,10.0.2.15,22,10.0.2.2,52242,1073725440,16294,1026,65535,65700,0,0,4,1460,312,0,16777216,240000,33580,68,65700,0,68,0,3264981420,63
i,1723548802.059729,10.0.2.15,22,10.0.2.2,52242,1073725440,16362,1026,65535,65700,0,0,4,1460,312,0,0,240000,33580,0,65700,0,0,0,3264981420,63
o,1723548802.061114,10.0.2.15,22,10.0.2.2,52242,1073725440,16362,1026,65535,65700,0,0,4,1460,312,0,16777216,240000,33580,332,65700,0,0,0,3264981420,63
i,1723548802.061716,10.0.2.15,22,10.0.2.2,52242,1073725440,16362,1026,65535,65700,0,0,4,1460,312,0,16777216,240000,33580,332,65700,0,332,0,3264981420,63
i,1723548802.063223,10.0.2.15,22,10.0.2.2,52242,1073725440,16694,1026,65535,65700,0,0,4,1460,312,0,0,240000,33580,0,65700,0,0,0,3264981420,63
o,1723548802.082394,10.0.2.15,22,10.0.2.2,52242,1073725440,16694,1026,65535,65700,0,0,4,1460,312,0,16777216,240000,33580,28,65700,0,0,0,3264981420,63
i,1723548802.083016,10.0.2.15,22,10.0.2.2,52242,1073725440,16694,1026,65535,65700,0,0,4,1460,312,0,16777216,240000,33580,28,65700,0,28,0,3264981420,63
i,1723548802.083345,10.0.2.15,22,10.0.2.2,52242,1073725440,16722,1026,65535,65700,0,0,4,1460,312,0,0,240000,33580,0,65700,0,0,0,3264981420,63
o,1723548802.083837,10.0.2.15,22,10.0.2.2,52242,1073725440,16722,1026,65535,65700,0,0,4,1460,312,0,16777216,240000,33580,768,65700,112,0,0,3264981420,63
i,1723548802.084777,10.0.2.15,22,10.0.2.2,52242,1073725440,16722,1026,65535,65700,0,0,4,1460,312,0,16777216,240000,33580,908,65700,0,768,0,3264981420,63
o,1723548802.084794,10.0.2.15,22,10.0.2.2,52242,1073725440,17490,1026,65535,65700,0,0,4,1460,312,0,16777216,240000,33580,140,65700,0,0,0,3264981420,63
i,1723548802.085766,10.0.2.15,22,10.0.2.2,52242,1073725440,17490,1026,65535,65700,0,0,4,1460,312,0,16777216,240000,33580,184,65700,0,140,0,3264981420,63
o,1723548802.085783,10.0.2.15,22,10.0.2.2,52242,1073725440,17630,1026,65535,65700,0,0,4,1460,312,0,16777216,240000,33580,44,65700,0,0,0,3264981420,63
i,1723548802.086358,10.0.2.15,22,10.0.2.2,52242,1073725440,17630,1026,65535,65700,0,0,4,1460,312,0,16777216,240000,33580,44,65700,0,44,0,3264981420,63
i,1723548802.089049,10.0.2.15,22,10.0.2.2,52242,1073725440,17674,1026,65535,65700,0,0,4,1460,312,0,0,240000,33580,0,65700,0,0,0,3264981420,63
o,1723548802.089624,10.0.2.15,22,10.0.2.2,52242,1073725440,17674,1026,65535,65700,0,0,4,1460,312,0,16777220,240000,33580,72,65700,0,0,0,3264981420,63
i,1723548802.090387,10.0.2.15,22,10.0.2.2,52242,1073725440,17674,1026,65535,65700,0,0,4,1460,312,0,16777220,240000,33580,72,65700,0,72,0,3264981420,63
o,1723548802.092666,10.0.2.15,22,10.0.2.2,52242,1073725440,17746,1026,65535,65700,0,0,4,1460,312,0,16777220,240000,33580,104,65700,0,0,0,3264981420,63
i,1723548802.093294,10.0.2.15,22,10.0.2.2,52242,1073725440,17746,1026,65535,65700,0,0,4,1460,312,0,16777220,240000,33580,104,65700,0,104,0,3264981420,63
o,1723548802.095048,10.0.2.15,22,10.0.2.2,52242,1073725440,17850,1026,65535,65700,0,0,4,1460,312,0,16777220,240000,33580,72,65700,0,0,0,3264981420,63
i,1723548802.095440,10.0.2.15,22,10.0.2.2,52242,1073725440,17850,1026,65535,65700,0,0,4,1460,312,0,16777220,240000,33580,72,65700,0,72,0,3264981420,63
i,1723548802.096132,10.0.2.15,22,10.0.2.2,52242,1073725440,17922,1026,65535,65700,0,0,4,1460,312,0,4,240000,33580,0,65700,0,0,0,3264981420,63
i,1723548802.096150,10.0.2.15,22,10.0.2.2,52242,1073725440,17922,1026,65535,65700,0,0,4,1460,312,0,4,240000,33580,0,65700,96,0,0,3264981420,63
o,1723548802.096171,10.0.2.15,22,10.0.2.2,52242,1073725440,17922,1026,65535,65604,0,0,5,1460,312,0,5,240000,33580,0,65700,96,0,0,3264981420,63
o,1723548802.110143,10.0.2.15,22,10.0.2.2,52242,1073725440,17922,1026,65535,65604,0,0,8,1460,312,0,4,240000,33580,0,65700,0,0,0,3264981420,63
i,1723548802.111122,10.0.2.15,22,10.0.2.2,52242,1073725440,17922,1026,65535,65604,0,0,8,1460,312,0,67108884,240000,33580,0,65700,0,1,0,3264981420,63
i,1723548803.187377,10.0.2.15,22,10.0.2.2,52258,1073725440,14600,0,65535,65700,0,0,4,1460,312,0,16777216,270000,33580,0,65700,0,0,0,3716692975,63
o,1723548803.202967,10.0.2.15,22,10.0.2.2,52258,1073725440,14600,1026,65535,65700,0,0,4,1460,312,0,16777216,270000,33580,38,65700,42,0,0,3716692975,63
i,1723548803.203643,10.0.2.15,22,10.0.2.2,52258,1073725440,14600,1026,65535,65700,0,0,4,1460,312,0,16777216,270000,33580,38,65700,0,38,0,3716692975,63
i,1723548803.204399,10.0.2.15,22,10.0.2.2,52258,1073725440,14638,1026,65535,65700,0,0,4,1460,312,0,0,240000,33580,0,65700,0,0,0,3716692975,63
i,1723548803.204416,10.0.2.15,22,10.0.2.2,52258,1073725440,14638,1026,65535,65700,0,0,4,1460,312,0,0,240000,33580,0,65700,1460,0,0,3716692975,63
o,1723548803.204433,10.0.2.15,22,10.0.2.2,52258,1073725440,14638,1026,65535,65700,0,0,4,1460,312,0,1,240000,33580,0,65700,1536,0,0,3716692975,63
o,1723548803.206632,10.0.2.15,22,10.0.2.2,52258,1073725440,14638,1026,65535,65700,0,0,4,1460,312,0,16777216,240000,33580,1120,65700,1536,0,0,3716692975,63
i,1723548803.207884,10.0.2.15,22,10.0.2.2,52258,1073725440,14638,1026,65535,65700,0,0,4,1460,312,0,16777216,240000,33580,1120,65700,0,1120,0,3716692975,63
i,1723548803.208830,10.0.2.15,22,10.0.2.2,52258,1073725440,15758,1026,65535,65700,0,0,4,1460,312,0,0,240000,33580,0,65700,0,0,0,3716692975,63
o,1723548803.212421,10.0.2.15,22,10.0.2.2,52258,1073725440,15758,1026,65535,65700,0,0,4,1460,312,0,16777216,240000,33580,492,65700,0,0,0,3716692975,63
i,1723548803.213509,10.0.2.15,22,10.0.2.2,52258,1073725440,15758,1026,65535,65700,0,0,4,1460,312,0,16777216,240000,33580,492,65700,0,492,0,3716692975,63
i,1723548803.218047,10.0.2.15,22,10.0.2.2,52258,1073725440,16250,1026,65535,65700,0,0,4,1460,312,0,0,240000,33580,0,65700,0,0,0,3716692975,63
i,1723548803.218074,10.0.2.15,22,10.0.2.2,52258,1073725440,16250,1026,65535,65700,0,0,4,1460,312,0,0,240000,33580,0,65700,16,0,0,3716692975,63
o,1723548803.218099,10.0.2.15,22,10.0.2.2,52258,1073725440,16250,1026,65535,65700,0,0,4,1460,312,0,1,240000,33580,0,65700,60,0,0,3716692975,63
o,1723548803.218364,10.0.2.15,22,10.0.2.2,52258,1073725440,16250,1026,65535,65700,0,0,4,1460,312,0,16777216,240000,33580,44,65700,0,0,0,3716692975,63
i,1723548803.219168,10.0.2.15,22,10.0.2.2,52258,1073725440,16250,1026,65535,65700,0,0,4,1460,312,0,16777216,240000,33580,44,65700,0,44,0,3716692975,63
i,1723548803.219186,10.0.2.15,22,10.0.2.2,52258,1073725440,16294,1026,65535,65700,0,0,4,1460,312,0,0,240000,33580,0,65700,0,0,0,3716692975,63
o,1723548803.220631,10.0.2.15,22,10.0.2.2,52258,1073725440,16294,1026,65535,65700,0,0,4,1460,312,0,16777216,240000,33580,68,65700,0,0,0,3716692975,63
i,1723548803.221210,10.0.2.15,22,10.0.2.2,52258,1073725440,16294,1026,65535,65700,0,0,4,1460,312,0,16777216,240000,33580,68,65700,0,68,0,3716692975,63
i,1723548803.221236,10.0.2.15,22,10.0.2.2,52258,1073725440,16362,1026,65535,65700,0,0,4,1460,312,0,0,240000,33580,0,65700,0,0,0,3716692975,63
o,1723548803.222811,10.0.2.15,22,10.0.2.2,52258,1073725440,16362,1026,65535,65700,0,0,4,1460,312,0,16777216,240000,33580,332,65700,0,0,0,3716692975,63
i,1723548803.223817,10.0.2.15,22,10.0.2.2,52258,1073725440,16362,1026,65535,65700,0,0,4,1460,312,0,16777216,240000,33580,332,65700,0,332,0,3716692975,63
i,1723548803.225508,10.0.2.15,22,10.0.2.2,52258,1073725440,16694,1026,65535,65700,0,0,4,1460,312,0,0,240000,33580,0,65700,0,0,0,3716692975,63
o,1723548803.244036,10.0.2.15,22,10.0.2.2,52258,1073725440,16694,1026,65535,65700,0,0,4,1460,312,0,16777216,240000,33580,28,65700,0,0,0,3716692975,63
i,1723548803.244732,10.0.2.15,22,10.0.2.2,52258,1073725440,16694,1026,65535,65700,0,0,4,1460,312,0,16777216,240000,33580,28,65700,0,28,0,3716692975,63
i,1723548803.244753,10.0.2.15,22,10.0.2.2,52258,1073725440,16722,1026,65535,65700,0,0,4,1460,312,0,0,240000,33580,0,65700,0,0,0,3716692975,63
o,1723548803.246759,10.0.2.15,22,10.0.2.2,52258,1073725440,16722,1026,65535,65700,0,0,4,1460,312,0,16777216,240000,33580,768,65700,112,0,0,3716692975,63
i,1723548803.247866,10.0.2.15,22,10.0.2.2,52258,1073725440,16722,1026,65535,65700,0,0,4,1460,312,0,16777216,240000,33580,908,65700,112,768,0,3716692975,63
o,1723548803.247886,10.0.2.15,22,10.0.2.2,52258,1073725440,17490,1026,65535,65700,0,0,4,1460,312,0,16777216,240000,33580,140,65700,112,0,0,3716692975,63
i,1723548803.248246,10.0.2.15,22,10.0.2.2,52258,1073725440,17490,1026,65535,65700,0,0,4,1460,312,0,16777216,240000,33580,140,65700,112,140,0,3716692975,63
o,1723548803.248414,10.0.2.15,22,10.0.2.2,52258,1073725440,17630,1026,65535,65700,0,0,4,1460,312,0,16777216,240000,33580,44,65700,0,0,0,3716692975,63
i,1723548803.249538,10.0.2.15,22,10.0.2.2,52258,1073725440,17630,1026,65535,65700,0,0,4,1460,312,0,16777216,240000,33580,44,65700,0,44,0,3716692975,63
i,1723548803.249559,10.0.2.15,22,10.0.2.2,52258,1073725440,17674,1026,65535,65700,0,0,4,1460,312,0,0,240000,33580,0,65700,0,0,0,3716692975,63
o,1723548803.250664,10.0.2.15,22,10.0.2.2,52258,1073725440,17674,1026,65535,65700,0,0,4,1460,312,0,16777220,240000,33580,72,65700,0,0,0,3716692975,63
i,1723548803.251205,10.0.2.15,22,10.0.2.2,52258,1073725440,17674,1026,65535,65700,0,0,4,1460,312,0,16777220,240000,33580,72,65700,0,72,0,3716692975,63
o,1723548803.368222,172.16.5.2,55811,172.16.1.2,5102,9000,14480,2082,65535,65700,6,6,4,1460,233125,1,16778209,700000,33580,0,65700,0,0,0,178033424,63
o,1723548803.368485,172.16.5.2,55811,172.16.1.2,5102,9000,14480,2082,65535,65700,6,6,4,1460,233125,1,16778212,700000,33580,37,65700,0,0,0,178033424,63
i,1723548803.489280,172.16.5.2,55811,172.16.1.2,5102,9000,14480,2082,65535,65700,6,6,4,1460,233125,1,16778212,700000,33580,37,65700,0,37,0,178033424,63
o,1723548803.490043,172.16.5.2,55811,172.16.1.2,5102,9000,14480,3106,65728,65728,6,6,4,1460,219062,1,16778212,730000,33580,4,65700,0,0,0,178033424,63
o,1723548803.490418,172.16.5.2,55811,172.16.1.2,5102,9000,14480,3106,65728,65728,6,6,4,1460,219062,1,16778212,730000,33580,130,65700,0,4,0,178033424,63
i,1723548803.610765,172.16.5.2,55811,172.16.1.2,5102,9000,14480,3106,65728,65728,6,6,4,1460,219062,1,16778212,730000,33580,130,65700,0,130,0,178033424,63
i,1723548803.610808,172.16.5.2,55811,172.16.1.2,5102,9000,14480,3106,65600,65728,6,6,4,1460,205625,1,996,750000,33580,0,65700,0,0,0,178033424,63
o,1723548803.732896,172.16.5.2,55811,172.16.1.2,5102,9000,14480,3106,65728,65728,6,6,4,1460,205625,1,997,750000,33580,0,65700,0,0,0,178033424,63
o,1723548803.734593,172.16.5.2,26395,172.16.1.2,5102,9000,14480,2082,65535,65700,6,6,4,1460,235625,1,16778209,680000,33580,0,65700,0,0,0,2267045832,63
o,1723548803.734972,172.16.5.2,26395,172.16.1.2,5102,9000,14480,2082,65535,65700,6,6,4,1460,235625,1,16778208,680000,33580,37,65700,0,0,0,2267045832,63
i,1723548803.859074,172.16.5.2,55811,172.16.1.2,5102,9000,14480,3106,65728,65728,6,6,4,1460,205625,1,996,750000,33580,0,65700,0,0,0,178033424,63
i,1723548803.859880,172.16.5.2,55811,172.16.1.2,5102,9000,14480,3106,65728,65728,6,6,4,1460,205625,1,996,750000,33580,0,65700,0,0,0,178033424,63
o,1723548803.859958,172.16.5.2,55811,172.16.1.2,5102,9000,14480,3106,65728,65728,6,6,4,1460,205625,1,997,750000,33580,0,65700,1,0,0,178033424,63
o,1723548803.861228,172.16.5.2,26395,172.16.1.2,5102,9000,14480,2086,65535,65700,6,6,4,1460,235625,1,16778208,680000,33580,33580,65700,0,37,0,2267045832,63
i,1723548803.878354,172.16.5.2,26395,172.16.1.2,5102,9000,14480,2086,65535,65700,6,6,4,1460,235625,1,16778208,680000,33580,33580,65700,0,13069,0,2267045832,63
o,1723548803.878436,172.16.5.2,26395,172.16.1.2,5102,9000,14480,2082,65728,65728,6,6,4,1460,223750,1,16778208,700000,33580,33543,65700,0,13032,0,2267045832,63
i,1723548804.233489,172.16.5.2,26395,172.16.1.2,5102,9000,14480,2082,65728,65728,6,6,4,1460,223750,1,16778208,700000,33580,33543,65700,0,14480,0,2267045832,63
o,1723548804.233569,172.16.5.2,26395,172.16.1.2,5102,9000,14480,2082,65728,65728,6,6,4,1460,243437,1,16778208,810000,33580,32095,65700,0,13032,0,2267045832,63
i,1723548804.258059,172.16.5.2,26395,172.16.1.2,5102,9000,14480,2082,65728,65728,6,6,4,1460,243437,1,16778208,810000,33580,32095,65700,0,14480,0,2267045832,63
o,1723548804.258156,172.16.5.2,26395,172.16.1.2,5102,9000,14480,2086,64256,65728,6,6,4,1460,263125,1,16778208,890000,33580,29199,65700,0,11584,0,2267045832,63
i,1723548804.309878,172.16.5.2,26395,172.16.1.2,5102,9000,14480,2086,64256,65728,6,6,4,1460,263125,1,16778208,890000,33580,33580,65700,0,14480,0,2267045832,63
o,1723548804.309899,172.16.5.2,26395,172.16.1.2,5102,9000,14480,2086,64256,65728,6,6,4,1460,286562,1,16778208,1000000,33580,30684,65700,0,11584,0,2267045832,63
i,1723548804.367697,172.16.5.2,26395,172.16.1.2,5102,9000,14480,2086,64256,65728,6,6,4,1460,286562,1,16778208,1000000,33580,33580,65700,0,14480,0,2267045832,63
o,1723548804.367893,172.16.5.2,26395,172.16.1.2,5102,9000,14480,2082,65728,65728,6,6,4,1460,314687,1,16778208,1120000,33580,32132,65700,0,13032,0,2267045832,63
i,1723548804.378773,172.16.5.2,26395,172.16.1.2,5102,9000,14480,2082,65728,65728,6,6,4,1460,314687,1,16778208,1120000,33580,32132,65700,0,14480,0,2267045832,63
o,1723548804.378857,172.16.5.2,26395,172.16.1.2,5102,9000,14480,2086,64256,65728,6,6,4,1460,340625,1,16778208,1200000,33580,29236,65700,0,11584,0,2267045832,63
i,1723548804.427729,172.16.5.2,26395,172.16.1.2,5102,9000,14480,2086,64256,65728,6,6,4,1460,340625,1,16778208,1200000,33580,33580,65700,0,14480,0,2267045832,63
o,1723548804.428291,172.16.5.2,26395,172.16.1.2,5102,9000,15940,2086,64256,65728,6,6,4,1460,369375,1,16778208,1300000,33580,30684,65700,0,11584,0,2267045832,63
o,1723548804.429341,172.16.5.2,26395,172.16.1.2,5102,9000,15940,2086,64256,65728,6,6,4,1460,369375,1,16778208,1300000,33580,30684,65700,0,13032,0,2267045832,63
i,1723548804.639099,172.16.5.2,26395,172.16.1.2,5102,9000,15940,2086,64256,65728,6,6,4,1460,369375,1,16778208,1300000,41772,41772,65700,0,15928,0,2267045832,63
o,1723548804.639245,172.16.5.2,26395,172.16.1.2,5102,9000,15940,2086,64256,65728,6,6,4,1460,373437,1,16778208,1150000,41772,38876,65700,0,13032,0,2267045832,63
i,1723548804.688646,172.16.5.2,26395,172.16.1.2,5102,9000,15940,2086,64256,65728,6,6,4,1460,373437,1,16778208,1150000,41772,41772,65700,0,15928,0,2267045832,63
o,1723548804.689208,172.16.5.2,26395,172.16.1.2,5102,9000,17376,2082,64256,65728,6,6,4,1460,373437,1,16778208,1150000,41772,41772,65700,0,15928,0,2267045832,63
i,1723548804.717663,172.16.5.2,26395,172.16.1.2,5102,9000,15940,2082,64256,65728,6,6,4,1460,373437,1,16778208,1150000,41772,41772,65700,0,17376,0,2267045832,63
o,1723548804.717851,172.16.5.2,26395,172.16.1.2,5102,9000,18824,2082,64256,65728,6,6,4,1460,373437,1,16778208,1150000,41772,41772,65700,0,17376,0,2267045832,63
i,1723548804.742907,172.16.5.2,26395,172.16.1.2,5102,9000,15940,2082,64256,65728,6,6,4,1460,373437,1,16778208,1150000,41772,41772,65700,0,18824,0,2267045832,63
o,1723548804.742926,172.16.5.2,26395,172.16.1.2,5102,7970,1448,2146,64256,65728,6,6,4,1460,373437,1,554697696,1150000,41772,41772,65700,0,18824,0,2267045832,63
i,1723548804.770218,172.16.5.2,26395,172.16.1.2,5102,7970,1448,2146,64256,65728,6,6,4,1460,373437,1,554697696,1150000,41772,41772,65700,0,18824,0,2267045832,63
i,1723548804.795934,172.16.5.2,26395,172.16.1.2,5102,7970,1448,2146,64256,65728,6,6,4,1460,373437,1,554697696,1150000,41772,41772,65700,0,18824,0,2267045832,63
o,1723548804.795951,172.16.5.2,26395,172.16.1.2,5102,7970,2896,2146,64256,65728,6,6,4,1460,373437,1,554697696,1150000,41772,41772,65700,0,18824,0,2267045832,63
i,1723548804.918130,172.16.5.2,26395,172.16.1.2,5102,7970,2896,2146,64256,65728,6,6,4,1460,373437,1,554697696,1150000,41772,41772,65700,0,18824,0,2267045832,63
i,1723548804.979557,172.16.5.2,26395,172.16.1.2,5102,7970,2896,2146,64256,65728,6,6,4,1460,373437,1,554697696,1150000,41772,41772,65700,0,18824,0,2267045832,63
o,1723548804.979581,172.16.5.2,26395,172.16.1.2,5102,7970,4344,2146,64256,65728,6,6,4,1460,373437,1,554697696,1150000,41772,41772,65700,0,18824,0,2267045832,63
i,1723548804.998123,172.16.5.2,26395,172.16.1.2,5102,7970,4344,2146,64256,65728,6,6,4,1460,373437,1,554697696,1150000,41772,41772,65700,0,18824,0,2267045832,63
o,1723548804.998150,172.16.5.2,26395,172.16.1.2,5102,7970,2896,2146,64256,65728,6,6,4,1460,373437,1,554697697,1150000,41772,41772,65700,0,18824,0,2267045832,63
i,1723548805.048594,172.16.5.2,26395,172.16.1.2,5102,7970,2896,2146,61440,65728,6,6,4,1460,358125,1,554697696,1110000,41772,41772,65700,0,14480,0,2267045832,63
o,1723548805.048630,172.16.5.2,26395,172.16.1.2,5102,7970,1448,2146,61440,65728,6,6,4,1460,358125,1,537920481,1110000,41772,41772,65700,0,14480,0,2267045832,63
i,1723548805.118239,172.16.5.2,26395,172.16.1.2,5102,7970,1448,2146,59968,65728,6,6,4,1460,343437,1,537920480,1080000,41772,41772,65700,0,8688,0,2267045832,63
o,1723548805.118260,172.16.5.2,26395,172.16.1.2,5102,7970,1448,2146,59968,65728,6,6,4,1460,343437,1,554697697,1080000,41772,41772,65700,0,8688,0,2267045832,63
i,1723548805.289017,172.16.5.2,26395,172.16.1.2,5102,7970,1448,2146,64256,65728,6,6,4,1460,318125,1,554697696,1120000,41772,40324,65700,0,7240,0,2267045832,63
o,1723548805.289069,172.16.5.2,26395,172.16.1.2,5102,7970,2896,2146,64256,65728,6,6,4,1460,318125,1,554697697,1120000,41772,40324,65700,0,7240,0,2267045832,63
o,1723548805.289328,172.16.5.2,26395,172.16.1.2,5102,7970,2896,2146,64256,65728,6,6,4,1460,318125,1,554697696,1120000,41772,40324,65700,0,7240,0,2267045832,63
i,1723548805.440451,172.16.5.2,26395,172.16.1.2,5102,7970,2896,2146,64256,65728,6,6,4,1460,299687,1,554697696,1100000,41772,41772,65700,0,5792,0,2267045832,63
o,1723548805.440481,172.16.5.2,26395,172.16.1.2,5102,7970,2896,2082,64256,65728,6,6,4,1460,299687,1,554697697,1100000,41772,41772,65700,0,5792,0,2267045832,63
i,1723548805.450128,172.16.5.2,26395,172.16.1.2,5102,7970,2896,2082,62848,65728,6,6,4,1460,280000,1,554697696,1090000,41772,41772,65700,0,4344,0,2267045832,63
o,1723548805.450197,172.16.5.2,26395,172.16.1.2,5102,7970,2920,2086,62848,65728,6,6,4,1460,263750,1,16778208,1050000,41772,38876,65700,0,1448,0,2267045832,63
i,1723548805.588409,172.16.5.2,26395,172.16.1.2,5102,7970,2920,2086,62848,65728,6,6,4,1460,263750,1,16778208,1050000,41772,41772,65700,0,2896,0,2267045832,63
o,1723548805.588540,172.16.5.2,26395,172.16.1.2,5102,7970,4368,2086,65728,65728,6,6,4,1460,249687,1,16778208,1000000,41772,40324,65700,0,1448,0,2267045832,63
o,1723548805.588744,172.16.5.2,26395,172.16.1.2,5102,7970,4368,2086,65728,65728,6,6,4,1460,249687,1,16778208,1000000,41772,40324,65700,0,2896,0,2267045832,63
i,1723548805.628083,172.16.5.2,26395,172.16.1.2,5102,7970,4368,2086,65728,65728,6,6,4,1460,249687,1,16778208,1000000,41772,40324,65700,0,4344,0,2267045832,63
o,1723548805.628107,172.16.5.2,26395,172.16.1.2,5102,7970,5816,2086,65728,65728,6,6,4,1460,241250,1,16778208,920000,41772,38876,65700,0,2896,0,2267045832,63
i,1723548805.818408,172.16.5.2,26395,172.16.1.2,5102,7970,5816,2086,65728,65728,6,6,4,1460,241250,1,16778208,920000,41772,41772,65700,0,5792,0,2267045832,63
o,1723548805.818443,172.16.5.2,26395,172.16.1.2,5102,7970,8712,2086,64256,65728,6,6,4,1460,240000,1,16778208,810000,41772,38876,65700,0,2896,0,2267045832,63
o,1723548805.818559,172.16.5.2,26395,172.16.1.2,5102,7970,8712,2086,64256,65728,6,6,4,1460,240000,1,16778208,810000,41772,38876,65700,0,4344,0,2267045832,63
i,1723548805.878725,172.16.5.2,26395,172.16.1.2,5102,7970,8712,2086,64256,65728,6,6,4,1460,240000,1,16778208,810000,41772,41772,65700,0,8688,0,2267045832,63
o,1723548805.878808,172.16.5.2,26395,172.16.1.2,5102,7970,8712,2086,64256,65728,6,6,4,1460,241250,1,16778208,730000,41772,38876,65700,0,5792,0,2267045832,63
i,1723548806.033422,172.16.5.2,26395,172.16.1.2,5102,7970,8712,2086,64256,65728,6,6,4,1460,241250,1,16778208,730000,41772,41772,65700,0,8688,0,2267045832,63
o,1723548806.033498,172.16.5.2,26395,172.16.1.2,5102,7970,8712,2086,64256,65728,6,6,4,1460,237500,1,16778208,680000,41772,38876,65700,0,5792,0,2267045832,63
o,1723548806.033611,172.16.5.2,26395,172.16.1.2,5102,7970,8712,2086,64256,65728,6,6,4,1460,237500,1,16778208,680000,41772,38876,65700,0,7240,0,2267045832,63
i,1723548806.127954,172.16.5.2,26395,172.16.1.2,5102,7970,8712,2086,64256,65728,6,6,4,1460,237500,1,16778208,680000,41772,41772,65700,0,8688,0,2267045832,63
o,1723548806.127989,172.16.5.2,26395,172.16.1.2,5102,7970,8712,2086,64256,65728,6,6,4,1460,246562,1,16778208,700000,41772,38876,65700,0,5792,0,2267045832,63
i,1723548806.187717,172.16.5.2,26395,172.16.1.2,5102,7970,8712,2086,64256,65728,6,6,4,1460,246562,1,16778208,700000,41772,41772,65700,0,8688,0,2267045832,63
o,1723548806.187775,172.16.5.2,26395,172.16.1.2,5102,7970,10172,2086,64256,65728,6,6,4,1460,254687,1,16778208,710000,41772,38876,65700,0,5792,0,2267045832,63
i,1723548806.319657,172.16.5.2,26395,172.16.1.2,5102,7970,10172,2086,64256,65728,6,6,4,1460,254687,1,16778208,710000,41772,41772,65700,0,10136,0,2267045832,63
o,1723548806.319733,172.16.5.2,26395,172.16.1.2,5102,7970,10172,2086,64256,65728,6,6,4,1460,258125,1,16778208,680000,41772,38876,65700,0,7240,0,2267045832,63
o,1723548806.320150,172.16.5.2,26395,172.16.1.2,5102,7970,10172,2086,64256,65728,6,6,4,1460,258125,1,16778208,680000,41772,38876,65700,0,8688,0,2267045832,63
i,1723548806.386884,172.16.5.2,26395,172.16.1.2,5102,7970,10172,2086,64256,65728,6,6,4,1460,258125,1,16778208,680000,41772,41772,65700,0,10136,0,2267045832,63
o,1723548806.387157,172.16.5.2,26395,172.16.1.2,5102,7970,10172,2086,65728,65728,6,6,4,1460,258437,1,16778208,620000,41772,40324,65700,0,8688,0,2267045832,63
i,1723548806.471157,172.16.5.2,26395,172.16.1.2,5102,7970,10172,2086,65728,65728,6,6,4,1460,258437,1,16778208,620000,41772,40324,65700,0,10136,0,2267045832,63
o,1723548806.471257,172.16.5.2,26395,172.16.1.2,5102,7970,10172,2086,64256,65728,6,6,4,1460,267500,1,16778208,660000,41772,37428,65700,0,7240,0,2267045832,63
i,1723548806.578144,172.16.5.2,26395,172.16.1.2,5102,7970,10172,2086,64256,65728,6,6,4,1460,267500,1,16778208,660000,41772,41772,65700,0,10136,0,2267045832,63
o,1723548806.578375,172.16.5.2,26395,172.16.1.2,5102,7970,11632,2086,64256,65728,6,6,4,1460,282812,1,16778208,750000,41772,38876,65700,0,7240,0,2267045832,63
i,1723548806.673755,172.16.5.2,26395,172.16.1.2,5102,7970,11632,2086,64256,65728,6,6,4,1460,282812,1,16778208,750000,41772,41772,65700,0,11584,0,2267045832,63
o,1723548806.673996,172.16.5.2,26395,172.16.1.2,5102,7970,11632,2086,64256,65728,6,6,4,1460,292500,1,16778208,770000,41772,38876,65700,0,8688,0,2267045832,63
o,1723548806.674255,172.16.5.2,26395,172.16.1.2,5102,7970,11632,2086,64256,65728,6,6,4,1460,292500,1,16778208,770000,41772,38876,65700,0,10136,0,2267045832,63
i,1723548806.779194,172.16.5.2,26395,172.16.1.2,5102,7970,11632,2086,64256,65728,6,6,4,1460,292500,1,16778208,770000,41772,41772,65700,0,11584,0,2267045832,63
o,1723548806.779266,172.16.5.2,26395,172.16.1.2,5102,7970,11632,2086,65728,65728,6,6,4,1460,304687,1,16778208,810000,41772,40324,65700,0,10136,0,2267045832,63
i,1723548806.857944,172.16.5.2,26395,172.16.1.2,5102,7970,11632,2086,65728,65728,6,6,4,1460,304687,1,16778208,810000,41772,40324,65700,0,11584,0,2267045832,63
o,1723548806.858025,172.16.5.2,26395,172.16.1.2,5102,7970,11632,2086,64256,65728,6,6,4,1460,315625,1,16778208,830000,41772,37428,65700,0,8688,0,2267045832,63
i,1723548806.949598,172.16.5.2,26395,172.16.1.2,5102,7970,11632,2086,64256,65728,6,6,4,1460,315625,1,16778208,830000,41772,41772,65700,0,11584,0,2267045832,63
o,1723548806.949684,172.16.5.2,26395,172.16.1.2,5102,7970,13092,2086,64256,65728,6,6,4,1460,322500,1,16778208,810000,41772,38876,65700,0,8688,0,2267045832,63
i,1723548806.979574,172.16.5.2,26395,172.16.1.2,5102,7970,13092,2086,64256,65728,6,6,4,1460,322500,1,16778208,810000,41772,41772,65700,0,13032,0,2267045832,63
o,1723548806.979644,172.16.5.2,26395,172.16.1.2,5102,7970,13092,2086,64256,65728,6,6,4,1460,332187,1,16778208,830000,41772,38876,65700,0,10136,0,2267045832,63
o,1723548806.979812,172.16.5.2,26395,172.16.1.2,5102,7970,13092,2086,64256,65728,6,6,4,1460,332187,1,16778208,830000,41772,38876,65700,0,11584,0,2267045832,63
i,1723548807.033905,172.16.5.2,26395,172.16.1.2,5102,7970,13092,2086,64256,65728,6,6,4,1460,332187,1,16778208,830000,41772,41772,65700,0,13032,0,2267045832,63
o,1723548807.034010,172.16.5.2,26395,172.16.1.2,5102,7970,13092,2086,65728,65728,6,6,4,1460,335937,1,16778208,790000,41772,40324,65700,0,11584,0,2267045832,63
i,1723548807.054155,172.16.5.2,26395,172.16.1.2,5102,7970,13092,2086,65728,65728,6,6,4,1460,335937,1,16778208,790000,41772,40324,65700,0,13032,0,2267045832,63
o,1723548807.054201,172.16.5.2,26395,172.16.1.2,5102,7970,13092,2086,64256,65728,6,6,4,1460,327812,1,16778208,780000,41772,37428,65700,0,10136,0,2267045832,63
i,1723548807.157752,172.16.5.2,26395,172.16.1.2,5102,7970,13092,2086,64256,65728,6,6,4,1460,327812,1,16778208,780000,41772,41772,65700,0,13032,0,2267045832,63
o,1723548807.157822,172.16.5.2,26395,172.16.1.2,5102,7970,13092,2086,65728,65728,6,6,4,1460,323125,1,16778208,750000,41772,40324,65700,0,11584,0,2267045832,63
i,1723548807.260789,172.16.5.2,26395,172.16.1.2,5102,7970,13092,2086,65728,65728,6,6,4,1460,323125,1,16778208,750000,41772,40324,65700,0,13032,0,2267045832,63
o,1723548807.260928,172.16.5.2,26395,172.16.1.2,5102,7970,13092,2086,62848,65728,6,6,4,1460,321562,1,16778208,700000,41772,37428,65700,0,10136,0,2267045832,63
i,1723548807.338406,172.16.5.2,26395,172.16.1.2,5102,7970,13092,2086,62848,65728,6,6,4,1460,321562,1,16778208,700000,41772,41772,65700,0,13032,0,2267045832,63
o,1723548807.338406,172.16.5.2,26395,172.16.1.2,5102,7970,14552,2086,65728,65728,6,6,4,1460,330312,1,16778208,740000,41772,40324,65700,0,11584,0,2267045832,63
i,1723548807.364640,172.16.5.2,26395,172.16.1.2,5102,7970,14552,2086,65728,65728,6,6,4,1460,330312,1,16778208,740000,41772,40324,65700,0,14480,0,2267045832,63
o,1723548807.364663,172.16.5.2,26395,172.16.1.2,5102,7970,14552,2086,64256,65728,6,6,4,1460,337812,1,16778208,750000,41772,37428,65700,0,11584,0,2267045832,63
o,1723548807.364788,172.16.5.2,26395,172.16.1.2,5102,7970,14552,2086,64256,65728,6,6,4,1460,337812,1,16778208,750000,41772,37428,65700,0,13032,0,2267045832,63
i,1723548807.406383,172.16.5.2,26395,172.16.1.2,5102,7970,14552,2086,64256,65728,6,6,4,1460,337812,1,16778208,750000,41772,41296,65700,0,14480,0,2267045832,63
o,1723548807.406424,172.16.5.2,26395,172.16.1.2,5102,7970,15928,2082,64256,65728,6,6,4,1460,337812,1,16778208,750000,41772,41296,65700,0,14480,0,2267045832,63
i,1723548807.407532,172.16.5.2,26395,172.16.1.2,5102,7970,14552,2082,64256,65728,6,6,4,1460,337812,1,16778208,750000,41772,41296,65700,0,15928,0,2267045832,63
o,1723548807.407555,172.16.5.2,26395,172.16.1.2,5102,7970,17376,2082,64256,65728,6,6,4,1460,337812,1,16778208,750000,41772,41296,65700,0,15928,0,2267045832,63
i,1723548807.438907,172.16.5.2,26395,172.16.1.2,5102,7970,14552,2082,64256,65728,6,6,4,1460,337812,1,16778208,750000,41772,41296,65700,0,17376,0,2267045832,63
o,1723548807.438948,172.16.5.2,26395,172.16.1.2,5102,7276,1448,2146,64256,65728,6,6,4,1460,337812,1,554697696,750000,41772,41296,65700,0,17376,0,2267045832,63
i,1723548807.540528,172.16.5.2,26395,172.16.1.2,5102,7276,1448,2146,64256,65728,6,6,4,1460,337812,1,554697696,750000,41772,41296,65700,0,17376,0,2267045832,63
i,1723548807.568310,172.16.5.2,26395,172.16.1.2,5102,7276,1448,2146,64256,65728,6,6,4,1460,337812,1,554697696,750000,41772,41296,65700,0,17376,0,2267045832,63
o,1723548807.568335,172.16.5.2,26395,172.16.1.2,5102,7276,2896,2082,64256,65728,6,6,4,1460,337812,1,554697696,750000,41772,41296,65700,0,17376,0,2267045832,63
i,1723548807.623394,172.16.5.2,26395,172.16.1.2,5102,7276,2896,2082,64256,65728,6,6,4,1460,337812,1,554697696,750000,41772,41296,65700,0,18824,0,2267045832,63
i,1723548807.698962,172.16.5.2,26395,172.16.1.2,5102,7276,2896,2082,64256,65728,6,6,4,1460,337812,1,554697696,750000,41772,41296,65700,0,18824,0,2267045832,63
o,1723548807.699000,172.16.5.2,26395,172.16.1.2,5102,7276,4344,2082,64256,65728,6,6,4,1460,337812,1,554697696,750000,41772,41296,65700,0,18824,0,2267045832,63
i,1723548807.699135,172.16.5.2,26395,172.16.1.2,5102,7276,4344,2082,64256,65728,6,6,4,1460,337812,1,554697696,750000,41772,41296,65700,0,20272,0,2267045832,63
i,1723548807.729621,172.16.5.2,26395,172.16.1.2,5102,7276,4344,2082,64256,65728,6,6,4,1460,337812,1,537920480,750000,41772,41296,65700,0,20272,0,2267045832,63
i,1723548807.779308,172.16.5.2,26395,172.16.1.2,5102,7276,4344,2082,64256,65728,6,6,4,1460,337812,1,537920480,750000,41772,41296,65700,0,20272,0,2267045832,63
o,1723548807.779364,172.16.5.2,26395,172.16.1.2,5102,7276,5792,2082,64256,65728,6,6,4,1460,337812,1,554697697,750000,41772,41296,65700,0,20272,0,2267045832,63
o,1723548807.779550,172.16.5.2,26395,172.16.1.2,5102,7276,5792,2082,64256,65728,6,6,4,1460,337812,1,554697696,750000,41772,41296,65700,0,20272,0,2267045832,63
i,1723548807.810534,172.16.5.2,26395,172.16.1.2,5102,7276,5792,2082,51264,65728,6,6,4,1460,338125,1,554697696,700000,41772,41772,65700,0,7240,0,2267045832,63
o,1723548807.810569,172.16.5.2,26395,172.16.1.2,5102,7276,5792,2086,51264,65728,6,6,4,1460,338125,1,554697696,700000,41772,41772,65700,0,7240,0,2267045832,63
o,1723548807.810687,172.16.5.2,26395,172.16.1.2,5102,7276,5792,2082,51264,65728,6,6,4,1460,338125,1,554697696,700000,41772,41772,65700,0,7240,0,2267045832,63
i,1723548807.830111,172.16.5.2,26395,172.16.1.2,5102,7276,5792,2082,51264,65728,6,6,4,1460,338125,1,554697696,700000,41772,41772,65700,0,7240,0,2267045832,63
i,1723548807.898474,172.16.5.2,26395,172.16.1.2,5102,7276,8688,2082,51264,65728,6,6,4,1460,338125,1,554697696,700000,41772,41772,65700,0,7240,0,2267045832,63
o,1723548807.898553,172.16.5.2,26395,172.16.1.2,5102,7276,8688,2082,51264,65728,6,6,4,1460,338125,1,554697696,700000,41772,41772,65700,0,7240,0,2267045832,63
i,1723548807.954375,172.16.5.2,26395,172.16.1.2,5102,7276,8688,2082,51264,65728,6,6,4,1460,338125,1,554697696,700000,41772,41772,65700,0,8688,0,2267045832,63
o,1723548807.954481,172.16.5.2,26395,172.16.1.2,5102,7276,10136,2082,51264,65728,6,6,4,1460,338125,1,554697696,700000,41772,41772,65700,0,8688,0,2267045832,63
i,1723548807.994800,172.16.5.2,26395,172.16.1.2,5102,7276,10136,2082,51264,65728,6,6,4,1460,338125,1,554697696,700000,41772,41772,65700,0,10136,0,2267045832,63
o,1723548807.994970,172.16.5.2,26395,172.16.1.2,5102,7276,5804,2086,58496,65728,6,6,4,1460,319687,1,16778208,790000,41772,34532,65700,0,2896,0,2267045832,63
i,1723548807.995600,172.16.5.2,26395,172.16.1.2,5102,7276,5804,2086,58496,65728,6,6,4,1460,319687,1,16778208,790000,41772,34532,65700,0,5792,0,2267045832,63
i,1723548808.142077,172.16.5.2,26395,172.16.1.2,5102,7276,5804,2086,65728,65728,6,6,4,1460,319687,1,16778208,790000,41772,41772,65700,0,5792,0,2267045832,63
o,1723548808.142155,172.16.5.2,26395,172.16.1.2,5102,7276,7252,2086,65728,65728,6,6,4,1460,310000,1,16778208,790000,41772,40324,65700,0,4344,0,2267045832,63
o,1723548808.142281,172.16.5.2,26395,172.16.1.2,5102,7276,7252,2086,65728,65728,6,6,4,1460,310000,1,16778208,790000,41772,40324,65700,0,5792,0,2267045832,63
i,1723548808.158287,172.16.5.2,26395,172.16.1.2,5102,7276,7252,2086,65728,65728,6,6,4,1460,310000,1,16778208,790000,41772,40324,65700,0,7240,0,2267045832,63
o,1723548808.158356,172.16.5.2,26395,172.16.1.2,5102,7276,10148,2086,64256,65728,6,6,4,1460,296250,1,16778208,820000,41772,37428,65700,0,4344,0,2267045832,63
i,1723548808.236635,172.16.5.2,26395,172.16.1.2,5102,7276,10148,2086,64256,65728,6,6,4,1460,296250,1,16778208,820000,41772,41772,65700,0,10136,0,2267045832,63
o,1723548808.236862,172.16.5.2,26395,172.16.1.2,5102,7276,10148,2086,65728,65728,6,6,4,1460,289375,1,16778208,780000,41772,40324,65700,0,8688,0,2267045832,63
i,1723548808.401777,172.16.5.2,26395,172.16.1.2,5102,7276,10148,2086,65728,65728,6,6,4,1460,289375,1,16778208,780000,41772,40324,65700,0,10136,0,2267045832,63
o,1723548808.401808,172.16.5.2,26395,172.16.1.2,5102,7276,10148,2086,65728,65728,6,6,4,1460,284687,1,16778208,740000,41772,38876,65700,0,8688,0,2267045832,63
i,1723548808.486925,172.16.5.2,26395,172.16.1.2,5102,7276,10148,2086,65728,65728,6,6,4,1460,284687,1,16778208,740000,41772,41772,65700,0,10136,0,2267045832,63
o,1723548808.486988,172.16.5.2,26395,172.16.1.2,5102,7276,10148,2086,64256,65728,6,6,4,1460,291875,1,16778208,740000,41772,38876,65700,0,7240,0,2267045832,63
i,1723548808.543894,172.16.5.2,26395,172.16.1.2,5102,7276,10148,2086,64256,65728,6,6,4,1460,291875,1,16778208,740000,41772,41772,65700,0,10136,0,2267045832,63
o,1723548808.544001,172.16.5.2,26395,172.16.1.2,5102,7276,10148,2086,64256,65728,6,6,4,1460,303125,1,16778208,780000,41772,38876,65700,0,7240,0,2267045832,63
i,1723548808.588295,172.16.5.2,26395,172.16.1.2,5102,7276,10148,2086,64256,65728,6,6,4,1460,303125,1,16778208,780000,41772,41772,65700,0,10136,0,2267045832,63
o,1723548808.588341,172.16.5.2,26395,172.16.1.2,5102,7276,10148,2086,65728,65728,6,6,4,1460,317812,1,16778208,840000,41772,40324,65700,0,8688,0,2267045832,63
i,1723548808.599686,172.16.5.2,26395,172.16.1.2,5102,7276,10148,2086,65728,65728,6,6,4,1460,317812,1,16778208,840000,41772,40324,65700,0,10136,0,2267045832,63
o,1723548808.599880,172.16.5.2,26395,172.16.1.2,5102,7276,11608,2086,65728,65728,6,6,4,1460,321875,1,16778208,800000,41772,38876,65700,0,8688,0,2267045832,63
i,1723548808.709008,172.16.5.2,26395,172.16.1.2,5102,7276,11608,2086,65728,65728,6,6,4,1460,321875,1,16778208,800000,41772,41772,65700,0,11584,0,2267045832,63
o,1723548808.709088,172.16.5.2,26395,172.16.1.2,5102,7276,11608,2086,65728,65728,6,6,4,1460,319375,1,16778208,740000,41772,40324,65700,0,10136,0,2267045832,63
i,1723548808.787479,172.16.5.2,26395,172.16.1.2,5102,7276,11608,2086,65728,65728,6,6,4,1460,319375,1,16778208,740000,41772,40324,65700,0,11584,0,2267045832,63
o,1723548808.787562,172.16.5.2,26395,172.16.1.2,5102,7276,11608,2086,65728,65728,6,6,4,1460,317187,1,16778208,700000,41772,38876,65700,0,10136,0,2267045832,63
i,1723548808.850808,172.16.5.2,26395,172.16.1.2,5102,7276,11608,2086,65728,65728,6,6,4,1460,317187,1,16778208,700000,41772,41772,65700,0,11584,0,2267045832,63
o,1723548808.851018,172.16.5.2,26395,172.16.1.2,5102,7276,11608,2086,65728,65728,6,6,4,1460,322812,1,16778208,710000,41772,40324,65700,0,10136,0,2267045832,63
i,1723548808.899101,172.16.5.2,26395,172.16.1.2,5102,7276,11608,2086,65728,65728,6,6,4,1460,322812,1,16778208,710000,41772,40324,65700,0,11584,0,2267045832,63
o,1723548808.899127,172.16.5.2,26395,172.16.1.2,5102,7276,11608,2086,64256,65728,6,6,4,1460,326250,1,16778208,690000,41772,37428,65700,0,8688,0,2267045832,63
i,1723548808.952699,172.16.5.2,26395,172.16.1.2,5102,7276,11608,2086,64256,65728,6,6,4,1460,326250,1,16778208,690000,41772,41772,65700,0,11584,0,2267045832,63
o,1723548808.952725,172.16.5.2,26395,172.16.1.2,5102,7276,11608,2086,65728,65728,6,6,4,1460,331875,1,16778208,700000,41772,40324,65700,0,10136,0,2267045832,63
i,1723548808.999629,172.16.5.2,26395,172.16.1.2,5102,7276,11608,2086,65728,65728,6,6,4,1460,331875,1,16778208,700000,41772,40324,65700,0,11584,0,2267045832,63
o,1723548808.999698,172.16.5.2,26395,172.16.1.2,5102,7276,13068,2086,64256,65728,6,6,4,1460,339375,1,16778208,720000,41772,37428,65700,0,8688,0,2267045832,63
i,1723548809.109093,172.16.5.2,26395,172.16.1.2,5102,7276,13068,2086,64256,65728,6,6,4,1460,339375,1,16778208,720000,41772,41772,65700,0,13032,0,2267045832,63
o,1723548809.109257,172.16.5.2,26395,172.16.1.2,5102,7276,13068,2086,65728,65728,6,6,4,1460,347187,1,16778208,750000,41772,40324,65700,0,11584,0,2267045832,63
i,1723548809.198288,172.16.5.2,26395,172.16.1.2,5102,7276,13068,2086,65728,65728,6,6,4,1460,347187,1,16778208,750000,41772,40324,65700,0,13032,0,2267045832,63
o,1723548809.198367,172.16.5.2,26395,172.16.1.2,5102,7276,13068,2086,64256,65728,6,6,4,1460,355312,1,16778208,770000,41772,37428,65700,0,10136,0,2267045832,63
i,1723548809.308432,172.16.5.2,26395,172.16.1.2,5102,7276,13068,2086,64256,65728,6,6,4,1460,355312,1,16778208,770000,41772,41772,65700,0,13032,0,2267045832,63
o,1723548809.308521,172.16.5.2,26395,172.16.1.2,5102,7276,13068,2086,64256,65728,6,6,4,1460,362187,1,16778208,780000,41772,38876,65700,0,10136,0,2267045832,63
i,1723548809.397957,172.16.5.2,26395,172.16.1.2,5102,7276,13068,2086,64256,65728,6,6,4,1460,362187,1,16778208,780000,41772,41772,65700,0,13032,0,2267045832,63
o,1723548809.398057,172.16.5.2,26395,172.16.1.2,5102,7276,13068,2086,65728,65728,6,6,4,1460,372187,1,16778208,810000,41772,40324,65700,0,11584,0,2267045832,63
i,1723548809.440780,172.16.5.2,26395,172.16.1.2,5102,7276,13068,2086,65728,65728,6,6,4,1460,372187,1,16778208,810000,41772,40324,65700,0,13032,0,2267045832,63
o,1723548809.440935,172.16.5.2,26395,172.16.1.2,5102,7276,13068,2086,64256,65728,6,6,4,1460,380937,1,16778208,830000,41772,37428,65700,0,10136,0,2267045832,63
i,1723548809.492691,172.16.5.2,26395,172.16.1.2,5102,7276,13068,2086,64256,65728,6,6,4,1460,380937,1,16778208,830000,41772,41772,65700,0,13032,0,2267045832,63
o,1723548809.492721,172.16.5.2,26395,172.16.1.2,5102,7276,14480,2082,64256,65728,6,6,4,1460,380937,1,16778208,830000,41772,41772,65700,0,13032,0,2267045832,63
i,1723548809.545242,172.16.5.2,26395,172.16.1.2,5102,7276,13068,2082,64256,65728,6,6,4,1460,380937,1,16778208,830000,41772,41772,65700,0,14480,0,2267045832,63
o,1723548809.545336,172.16.5.2,26395,172.16.1.2,5102,7276,15928,2082,64256,65728,6,6,4,1460,380937,1,16778208,830000,41772,41772,65700,0,14480,0,2267045832,63
i,1723548809.587029,172.16.5.2,26395,172.16.1.2,5102,7276,13068,2082,64256,65728,6,6,4,1460,380937,1,16778208,830000,41772,41772,65700,0,15928,0,2267045832,63
i,1723548809.658169,172.16.5.2,26395,172.16.1.2,5102,6534,1448,2146,64256,65728,6,6,4,1460,380937,1,554697696,830000,41772,41772,65700,0,15928,0,2267045832,63
o,1723548809.658217,172.16.5.2,26395,172.16.1.2,5102,6534,2896,2146,64256,65728,6,6,4,1460,380937,1,554697696,830000,41772,41772,65700,0,15928,0,2267045832,63
i,1723548809.698218,172.16.5.2,26395,172.16.1.2,5102,6534,2896,2146,64256,65728,6,6,4,1460,380937,1,554697696,830000,41772,41772,65700,0,15928,0,2267045832,63
o,1723548809.698486,172.16.5.2,26395,172.16.1.2,5102,6534,4344,2146,64256,65728,6,6,4,1460,380937,1,554697696,830000,41772,41772,65700,0,15928,0,2267045832,63
i,1723548809.751919,172.16.5.2,26395,172.16.1.2,5102,6534,4344,2146,64256,65728,6,6,4,1460,380937,1,554697696,830000,41772,41772,65700,0,15928,0,2267045832,63
i,1723548809.782652,172.16.5.2,26395,172.16.1.2,5102,6534,4344,2146,64256,65728,6,6,4,1460,380937,1,554697696,830000,41772,41772,65700,0,15928,0,2267045832,63
o,1723548809.782682,172.16.5.2,26395,172.16.1.2,5102,6534,5792,2146,64256,65728,6,6,4,1460,380937,1,554697696,830000,41772,41772,65700,0,15928,0,2267045832,63
i,1723548809.793609,172.16.5.2,26395,172.16.1.2,5102,6534,5792,2146,64256,65728,6,6,4,1460,380937,1,554697696,830000,41772,41772,65700,0,15928,0,2267045832,63
i,1723548809.868462,172.16.5.2,26395,172.16.1.2,5102,6534,5792,2146,64256,65728,6,6,4,1460,380937,1,554697696,830000,41772,41772,65700,0,15928,0,2267045832,63
o,1723548809.868506,172.16.5.2,26395,172.16.1.2,5102,6534,4344,2146,64256,65728,6,6,4,1460,380937,1,554697697,830000,41772,41772,65700,0,15928,0,2267045832,63
i,1723548809.898366,172.16.5.2,26395,172.16.1.2,5102,6534,4344,2146,58496,65728,6,6,4,1460,359687,1,554697696,920000,41772,41772,65700,0,8688,0,2267045832,63
o,1723548809.898446,172.16.5.2,26395,172.16.1.2,5102,6534,2896,2146,58496,65728,6,6,4,1460,359687,1,554697697,920000,41772,41772,65700,0,8688,0,2267045832,63
i,1723548809.969257,172.16.5.2,26395,172.16.1.2,5102,6534,2896,2146,64256,65728,6,6,4,1460,340000,1,554697696,970000,41772,40324,65700,0,7240,0,2267045832,63
o,1723548809.969485,172.16.5.2,26395,172.16.1.2,5102,6534,2920,2086,58496,65728,6,6,4,1460,320000,1,16778208,1000000,41772,33084,65700,0,0,0,2267045832,63
o,1723548809.969820,172.16.5.2,26395,172.16.1.2,5102,6534,2920,2086,58496,65728,6,6,4,1460,320000,1,16778208,1000000,41772,33084,65700,0,1448,0,2267045832,63
i,1723548810.107820,172.16.5.2,26395,172.16.1.2,5102,6534,2920,2086,58496,65728,6,6,4,1460,320000,1,16778208,1000000,41772,41772,65700,0,2896,0,2267045832,63
o,1723548810.107924,172.16.5.2,26395,172.16.1.2,5102,6534,4368,2086,65728,65728,6,6,4,1460,296250,1,16778208,1040000,41772,40324,65700,0,1448,0,2267045832,63
o,1723548810.108104,172.16.5.2,26395,172.16.1.2,5102,6534,4368,2086,65728,65728,6,6,4,1460,296250,1,16778208,1040000,41772,40324,65700,0,2896,0,2267045832,63
i,1723548810.169851,172.16.5.2,26395,172.16.1.2,5102,6534,4368,2086,65728,65728,6,6,4,1460,296250,1,16778208,1040000,41772,40324,65700,0,4344,0,2267045832,63
o,1723548810.169926,172.16.5.2,26395,172.16.1.2,5102,6534,5816,2086,65728,65728,6,6,4,1460,284375,1,16778208,990000,41772,38876,65700,0,2896,0,2267045832,63
i,1723548810.297513,172.16.5.2,26395,172.16.1.2,5102,6534,5816,2086,65728,65728,6,6,4,1460,284375,1,16778208,990000,41772,41772,65700,0,5792,0,2267045832,63
o,1723548810.297593,172.16.5.2,26395,172.16.1.2,5102,6534,8712,2086,64256,65728,6,6,4,1460,272812,1,16778208,940000,41772,38876,65700,0,2896,0,2267045832,63
o,1723548810.297711,172.16.5.2,26395,172.16.1.2,5102,6534,8712,2086,64256,65728,6,6,4,1460,272812,1,16778208,940000,41772,38876,65700,0,4344,0,2267045832,63
i,1723548810.384425,172.16.5.2,26395,172.16.1.2,5102,6534,8712,2086,64256,65728,6,6,4,1460,272812,1,16778208,940000,41772,41772,65700,0,8688,0,2267045832,63
o,1723548810.384456,172.16.5.2,26395,172.16.1.2,5102,6534,8712,2086,64256,65728,6,6,4,1460,266250,1,16778208,870000,41772,38876,65700,0,5792,0,2267045832,63
i,1723548810.509603,172.16.5.2,26395,172.16.1.2,5102,6534,8712,2086,64256,65728,6,6,4,1460,266250,1,16778208,870000,41772,41772,65700,0,8688,0,2267045832,63
o,1723548810.509678,172.16.5.2,26395,172.16.1.2,5102,6534,8712,2086,64256,65728,6,6,4,1460,259375,1,16778208,820000,41772,38876,65700,0,5792,0,2267045832,63
o,1723548810.509788,172.16.5.2,26395,172.16.1.2,5102,6534,8712,2086,64256,65728,6,6,4,1460,259375,1,16778208,820000,41772,38876,65700,0,7240,0,2267045832,63
i,1723548810.558373,172.16.5.2,26395,172.16.1.2,5102,6534,8712,2086,64256,65728,6,6,4,1460,259375,1,16778208,820000,41772,41772,65700,0,8688,0,2267045832,63
o,1723548810.558570,172.16.5.2,26395,172.16.1.2,5102,6534,8712,2086,65728,65728,6,6,4,1460,259687,1,16778208,730000,41772,40324,65700,0,7240,0,2267045832,63
i,1723548810.622853,172.16.5.2,26395,172.16.1.2,5102,6534,8712,2086,65728,65728,6,6,4,1460,259687,1,16778208,730000,41772,40324,65700,0,8688,0,2267045832,63
o,1723548810.622885,172.16.5.2,26395,172.16.1.2,5102,6534,10172,2086,64256,65728,6,6,4,1460,268750,1,16778208,740000,41772,37428,65700,0,5792,0,2267045832,63
i,1723548810.688225,172.16.5.2,26395,172.16.1.2,5102,6534,10172,2086,64256,65728,6,6,4,1460,268750,1,16778208,740000,41772,41772,65700,0,10136,0,2267045832,63
o,1723548810.688336,172.16.5.2,26395,172.16.1.2,5102,6534,10172,2086,65728,65728,6,6,4,1460,271562,1,16778208,700000,41772,40324,65700,0,8688,0,2267045832,63
i,1723548810.789193,172.16.5.2,26395,172.16.1.2,5102,6534,10172,2086,65728,65728,6,6,4,1460,271562,1,16778208,700000,41772,40324,65700,0,10136,0,2267045832,63
o,1723548810.789217,172.16.5.2,26395,172.16.1.2,5102,6534,10172,2086,65728,65728,6,6,4,1460,272812,1,16778208,650000,41772,38876,65700,0,8688,0,2267045832,63
i,1723548810.868872,172.16.5.2,26395,172.16.1.2,5102,6534,10172,2086,65728,65728,6,6,4,1460,272812,1,16778208,650000,41772,41772,65700,0,10136,0,2267045832,63
o,1723548810.868945,172.16.5.2,26395,172.16.1.2,5102,6534,10172,2086,64256,65728,6,6,4,1460,283750,1,16778208,710000,41772,38876,65700,0,7240,0,2267045832,63
i,1723548810.940095,172.16.5.2,26395,172.16.1.2,5102,6534,10172,2086,64256,65728,6,6,4,1460,283750,1,16778208,710000,41772,41772,65700,0,10136,0,2267045832,63
o,1723548810.940183,172.16.5.2,26395,172.16.1.2,5102,6534,10172,2086,64256,65728,6,6,4,1460,287187,1,16778208,680000,41772,38876,65700,0,7240,0,2267045832,63
i,1723548811.010468,172.16.5.2,26395,172.16.1.2,5102,6534,10172,2086,64256,65728,6,6,4,1460,287187,1,16778208,680000,41772,41772,65700,0,10136,0,2267045832,63
o,1723548811.010591,172.16.5.2,26395,172.16.1.2,5102,6534,11632,2086,65728,65728,6,6,4,1460,299062,1,16778208,740000,41772,40324,65700,0,8688,0,2267045832,63
i,1723548811.060034,172.16.5.2,26395,172.16.1.2,5102,6534,11632,2086,65728,65728,6,6,4,1460,299062,1,16778208,740000,41772,40324,65700,0,11584,0,2267045832,63
o,1723548811.060109,172.16.5.2,26395,172.16.1.2,5102,6534,11632,2086,65728,65728,6,6,4,1460,308125,1,16778208,760000,41772,38876,65700,0,10136,0,2267045832,63
i,1723548811.127885,172.16.5.2,26395,172.16.1.2,5102,6534,11632,2086,65728,65728,6,6,4,1460,308125,1,16778208,760000,41772,41772,65700,0,11584,0,2267045832,63
o,1723548811.127964,172.16.5.2,26395,172.16.1.2,5102,6534,11632,2086,65728,65728,6,6,4,1460,312187,1,16778208,730000,41772,40324,65700,0,10136,0,2267045832,63
i,1723548811.201351,172.16.5.2,26395,172.16.1.2,5102,6534,11632,2086,65728,65728,6,6,4,1460,312187,1,16778208,730000,41772,40324,65700,0,11584,0,2267045832,63
o,1723548811.201432,172.16.5.2,26395,172.16.1.2,5102,6534,11632,2086,64256,65728,6,6,4,1460,314687,1,16778208,700000,41772,37428,65700,0,8688,0,2267045832,63
i,1723548811.322776,172.16.5.2,26395,172.16.1.2,5102,6534,11632,2086,64256,65728,6,6,4,1460,314687,1,16778208,700000,41772,41772,65700,0,11584,0,2267045832,63
o,1723548811.322807,172.16.5.2,26395,172.16.1.2,5102,6534,11632,2086,64256,65728,6,6,4,1460,324375,1,16778208,740000,41772,38876,65700,0,8688,0,2267045832,63
i,1723548811.419798,172.16.5.2,26395,172.16.1.2,5102,6534,11632,2086,64256,65728,6,6,4,1460,324375,1,16778208,740000,41772,41772,65700,0,11584,0,2267045832,63
o,1723548811.419995,172.16.5.2,26395,172.16.1.2,5102,6534,11632,2086,65728,65728,6,6,4,1460,335312,1,16778208,790000,41772,40324,65700,0,10136,0,2267045832,63
i,1723548811.458130,172.16.5.2,26395,172.16.1.2,5102,6534,11632,2086,65728,65728,6,6,4,1460,335312,1,16778208,790000,41772,40324,65700,0,11584,0,2267045832,63
o,1723548811.458160,172.16.5.2,26395,172.16.1.2,5102,6534,13032,2082,65728,65728,6,6,4,1460,335312,1,16778208,790000,41772,40324,65700,0,11584,0,2267045832,63
i,1723548811.487082,172.16.5.2,26395,172.16.1.2,5102,6534,11632,2082,65728,65728,6,6,4,1460,335312,1,16778208,790000,41772,40324,65700,0,13032,0,2267045832,63
o,1723548811.487109,172.16.5.2,26395,172.16.1.2,5102,6534,14480,2082,65728,65728,6,6,4,1460,335312,1,16778208,790000,41772,40324,65700,0,13032,0,2267045832,63
i,1723548811.558656,172.16.5.2,26395,172.16.1.2,5102,6534,11632,2082,65728,65728,6,6,4,1460,335312,1,16778208,790000,41772,40324,65700,0,14480,0,2267045832,63
i,1723548811.572072,172.16.5.2,26395,172.16.1.2,5102,5816,1448,2146,65728,65728,6,6,4,1460,335312,1,554697696,790000,41772,40324,65700,0,14480,0,2267045832,63
o,1723548811.572099,172.16.5.2,26395,172.16.1.2,5102,5816,2896,2146,65728,65728,6,6,4,1460,335312,1,554697696,790000,41772,40324,65700,0,14480,0,2267045832,63
i,1723548811.632147,172.16.5.2,26395,172.16.1.2,5102,5816,2896,2146,65728,65728,6,6,4,1460,335312,1,554697696,790000,41772,40324,65700,0,14480,0,2267045832,63
o,1723548811.632199,172.16.5.2,26395,172.16.1.2,5102,5816,4344,2082,65728,65728,6,6,4,1460,335312,1,554697696,790000,41772,40324,65700,0,14480,0,2267045832,63
i,1723548811.651100,172.16.5.2,26395,172.16.1.2,5102,5816,4344,2082,65728,65728,6,6,4,1460,335312,1,554697696,790000,41772,40324,65700,0,15928,0,2267045832,63
i,1723548811.724924,172.16.5.2,26395,172.16.1.2,5102,5816,4344,2082,65728,65728,6,6,4,1460,335312,1,554697696,790000,41772,40324,65700,0,15928,0,2267045832,63
o,1723548811.724961,172.16.5.2,26395,172.16.1.2,5102,5816,5792,2082,65728,65728,6,6,4,1460,335312,1,554697696,790000,41772,40324,65700,0,15928,0,2267045832,63
i,1723548811.785745,172.16.5.2,26395,172.16.1.2,5102,5816,5792,2082,65728,65728,6,6,4,1460,335312,1,554697696,790000,41772,40324,65700,0,17376,0,2267045832,63
i,1723548811.840446,172.16.5.2,26395,172.16.1.2,5102,5816,5792,2082,65728,65728,6,6,4,1460,335312,1,554697696,790000,41772,40324,65700,0,17376,0,2267045832,63
i,1723548811.858600,172.16.5.2,26395,172.16.1.2,5102,5816,5792,2082,65728,65728,6,6,4,1460,335312,1,537920480,790000,41772,40324,65700,0,17376,0,2267045832,63
o,1723548811.858672,172.16.5.2,26395,172.16.1.2,5102,5816,5804,2086,51264,65728,6,6,4,1460,328437,1,16778208,770000,41772,25844,65700,0,2896,0,2267045832,63
o,1723548811.858810,172.16.5.2,26395,172.16.1.2,5102,5816,5804,2086,51264,65728,6,6,4,1460,328437,1,16778208,770000,41772,25844,65700,0,4344,0,2267045832,63
i,1723548811.963334,172.16.5.2,26395,172.16.1.2,5102,5816,5804,2086,51264,65728,6,6,4,1460,328437,1,16778208,770000,41772,41772,65700,0,5792,0,2267045832,63
o,1723548811.963414,172.16.5.2,26395,172.16.1.2,5102,5816,8700,2086,62848,65728,6,6,4,1460,328750,1,16778208,710000,41772,38876,65700,0,2896,0,2267045832,63
i,1723548812.028510,172.16.5.2,26395,172.16.1.2,5102,5816,8700,2086,62848,65728,6,6,4,1460,328750,1,16778208,710000,41772,41772,65700,0,8688,0,2267045832,63
o,1723548812.028557,172.16.5.2,26395,172.16.1.2,5102,5816,8700,2086,64256,65728,6,6,4,1460,309062,1,16778208,800000,41772,38876,65700,0,5792,0,2267045832,63
o,1723548812.028701,172.16.5.2,26395,172.16.1.2,5102,5816,8700,2086,64256,65728,6,6,4,1460,309062,1,16778208,800000,41772,38876,65700,0,7240,0,2267045832,63
i,1723548812.162362,172.16.5.2,26395,172.16.1.2,5102,5816,8700,2086,64256,65728,6,6,4,1460,309062,1,16778208,800000,41772,41772,65700,0,8688,0,2267045832,63
o,1723548812.162391,172.16.5.2,26395,172.16.1.2,5102,5816,8700,2086,64256,65728,6,6,4,1460,295625,1,16778208,820000,41772,38876,65700,0,5792,0,2267045832,63
i,1723548812.219424,172.16.5.2,26395,172.16.1.2,5102,5816,8700,2086,64256,65728,6,6,4,1460,295625,1,16778208,820000,41772,41772,65700,0,8688,0,2267045832,63
o,1723548812.219739,172.16.5.2,26395,172.16.1.2,5102,5816,8700,2086,65728,65728,6,6,4,1460,290000,1,16778208,780000,41772,40324,65700,0,7240,0,2267045832,63
i,1723548812.288767,172.16.5.2,26395,172.16.1.2,5102,5816,8700,2086,65728,65728,6,6,4,1460,290000,1,16778208,780000,41772,40324,65700,0,8688,0,2267045832,63
o,1723548812.288870,172.16.5.2,26395,172.16.1.2,5102,5816,10160,2086,64256,65728,6,6,4,1460,293750,1,16778208,740000,41772,37428,65700,0,5792,0,2267045832,63
o,1723548812.289047,172.16.5.2,26395,172.16.1.2,5102,5816,10160,2086,64256,65728,6,6,4,1460,293750,1,16778208,740000,41772,37428,65700,0,7240,0,2267045832,63
i,1723548812.399952,172.16.5.2,26395,172.16.1.2,5102,5816,10160,2086,64256,65728,6,6,4,1460,293750,1,16778208,740000,41772,41772,65700,0,10136,0,2267045832,63
o,1723548812.400056,172.16.5.2,26395,172.16.1.2,5102,5816,10160,2086,65728,65728,6,6,4,1460,303437,1,16778208,770000,41772,40324,65700,0,8688,0,2267045832,63
i,1723548812.452434,172.16.5.2,26395,172.16.1.2,5102,5816,10160,2086,65728,65728,6,6,4,1460,303437,1,16778208,770000,41772,40324,65700,0,10136,0,2267045832,63
o,1723548812.452524,172.16.5.2,26395,172.16.1.2,5102,5816,10160,2086,64256,65728,6,6,4,1460,301875,1,16778208,710000,41772,37428,65700,0,7240,0,2267045832,63
i,1723548812.570190,172.16.5.2,26395,172.16.1.2,5102,5816,10160,2086,64256,65728,6,6,4,1460,301875,1,16778208,710000,41772,41772,65700,0,10136,0,2267045832,63
o,1723548812.570329,172.16.5.2,26395,172.16.1.2,5102,5816,10160,2086,64256,65728,6,6,4,1460,306875,1,16778208,700000,41772,38876,65700,0,7240,0,2267045832,63
o,1723548812.570518,172.16.5.2,26395,172.16.1.2,5102,5816,10160,2086,64256,65728,6,6,4,1460,306875,1,16778208,700000,41772,38876,65700,0,8688,0,2267045832,63
i,1723548812.635987,172.16.5.2,26395,172.16.1.2,5102,5816,10160,2086,64256,65728,6,6,4,1460,306875,1,16778208,700000,41772,41772,65700,0,10136,0,2267045832,63
o,1723548812.636225,172.16.5.2,26395,172.16.1.2,5102,5816,11620,2086,64256,65728,6,6,4,1460,312500,1,16778208,710000,41772,38876,65700,0,7240,0,2267045832,63
i,1723548812.703359,172.16.5.2,26395,172.16.1.2,5102,5816,11620,2086,64256,65728,6,6,4,1460,312500,1,16778208,710000,41772,41772,65700,0,11584,0,2267045832,63
o,1723548812.703427,172.16.5.2,26395,172.16.1.2,5102,5816,11620,2086,65728,65728,6,6,4,1460,312187,1,16778208,660000,41772,40324,65700,0,10136,0,2267045832,63
i,1723548812.755721,172.16.5.2,26395,172.16.1.2,5102,5816,11620,2086,65728,65728,6,6,4,1460,312187,1,16778208,660000,41772,40324,65700,0,11584,0,2267045832,63
o,1723548812.755802,172.16.5.2,26395,172.16.1.2,5102,5816,11620,2086,65728,65728,6,6,4,1460,310937,1,16778208,630000,41772,38876,65700,0,10136,0,2267045832,63
i,1723548812.785818,172.16.5.2,26395,172.16.1.2,5102,5816,11620,2086,65728,65728,6,6,4,1460,310937,1,16778208,630000,41772,41772,65700,0,11584,0,2267045832,63
o,1723548812.785971,172.16.5.2,26395,172.16.1.2,5102,5816,11620,2086,64256,65728,6,6,4,1460,313437,1,16778208,620000,41772,38876,65700,0,8688,0,2267045832,63
o,1723548812.786222,172.16.5.2,26395,172.16.1.2,5102,5816,11620,2086,64256,65728,6,6,4,1460,313437,1,16778208,620000,41772,38876,65700,0,10136,0,2267045832,63
i,1723548812.888576,172.16.5.2,26395,172.16.1.2,5102,5816,11620,2086,64256,65728,6,6,4,1460,313437,1,16778208,620000,41772,41772,65700,0,11584,0,2267045832,63
o,1723548812.888735,172.16.5.2,26395,172.16.1.2,5102,5816,11620,2086,65728,65728,6,6,4,1460,314375,1,16778208,600000,41772,40324,65700,0,10136,0,2267045832,63
i,1723548812.936964,172.16.5.2,26395,172.16.1.2,5102,5816,11620,2086,65728,65728,6,6,4,1460,314375,1,16778208,600000,41772,40324,65700,0,11584,0,2267045832,63
o,1723548812.937363,172.16.5.2,26395,172.16.1.2,5102,5816,11620,2086,64256,65728,6,6,4,1460,312812,1,16778208,590000,41772,37428,65700,0,8688,0,2267045832,63
i,1723548813.029392,172.16.5.2,26395,172.16.1.2,5102,5816,11620,2086,64256,65728,6,6,4,1460,312812,1,16778208,590000,41772,41772,65700,0,11584,0,2267045832,63
o,1723548813.029494,172.16.5.2,26395,172.16.1.2,5102,5816,13080,2086,64256,65728,6,6,4,1460,321250,1,16778208,650000,41772,38876,65700,0,8688,0,2267045832,63
i,1723548813.067009,172.16.5.2,26395,172.16.1.2,5102,5816,13080,2086,64256,65728,6,6,4,1460,321250,1,16778208,650000,41772,41772,65700,0,13032,0,2267045832,63
o,1723548813.067142,172.16.5.2,26395,172.16.1.2,5102,5816,13080,2086,64256,65728,6,6,4,1460,320000,1,16778208,630000,41772,38876,65700,0,10136,0,2267045832,63
o,1723548813.067377,172.16.5.2,26395,172.16.1.2,5102,5816,13080,2086,64256,65728,6,6,4,1460,320000,1,16778208,630000,41772,38876,65700,0,11584,0,2267045832,63
i,1723548813.127469,172.16.5.2,26395,172.16.1.2,5102,5816,13080,2086,64256,65728,6,6,4,1460,320000,1,16778208,630000,41772,41772,65700,0,13032,0,2267045832,63
o,1723548813.127641,172.16.5.2,26395,172.16.1.2,5102,5816,13080,2086,65728,65728,6,6,4,1460,321250,1,16778208,610000,41772,40324,65700,0,11584,0,2267045832,63
i,1723548813.260903,172.16.5.2,26395,172.16.1.2,5102,5816,13080,2086,65728,65728,6,6,4,1460,321250,1,16778208,610000,41772,40324,65700,0,13032,0,2267045832,63
o,1723548813.261029,172.16.5.2,26395,172.16.1.2,5102,5816,13080,2086,65728,65728,6,6,4,1460,327500,1,16778208,640000,41772,38876,65700,0,11584,0,2267045832,63
i,1723548813.312984,172.16.5.2,26395,172.16.1.2,5102,5816,13080,2086,65728,65728,6,6,4,1460,327500,1,16778208,640000,41772,41772,65700,0,13032,0,2267045832,63
o,1723548813.313086,172.16.5.2,26395,172.16.1.2,5102,5816,13080,2086,64256,65728,6,6,4,1460,332812,1,16778208,660000,41772,38876,65700,0,10136,0,2267045832,63
i,1723548813.382565,172.16.5.2,26395,172.16.1.2,5102,5816,13080,2086,64256,65728,6,6,4,1460,332812,1,16778208,660000,41772,41772,65700,0,13032,0,2267045832,63
