enable_time_secs=1723549321	enable_time_usecs=497206	siftrver=1.3.0	sysname=FreeBSD	sysver=1401000	ipmode=4
o,1723549321.497245,10.0.2.15,22,10.0.2.2,52254,1073725440,17746,1026,65535,65700,0,0,4,1460,312,0,16777220,230000,33580,60,65700,0,0,0,3201687713,63
i,1723549321.497916,10.0.2.15,22,10.0.2.2,52254,1073725440,17746,1026,65535,65700,0,0,4,1460,312,0,16777220,230000,33580,60,65700,0,60,0,3201687713,63
o,1723549321.498319,10.0.2.15,22,10.0.2.2,52254,1073725440,17806,1026,65535,65700,0,0,4,1460,312,0,16777220,230000,33580,148,65700,0,0,0,3201687713,63
o,1723549321.498485,10.0.2.15,22,10.0.2.2,52254,1073725440,17806,1026,65535,65700,0,0,4,1460,312,0,16777220,230000,33580,220,65700,0,148,0,3201687713,63
i,1723549321.498811,10.0.2.15,22,10.0.2.2,52254,1073725440,17806,1026,65535,65700,0,0,4,1460,312,0,16777220,230000,33580,220,65700,0,220,0,3201687713,63
i,1723549321.498826,10.0.2.15,22,10.0.2.2,52254,1073725440,17954,1026,65535,65700,0,0,4,1460,312,0,4,230000,33580,72,65700,0,72,0,3201687713,63
i,1723549321.499526,10.0.2.15,22,10.0.2.2,52254,1073725440,18026,1026,65535,65700,0,0,4,1460,312,0,4,230000,33580,0,65700,0,0,0,3201687713,63
i,1723549321.499548,10.0.2.15,22,10.0.2.2,52254,1073725440,18026,1026,65535,65700,0,0,4,1460,312,0,4,230000,33580,0,65700,96,0,0,3201687713,63
o,1723549321.499569,10.0.2.15,22,10.0.2.2,52254,1073725440,18026,1026,65535,65604,0,0,5,1460,312,0,5,230000,33580,0,65700,96,0,0,3201687713,63
o,1723549321.500691,10.0.2.15,22,10.0.2.2,52254,1073725440,18026,1026,65535,65604,0,0,8,1460,312,0,4,230000,33580,0,65700,0,0,0,3201687713,63
i,1723549321.501454,10.0.2.15,22,10.0.2.2,52254,1073725440,18026,1026,65535,65604,0,0,8,1460,312,0,67108884,230000,33580,0,65700,0,1,0,3201687713,63
i,1723549324.718877,10.0.2.15,22,10.0.2.2,52266,1073725440,14600,0,65535,65700,0,0,4,1460,312,0,16777216,270000,33580,0,65700,0,0,0,162661140,63
o,1723549324.730584,10.0.2.15,22,10.0.2.2,52266,1073725440,14600,1026,65535,65700,0,0,4,1460,312,0,16777216,270000,33580,38,65700,42,0,0,162661140,63
i,1723549324.731308,10.0.2.15,22,10.0.2.2,52266,1073725440,14600,1026,65535,65700,0,0,4,1460,312,0,16777216,270000,33580,38,65700,0,38,0,162661140,63
i,1723549324.731635,10.0.2.15,22,10.0.2.2,52266,1073725440,14638,1026,65535,65700,0,0,4,1460,312,0,0,240000,33580,0,65700,0,0,0,162661140,63
i,1723549324.731757,10.0.2.15,22,10.0.2.2,52266,1073725440,14638,1026,65535,65700,0,0,4,1460,312,0,0,240000,33580,0,65700,1460,0,0,162661140,63
o,1723549324.731772,10.0.2.15,22,10.0.2.2,52266,1073725440,14638,1026,65535,65700,0,0,4,1460,312,0,1,240000,33580,0,65700,1536,0,0,162661140,63
o,1723549324.732507,10.0.2.15,22,10.0.2.2,52266,1073725440,14638,1026,65535,65700,0,0,4,1460,312,0,16777216,240000,33580,1120,65700,1536,0,0,162661140,63
i,1723549324.733390,10.0.2.15,22,10.0.2.2,52266,1073725440,14638,1026,65535,65700,0,0,4,1460,312,0,16777216,240000,33580,1120,65700,0,1120,0,162661140,63
i,1723549324.734287,10.0.2.15,22,10.0.2.2,52266,1073725440,15758,1026,65535,65700,0,0,4,1460,312,0,0,240000,33580,0,65700,0,0,0,162661140,63
o,1723549324.737402,10.0.2.15,22,10.0.2.2,52266,1073725440,15758,1026,65535,65700,0,0,4,1460,312,0,16777216,240000,33580,492,65700,0,0,0,162661140,63
i,1723549324.738431,10.0.2.15,22,10.0.2.2,52266,1073725440,15758,1026,65535,65700,0,0,4,1460,312,0,16777216,240000,33580,492,65700,0,492,0,162661140,63
i,1723549324.742346,10.0.2.15,22,10.0.2.2,52266,1073725440,16250,1026,65535,65700,0,0,4,1460,312,0,0,240000,33580,0,65700,0,0,0,162661140,63
i,1723549324.742366,10.0.2.15,22,10.0.2.2,52266,1073725440,16250,1026,65535,65700,0,0,4,1460,312,0,0,240000,33580,0,65700,16,0,0,162661140,63
o,1723549324.742382,10.0.2.15,22,10.0.2.2,52266,1073725440,16250,1026,65535,65700,0,0,4,1460,312,0,1,240000,33580,0,65700,60,0,0,162661140,63
o,1723549324.742604,10.0.2.15,22,10.0.2.2,52266,1073725440,16250,1026,65535,65700,0,0,4,1460,312,0,16777216,240000,33580,44,65700,0,0,0,162661140,63
i,1723549324.743620,10.0.2.15,22,10.0.2.2,52266,1073725440,16250,1026,65535,65700,0,0,4,1460,312,0,16777216,240000,33580,44,65700,0,44,0,162661140,63
i,1723549324.743669,10.0.2.15,22,10.0.2.2,52266,1073725440,16294,1026,65535,65700,0,0,4,1460,312,0,0,240000,33580,0,65700,0,0,0,162661140,63
o,1723549324.745346,10.0.2.15,22,10.0.2.2,52266,1073725440,16294,1026,65535,65700,0,0,4,1460,312,0,16777216,240000,33580,68,65700,0,0,0,162661140,63
i,1723549324.745518,10.0.2.15,22,10.0.2.2,52266,1073725440,16294,1026,65535,65700,0,0,4,1460,312,0,16777216,240000,33580,68,65700,0,68,0,162661140,63
i,1723549324.746308,10.0.2.15,22,10.0.2.2,52266,1073725440,16362,1026,65535,65700,0,0,4,1460,312,0,0,240000,33580,0,65700,0,0,0,162661140,63
o,1723549324.747344,10.0.2.15,22,10.0.2.2,52266,1073725440,16362,1026,65535,65700,0,0,4,1460,312,0,16777216,240000,33580,332,65700,0,0,0,162661140,63
i,1723549324.748176,10.0.2.15,22,10.0.2.2,52266,1073725440,16362,1026,65535,65700,0,0,4,1460,312,0,16777216,240000,33580,332,65700,0,332,0,162661140,63
i,1723549324.749487,10.0.2.15,22,10.0.2.2,52266,1073725440,16694,1026,65535,65700,0,0,4,1460,312,0,0,240000,33580,0,65700,0,0,0,162661140,63
o,1723549324.766895,10.0.2.15,22,10.0.2.2,52266,1073725440,16694,1026,65535,65700,0,0,4,1460,312,0,16777216,240000,33580,28,65700,0,0,0,162661140,63
i,1723549324.767420,10.0.2.15,22,10.0.2.2,52266,1073725440,16694,1026,65535,65700,0,0,4,1460,312,0,16777216,240000,33580,28,65700,0,28,0,162661140,63
i,1723549324.767831,10.0.2.15,22,10.0.2.2,52266,1073725440,16722,1026,65535,65700,0,0,4,1460,312,0,0,240000,33580,0,65700,0,0,0,162661140,63
o,1723549324.768778,10.0.2.15,22,10.0.2.2,52266,1073725440,16722,1026,65535,65700,0,0,4,1460,312,0,16777216,240000,33580,768,65700,112,0,0,162661140,63
i,1723549324.769335,10.0.2.15,22,10.0.2.2,52266,1073725440,16722,1026,65535,65700,0,0,4,1460,312,0,16777216,240000,33580,952,65700,0,768,0,162661140,63
o,1723549324.769351,10.0.2.15,22,10.0.2.2,52266,1073725440,17490,1026,65535,65700,0,0,4,1460,312,0,16777216,240000,33580,184,65700,0,0,0,162661140,63
i,1723549324.769795,10.0.2.15,22,10.0.2.2,52266,1073725440,17490,1026,65535,65700,0,0,4,1460,312,0,16777216,240000,33580,184,65700,0,184,0,162661140,63
i,1723549324.770201,10.0.2.15,22,10.0.2.2,52266,1073725440,17674,1026,65535,65700,0,0,4,1460,312,0,0,240000,33580,0,65700,0,0,0,162661140,63
o,1723549324.770680,10.0.2.15,22,10.0.2.2,52266,1073725440,17674,1026,65535,65700,0,0,4,1460,312,0,16777220,240000,33580,72,65700,0,0,0,162661140,63
i,1723549324.771158,10.0.2.15,22,10.0.2.2,52266,1073725440,17674,1026,65535,65700,0,0,4,1460,312,0,16777220,240000,33580,72,65700,0,72,0,162661140,63
o,1723549324.773374,10.0.2.15,22,10.0.2.2,52266,1073725440,17746,1026,65535,65700,0,0,4,1460,312,0,16777220,240000,33580,104,65700,0,0,0,162661140,63
i,1723549324.774124,10.0.2.15,22,10.0.2.2,52266,1073725440,17746,1026,65535,65700,0,0,4,1460,312,0,16777220,240000,33580,104,65700,0,104,0,162661140,63
o,1723549324.788393,10.0.2.15,22,10.0.2.2,52266,1073725440,17850,1026,65535,65700,0,0,4,1460,312,0,16777220,240000,33580,72,65700,0,0,0,162661140,63
i,1723549324.788823,10.0.2.15,22,10.0.2.2,52266,1073725440,17850,1026,65535,65700,0,0,4,1460,312,0,16777220,240000,33580,72,65700,0,72,0,162661140,63
i,1723549324.788837,10.0.2.15,22,10.0.2.2,52266,1073725440,17922,1026,65535,65700,0,0,4,1460,312,0,4,240000,33580,0,65700,0,0,0,162661140,63
i,1723549324.789604,10.0.2.15,22,10.0.2.2,52266,1073725440,17922,1026,65535,65700,0,0,4,1460,312,0,4,240000,33580,0,65700,96,0,0,162661140,63
o,1723549324.789649,10.0.2.15,22,10.0.2.2,52266,1073725440,17922,1026,65535,65604,0,0,5,1460,312,0,5,240000,33580,0,65700,96,0,0,162661140,63
o,1723549324.801691,10.0.2.15,22,10.0.2.2,52266,1073725440,17922,1026,65535,65604,0,0,8,1460,312,0,4,240000,33580,0,65700,0,0,0,162661140,63
i,1723549324.802385,10.0.2.15,22,10.0.2.2,52266,1073725440,17922,1026,65535,65604,0,0,8,1460,312,0,67108884,240000,33580,0,65700,0,1,0,162661140,63
i,1723549325.888252,10.0.2.15,22,10.0.2.2,52270,1073725440,14600,0,65535,65700,0,0,4,1460,312,0,16777216,270000,33580,0,65700,0,0,0,2714137314,63
o,1723549325.900647,10.0.2.15,22,10.0.2.2,52270,1073725440,14600,1026,65535,65700,0,0,4,1460,312,0,16777216,270000,33580,38,65700,42,0,0,2714137314,63
i,1723549325.901329,10.0.2.15,22,10.0.2.2,52270,1073725440,14600,1026,65535,65700,0,0,4,1460,312,0,16777216,270000,33580,38,65700,0,38,0,2714137314,63
i,1723549325.901930,10.0.2.15,22,10.0.2.2,52270,1073725440,14638,1026,65535,65700,0,0,4,1460,312,0,0,240000,33580,0,65700,0,0,0,2714137314,63
i,1723549325.901950,10.0.2.15,22,10.0.2.2,52270,1073725440,14638,1026,65535,65700,0,0,4,1460,312,0,0,240000,33580,0,65700,1460,0,0,2714137314,63
o,1723549325.901970,10.0.2.15,22,10.0.2.2,52270,1073725440,14638,1026,65535,65700,0,0,4,1460,312,0,1,240000,33580,0,65700,1536,0,0,2714137314,63
o,1723549325.904100,10.0.2.15,22,10.0.2.2,52270,1073725440,14638,1026,65535,65700,0,0,4,1460,312,0,16777216,240000,33580,1120,65700,1536,0,0,2714137314,63
i,1723549325.904466,10.0.2.15,22,10.0.2.2,52270,1073725440,14638,1026,65535,65700,0,0,4,1460,312,0,16777216,240000,33580,1120,65700,0,1120,0,2714137314,63
i,1723549325.905871,10.0.2.15,22,10.0.2.2,52270,1073725440,15758,1026,65535,65700,0,0,4,1460,312,0,0,240000,33580,0,65700,0,0,0,2714137314,63
o,1723549325.909358,10.0.2.15,22,10.0.2.2,52270,1073725440,15758,1026,65535,65700,0,0,4,1460,312,0,16777216,240000,33580,492,65700,0,0,0,2714137314,63
i,1723549325.910081,10.0.2.15,22,10.0.2.2,52270,1073725440,15758,1026,65535,65700,0,0,4,1460,312,0,16777216,240000,33580,492,65700,0,492,0,2714137314,63
i,1723549325.914789,10.0.2.15,22,10.0.2.2,52270,1073725440,16250,1026,65535,65700,0,0,4,1460,312,0,0,240000,33580,0,65700,0,0,0,2714137314,63
i,1723549325.914809,10.0.2.15,22,10.0.2.2,52270,1073725440,16250,1026,65535,65700,0,0,4,1460,312,0,0,240000,33580,0,65700,16,0,0,2714137314,63
o,1723549325.914827,10.0.2.15,22,10.0.2.2,52270,1073725440,16250,1026,65535,65700,0,0,4,1460,312,0,1,240000,33580,0,65700,60,0,0,2714137314,63
o,1723549325.915343,10.0.2.15,22,10.0.2.2,52270,1073725440,16250,1026,65535,65700,0,0,4,1460,312,0,16777216,240000,33580,44,65700,0,0,0,2714137314,63
i,1723549325.915865,10.0.2.15,22,10.0.2.2,52270,1073725440,16250,1026,65535,65700,0,0,4,1460,312,0,16777216,240000,33580,44,65700,0,44,0,2714137314,63
i,1723549325.915922,10.0.2.15,22,10.0.2.2,52270,1073725440,16294,1026,65535,65700,0,0,4,1460,312,0,0,240000,33580,0,65700,0,0,0,2714137314,63
o,1723549325.917493,10.0.2.15,22,10.0.2.2,52270,1073725440,16294,1026,65535,65700,0,0,4,1460,312,0,16777216,240000,33580,68,65700,0,0,0,2714137314,63
i,1723549325.918138,10.0.2.15,22,10.0.2.2,52270,1073725440,16294,1026,65535,65700,0,0,4,1460,312,0,16777216,240000,33580,68,65700,0,68,0,2714137314,63
i,1723549325.918154,10.0.2.15,22,10.0.2.2,52270,1073725440,16362,1026,65535,65700,0,0,4,1460,312,0,0,240000,33580,0,65700,0,0,0,2714137314,63
o,1723549325.919596,10.0.2.15,22,10.0.2.2,52270,1073725440,16362,1026,65535,65700,0,0,4,1460,312,0,16777216,240000,33580,332,65700,0,0,0,2714137314,63
i,1723549325.920406,10.0.2.15,22,10.0.2.2,52270,1073725440,16362,1026,65535,65700,0,0,4,1460,312,0,16777216,240000,33580,332,65700,0,332,0,2714137314,63
i,1723549325.921706,10.0.2.15,22,10.0.2.2,52270,1073725440,16694,1026,65535,65700,0,0,4,1460,312,0,0,240000,33580,0,65700,0,0,0,2714137314,63
o,1723549325.938304,10.0.2.15,22,10.0.2.2,52270,1073725440,16694,1026,65535,65700,0,0,4,1460,312,0,16777216,240000,33580,28,65700,0,0,0,2714137314,63
i,1723549325.939547,10.0.2.15,22,10.0.2.2,52270,1073725440,16694,1026,65535,65700,0,0,4,1460,312,0,16777216,240000,33580,28,65700,0,28,0,2714137314,63
i,1723549325.940074,10.0.2.15,22,10.0.2.2,52270,1073725440,16722,1026,65535,65700,0,0,4,1460,312,0,0,240000,33580,0,65700,0,0,0,2714137314,63
o,1723549325.941497,10.0.2.15,22,10.0.2.2,52270,1073725440,16722,1026,65535,65700,0,0,4,1460,312,0,16777216,240000,33580,768,65700,112,0,0,2714137314,63
i,1723549325.942229,10.0.2.15,22,10.0.2.2,52270,1073725440,16722,1026,65535,65700,0,0,4,1460,312,0,16777216,240000,33580,952,65700,0,768,0,2714137314,63
o,1723549325.942247,10.0.2.15,22,10.0.2.2,52270,1073725440,17490,1026,65535,65700,0,0,4,1460,312,0,16777216,230000,33580,184,65700,0,0,0,2714137314,63
i,1723549325.942706,10.0.2.15,22,10.0.2.2,52270,1073725440,17490,1026,65535,65700,0,0,4,1460,312,0,16777216,230000,33580,184,65700,0,184,0,2714137314,63
i,1723549325.942749,10.0.2.15,22,10.0.2.2,52270,1073725440,17674,1026,65535,65700,0,0,4,1460,312,0,0,230000,33580,0,65700,0,0,0,2714137314,63
o,1723549325.943774,10.0.2.15,22,10.0.2.2,52270,1073725440,17674,1026,65535,65700,0,0,4,1460,312,0,16777220,230000,33580,72,65700,0,0,0,2714137314,63
i,1723549325.944427,10.0.2.15,22,10.0.2.2,52270,1073725440,17674,1026,65535,65700,0,0,4,1460,312,0,16777220,230000,33580,72,65700,0,72,0,2714137314,63
o,1723549326.074360,172.16.5.2,27549,172.16.1.2,5102,10218,14480,2082,65535,65700,6,6,4,1460,227500,1,16778209,770000,33580,0,65700,0,0,0,4152061547,63
o,1723549326.074665,172.16.5.2,27549,172.16.1.2,5102,10218,14480,2082,65535,65700,6,6,4,1460,227500,1,16778212,770000,33580,37,65700,0,0,0,4152061547,63
i,1723549326.189095,172.16.5.2,27549,172.16.1.2,5102,10218,14480,2082,65535,65700,6,6,4,1460,227500,1,16778212,770000,33580,37,65700,0,37,0,4152061547,63
o,1723549326.189479,172.16.5.2,27549,172.16.1.2,5102,10218,14480,3106,65728,65728,6,6,4,1460,212812,1,16778212,790000,33580,4,65700,0,0,0,4152061547,63
o,1723549326.189609,172.16.5.2,27549,172.16.1.2,5102,10218,14480,3106,65728,65728,6,6,4,1460,212812,1,16778212,790000,33580,130,65700,0,4,0,4152061547,63
i,1723549326.314546,172.16.5.2,27549,172.16.1.2,5102,10218,14480,3106,65728,65728,6,6,4,1460,212812,1,16778212,790000,33580,130,65700,0,130,0,4152061547,63
i,1723549326.314546,172.16.5.2,27549,172.16.1.2,5102,10218,14480,3106,65600,65728,6,6,4,1460,202500,1,996,770000,33580,0,65700,0,0,0,4152061547,63
o,1723549326.404555,172.16.5.2,27549,172.16.1.2,5102,10218,14480,3106,65728,65728,6,6,4,1460,202500,1,997,770000,33580,0,65700,0,0,0,4152061547,63
o,1723549326.418062,172.16.5.2,59056,172.16.1.2,5102,10218,14480,2082,65535,65700,6,6,4,1460,222500,1,16778209,810000,33580,0,65700,0,0,0,2816870682,63
o,1723549326.418182,172.16.5.2,59056,172.16.1.2,5102,10218,14480,2082,65535,65700,6,6,4,1460,222500,1,16778208,810000,33580,37,65700,0,0,0,2816870682,63
i,1723549326.539766,172.16.5.2,27549,172.16.1.2,5102,10218,14480,3106,65728,65728,6,6,4,1460,202500,1,996,770000,33580,0,65700,0,0,0,4152061547,63
i,1723549326.540058,172.16.5.2,27549,172.16.1.2,5102,10218,14480,3106,65728,65728,6,6,4,1460,202500,1,996,770000,33580,0,65700,1,0,0,4152061547,63
o,1723549326.540113,172.16.5.2,27549,172.16.1.2,5102,10218,14480,3106,65728,65728,6,6,4,1460,202500,1,997,770000,33580,0,65700,1,0,0,4152061547,63
o,1723549326.541052,172.16.5.2,59056,172.16.1.2,5102,10218,14480,2086,65535,65700,6,6,4,1460,222500,1,16778208,810000,33580,33580,65700,0,37,0,2816870682,63
i,1723549326.569254,172.16.5.2,59056,172.16.1.2,5102,10218,14480,2086,65535,65700,6,6,4,1460,222500,1,16778208,810000,33580,33580,65700,0,13069,0,2816870682,63
o,1723549326.569347,172.16.5.2,59056,172.16.1.2,5102,10218,14480,2082,65728,65728,6,6,4,1460,213437,1,16778208,770000,33580,33543,65700,0,13032,0,2816870682,63
i,1723549326.647910,172.16.5.2,59056,172.16.1.2,5102,10218,14480,2082,65728,65728,6,6,4,1460,213437,1,16778208,770000,33580,33543,65700,0,14480,0,2816870682,63
o,1723549326.647990,172.16.5.2,59056,172.16.1.2,5102,10218,14480,2086,62848,65728,6,6,4,1460,200625,1,16778208,770000,33580,30647,65700,0,11584,0,2816870682,63
i,1723549326.679355,172.16.5.2,59056,172.16.1.2,5102,10218,14480,2086,62848,65728,6,6,4,1460,200625,1,16778208,770000,33580,33580,65700,0,14480,0,2816870682,63
o,1723549326.679375,172.16.5.2,59056,172.16.1.2,5102,10218,14480,2086,64256,65728,6,6,4,1460,193125,1,16778208,730000,33580,30684,65700,0,11584,0,2816870682,63
i,1723549326.679605,172.16.5.2,59056,172.16.1.2,5102,10218,14480,2086,64256,65728,6,6,4,1460,193125,1,16778208,730000,33580,30684,65700,0,14480,0,2816870682,63
o,1723549326.679605,172.16.5.2,59056,172.16.1.2,5102,10218,14480,2086,64256,65728,6,6,4,1460,186562,1,16778208,690000,33580,27788,65700,0,11584,0,2816870682,63
i,1723549326.680402,172.16.5.2,59056,172.16.1.2,5102,10218,14480,2086,64256,65728,6,6,4,1460,186562,1,16778208,690000,33580,33580,65700,0,14480,0,2816870682,63
o,1723549326.680464,172.16.5.2,59056,172.16.1.2,5102,10218,14480,2086,61376,65728,6,6,4,1460,180937,1,16778208,660000,33580,30684,65700,0,11584,0,2816870682,63
i,1723549326.680614,172.16.5.2,59056,172.16.1.2,5102,10218,14480,2086,61376,65728,6,6,4,1460,180937,1,16778208,660000,33580,30684,65700,0,14480,0,2816870682,63
o,1723549326.680644,172.16.5.2,59056,172.16.1.2,5102,10218,15940,2086,64256,65728,6,6,4,1460,175937,1,16778208,620000,33580,27788,65700,0,11584,0,2816870682,63
o,1723549326.680783,172.16.5.2,59056,172.16.1.2,5102,10218,15940,2086,64256,65728,6,6,4,1460,175937,1,16778208,620000,33580,27788,65700,0,13032,0,2816870682,63
i,1723549326.814350,172.16.5.2,59056,172.16.1.2,5102,10218,15940,2086,64256,65728,6,6,4,1460,175937,1,16778208,620000,33580,33580,65700,0,15928,0,2816870682,63
o,1723549326.814533,172.16.5.2,59056,172.16.1.2,5102,10218,15940,2086,64256,65728,6,6,4,1460,175312,1,16778208,560000,33580,30684,65700,0,13032,0,2816870682,63
i,1723549326.815965,172.16.5.2,59056,172.16.1.2,5102,10218,15940,2086,64256,65728,6,6,4,1460,175312,1,16778208,560000,41772,30684,65700,0,15928,0,2816870682,63
o,1723549326.816023,172.16.5.2,59056,172.16.1.2,5102,10218,15940,2086,62848,65728,6,6,4,1460,170937,1,16778208,550000,41772,27788,65700,0,13032,0,2816870682,63
i,1723549326.816374,172.16.5.2,59056,172.16.1.2,5102,10218,15940,2086,62848,65728,6,6,4,1460,170937,1,16778208,550000,41772,27788,65700,0,15928,0,2816870682,63
o,1723549326.816414,172.16.5.2,59056,172.16.1.2,5102,10218,15940,2086,59968,65728,6,6,4,1460,167187,1,16778208,530000,41772,24892,65700,0,13032,0,2816870682,63
i,1723549326.838282,172.16.5.2,59056,172.16.1.2,5102,10218,15940,2086,59968,65728,6,6,4,1460,167187,1,16778208,530000,41772,41772,65700,0,15928,0,2816870682,63
o,1723549326.838362,172.16.5.2,59056,172.16.1.2,5102,10218,15940,2086,62848,65728,6,6,4,1460,166562,1,16778208,490000,41772,38876,65700,0,13032,0,2816870682,63
i,1723549326.838657,172.16.5.2,59056,172.16.1.2,5102,10218,15940,2086,62848,65728,6,6,4,1460,166562,1,16778208,490000,41772,38876,65700,0,15928,0,2816870682,63
o,1723549326.838673,172.16.5.2,59056,172.16.1.2,5102,10218,15940,2086,59968,65728,6,6,4,1460,165937,1,16778208,460000,41772,35980,65700,0,13032,0,2816870682,63
o,1723549326.838815,172.16.5.2,59056,172.16.1.2,5102,10218,15940,2086,59968,65728,6,6,4,1460,165937,1,16778208,460000,41772,35980,65700,0,14480,0,2816870682,63
i,1723549326.881571,172.16.5.2,59056,172.16.1.2,5102,10218,15940,2086,59968,65728,6,6,4,1460,165937,1,16778208,460000,41772,41772,65700,0,15928,0,2816870682,63
o,1723549326.881613,172.16.5.2,59056,172.16.1.2,5102,10218,17400,2086,65728,65728,6,6,4,1460,170312,1,16778208,480000,41772,40324,65700,0,14480,0,2816870682,63
i,1723549326.960243,172.16.5.2,59056,172.16.1.2,5102,10218,17400,2086,65728,65728,6,6,4,1460,170312,1,16778208,480000,41772,40324,65700,0,17376,0,2816870682,63
o,1723549326.960343,172.16.5.2,59056,172.16.1.2,5102,10218,17400,2086,62848,65728,6,6,4,1460,165312,1,16778208,490000,41772,37428,65700,0,14480,0,2816870682,63
i,1723549326.960486,172.16.5.2,59056,172.16.1.2,5102,10218,17400,2086,62848,65728,6,6,4,1460,165312,1,16778208,490000,41772,37428,65700,0,17376,0,2816870682,63
o,1723549326.960502,172.16.5.2,59056,172.16.1.2,5102,10218,17400,2086,59968,65728,6,6,4,1460,160937,1,16778208,490000,41772,34532,65700,0,14480,0,2816870682,63
i,1723549326.960683,172.16.5.2,59056,172.16.1.2,5102,10218,17400,2086,59968,65728,6,6,4,1460,160937,1,16778208,490000,41772,34532,65700,0,17376,0,2816870682,63
o,1723549326.960699,172.16.5.2,59056,172.16.1.2,5102,10218,17400,2086,57088,65728,6,6,4,1460,157187,1,16778208,480000,41772,31636,65700,0,14480,0,2816870682,63
i,1723549326.990091,172.16.5.2,59056,172.16.1.2,5102,10218,17400,2086,57088,65728,6,6,4,1460,157187,1,16778208,480000,41772,41772,65700,0,17376,0,2816870682,63
o,1723549326.990125,172.16.5.2,59056,172.16.1.2,5102,10218,17400,2086,64256,65728,6,6,4,1460,156562,1,16778208,450000,41772,38876,65700,0,14480,0,2816870682,63
i,1723549326.990304,172.16.5.2,59056,172.16.1.2,5102,10218,17400,2086,64256,65728,6,6,4,1460,156562,1,16778208,450000,41772,38876,65700,0,17376,0,2816870682,63
o,1723549326.990321,172.16.5.2,59056,172.16.1.2,5102,10218,17400,2086,61376,65728,6,6,4,1460,155937,1,16778208,430000,41772,35980,65700,0,14480,0,2816870682,63
o,1723549326.990450,172.16.5.2,59056,172.16.1.2,5102,10218,17400,2086,61376,65728,6,6,4,1460,155937,1,16778208,430000,41772,35980,65700,0,15928,0,2816870682,63
i,1723549327.034591,172.16.5.2,59056,172.16.1.2,5102,10218,17400,2086,61376,65728,6,6,4,1460,155937,1,16778208,430000,41772,41772,65700,0,17376,0,2816870682,63
o,1723549327.034674,172.16.5.2,59056,172.16.1.2,5102,10218,18860,2086,62848,65728,6,6,4,1460,155312,1,16778208,420000,41772,38876,65700,0,14480,0,2816870682,63
i,1723549327.128349,172.16.5.2,59056,172.16.1.2,5102,10218,18860,2086,62848,65728,6,6,4,1460,155312,1,16778208,420000,41772,41772,65700,0,18824,0,2816870682,63
o,1723549327.128527,172.16.5.2,59056,172.16.1.2,5102,10218,18860,2086,62848,65728,6,6,4,1460,157187,1,16778208,420000,41772,38876,65700,0,15928,0,2816870682,63
i,1723549327.128693,172.16.5.2,59056,172.16.1.2,5102,10218,18860,2086,62848,65728,6,6,4,1460,157187,1,16778208,420000,41772,38876,65700,0,18824,0,2816870682,63
o,1723549327.128714,172.16.5.2,59056,172.16.1.2,5102,10218,18860,2086,59968,65728,6,6,4,1460,159062,1,16778208,420000,41772,35980,65700,0,15928,0,2816870682,63
i,1723549327.128910,172.16.5.2,59056,172.16.1.2,5102,10218,18860,2086,59968,65728,6,6,4,1460,159062,1,16778208,420000,41772,35980,65700,0,18824,0,2816870682,63
o,1723549327.128927,172.16.5.2,59056,172.16.1.2,5102,10218,18860,2086,62848,65728,6,6,4,1460,160625,1,16778208,420000,41772,33084,65700,0,15928,0,2816870682,63
i,1723549327.129675,172.16.5.2,59056,172.16.1.2,5102,10218,18860,2086,62848,65728,6,6,4,1460,160625,1,16778208,420000,41772,41772,65700,0,18824,0,2816870682,63
o,1723549327.129691,172.16.5.2,59056,172.16.1.2,5102,10218,18860,2086,64256,65728,6,6,4,1460,158125,1,16778208,420000,41772,38876,65700,0,15928,0,2816870682,63
i,1723549327.148444,172.16.5.2,59056,172.16.1.2,5102,10218,18860,2086,64256,65728,6,6,4,1460,158125,1,16778208,420000,41772,41772,65700,0,18824,0,2816870682,63
o,1723549327.148484,172.16.5.2,59056,172.16.1.2,5102,10218,18860,2086,62848,65728,6,6,4,1460,158437,1,16778208,410000,41772,38876,65700,0,15928,0,2816870682,63
o,1723549327.148628,172.16.5.2,59056,172.16.1.2,5102,10218,18860,2086,62848,65728,6,6,4,1460,158437,1,16778208,410000,41772,38876,65700,0,17376,0,2816870682,63
i,1723549327.150013,172.16.5.2,59056,172.16.1.2,5102,10218,18860,2086,62848,65728,6,6,4,1460,158437,1,16778208,410000,41772,41772,65700,0,18824,0,2816870682,63
o,1723549327.150078,172.16.5.2,59056,172.16.1.2,5102,10218,18860,2086,64256,65728,6,6,4,1460,152500,1,16778208,440000,41772,38876,65700,0,15928,0,2816870682,63
i,1723549327.190392,172.16.5.2,59056,172.16.1.2,5102,10218,18860,2086,64256,65728,6,6,4,1460,152500,1,16778208,440000,41772,41772,65700,0,18824,0,2816870682,63
o,1723549327.190474,172.16.5.2,59056,172.16.1.2,5102,10218,18860,2086,65728,65728,6,6,4,1460,152187,1,16778208,420000,41772,40324,65700,0,17376,0,2816870682,63
i,1723549327.230326,172.16.5.2,59056,172.16.1.2,5102,10218,18860,2086,65728,65728,6,6,4,1460,152187,1,16778208,420000,41772,40324,65700,0,18824,0,2816870682,63
o,1723549327.230402,172.16.5.2,59056,172.16.1.2,5102,10218,20320,2086,62848,65728,6,6,4,1460,144687,1,16778208,450000,41772,37428,65700,0,15928,0,2816870682,63
i,1723549327.230613,172.16.5.2,59056,172.16.1.2,5102,10218,20320,2086,62848,65728,6,6,4,1460,144687,1,16778208,450000,49964,37428,65700,0,20272,0,2816870682,63
o,1723549327.230633,172.16.5.2,59056,172.16.1.2,5102,10218,20320,2086,59968,65728,6,6,4,1460,138125,1,16778208,470000,49964,34532,65700,0,17376,0,2816870682,63
i,1723549327.230779,172.16.5.2,59056,172.16.1.2,5102,10218,20320,2086,59968,65728,6,6,4,1460,138125,1,16778208,470000,49964,34532,65700,0,20272,0,2816870682,63
o,1723549327.230799,172.16.5.2,59056,172.16.1.2,5102,10218,20320,2086,57088,65728,6,6,4,1460,132187,1,16778208,480000,49964,31636,65700,0,17376,0,2816870682,63
i,1723549327.232237,172.16.5.2,59056,172.16.1.2,5102,10218,20320,2086,57088,65728,6,6,4,1460,132187,1,16778208,480000,49964,49964,65700,0,20272,0,2816870682,63
o,1723549327.232270,172.16.5.2,59056,172.16.1.2,5102,10218,20320,2086,62848,65728,6,6,4,1460,128437,1,16778208,470000,49964,47068,65700,0,17376,0,2816870682,63
i,1723549327.267359,172.16.5.2,59056,172.16.1.2,5102,10218,20320,2086,62848,65728,6,6,4,1460,128437,1,16778208,470000,49964,49964,65700,0,20272,0,2816870682,63
o,1723549327.267452,172.16.5.2,59056,172.16.1.2,5102,10218,20320,2086,64256,65728,6,6,4,1460,126250,1,16778208,450000,49964,47068,65700,0,17376,0,2816870682,63
o,1723549327.267628,172.16.5.2,59056,172.16.1.2,5102,10218,20320,2086,64256,65728,6,6,4,1460,126250,1,16778208,450000,49964,47068,65700,0,18824,0,2816870682,63
i,1723549327.268920,172.16.5.2,59056,172.16.1.2,5102,10218,20320,2086,64256,65728,6,6,4,1460,126250,1,16778208,450000,49964,49964,65700,0,20272,0,2816870682,63
o,1723549327.268957,172.16.5.2,59056,172.16.1.2,5102,10218,20320,2086,64256,65728,6,6,4,1460,124375,1,16778208,430000,49964,47068,65700,0,17376,0,2816870682,63
i,1723549327.327691,172.16.5.2,59056,172.16.1.2,5102,10218,20320,2086,64256,65728,6,6,4,1460,124375,1,16778208,430000,49964,49964,65700,0,20272,0,2816870682,63
o,1723549327.327802,172.16.5.2,59056,172.16.1.2,5102,10218,20320,2086,65728,65728,6,6,4,1460,126562,1,16778208,420000,49964,48516,65700,0,18824,0,2816870682,63
i,1723549327.378899,172.16.5.2,59056,172.16.1.2,5102,10218,20320,2086,65728,65728,6,6,4,1460,126562,1,16778208,420000,49964,48516,65700,0,20272,0,2816870682,63
o,1723549327.378998,172.16.5.2,59056,172.16.1.2,5102,10218,21780,2086,64256,65728,6,6,4,1460,129687,1,16778208,430000,49964,45620,65700,0,17376,0,2816870682,63
i,1723549327.389296,172.16.5.2,59056,172.16.1.2,5102,10218,21780,2086,64256,65728,6,6,4,1460,129687,1,16778208,430000,49964,49964,65700,0,21720,0,2816870682,63
o,1723549327.389316,172.16.5.2,59056,172.16.1.2,5102,10218,21780,2086,62848,65728,6,6,4,1460,133750,1,16778208,440000,49964,47068,65700,0,18824,0,2816870682,63
i,1723549327.389452,172.16.5.2,59056,172.16.1.2,5102,10218,21780,2086,62848,65728,6,6,4,1460,133750,1,16778208,440000,49964,47068,65700,0,21720,0,2816870682,63
o,1723549327.389468,172.16.5.2,59056,172.16.1.2,5102,10218,21780,2086,64256,65728,6,6,4,1460,137187,1,16778208,440000,49964,44172,65700,0,18824,0,2816870682,63
i,1723549327.389609,172.16.5.2,59056,172.16.1.2,5102,10218,21780,2086,64256,65728,6,6,4,1460,137187,1,16778208,440000,49964,44172,65700,0,21720,0,2816870682,63
o,1723549327.389624,172.16.5.2,59056,172.16.1.2,5102,10218,21780,2086,64256,65728,6,6,4,1460,140312,1,16778208,440000,49964,41276,65700,0,18824,0,2816870682,63
i,1723549327.389836,172.16.5.2,59056,172.16.1.2,5102,10218,21780,2086,64256,65728,6,6,4,1460,140312,1,16778208,440000,49964,41276,65700,0,21720,0,2816870682,63
o,1723549327.389852,172.16.5.2,59056,172.16.1.2,5102,10218,21780,2086,62848,65728,6,6,4,1460,141562,1,16778208,430000,49964,38380,65700,0,18824,0,2816870682,63
o,1723549327.389983,172.16.5.2,59056,172.16.1.2,5102,10218,21780,2086,62848,65728,6,6,4,1460,141562,1,16778208,430000,49964,38380,65700,0,20272,0,2816870682,63
i,1723549327.390812,172.16.5.2,59056,172.16.1.2,5102,10218,21780,2086,62848,65728,6,6,4,1460,141562,1,16778208,430000,49964,49964,65700,0,21720,0,2816870682,63
o,1723549327.390889,172.16.5.2,59056,172.16.1.2,5102,10218,21780,2086,64256,65728,6,6,4,1460,139062,1,16778208,420000,49964,47068,65700,0,18824,0,2816870682,63
i,1723549327.408662,172.16.5.2,59056,172.16.1.2,5102,10218,21780,2086,64256,65728,6,6,4,1460,139062,1,16778208,420000,49964,49964,65700,0,21720,0,2816870682,63
o,1723549327.408697,172.16.5.2,59056,172.16.1.2,5102,10218,21780,2086,65728,65728,6,6,4,1460,139375,1,16778208,400000,49964,48516,65700,0,20272,0,2816870682,63
i,1723549327.478930,172.16.5.2,59056,172.16.1.2,5102,10218,21780,2086,65728,65728,6,6,4,1460,139375,1,16778208,400000,49964,48516,65700,0,21720,0,2816870682,63
o,1723549327.478953,172.16.5.2,59056,172.16.1.2,5102,10218,21780,2086,64256,65728,6,6,4,1460,140937,1,16778208,400000,49964,45620,65700,0,18824,0,2816870682,63
i,1723549327.479199,172.16.5.2,59056,172.16.1.2,5102,10218,21780,2086,64256,65728,6,6,4,1460,140937,1,16778208,400000,49964,45620,65700,0,21720,0,2816870682,63
o,1723549327.479215,172.16.5.2,59056,172.16.1.2,5102,10218,23240,2086,61376,65728,6,6,4,1460,135937,1,16778208,420000,49964,42724,65700,0,18824,0,2816870682,63
i,1723549327.499293,172.16.5.2,59056,172.16.1.2,5102,10218,23240,2086,61376,65728,6,6,4,1460,135937,1,16778208,420000,49964,49964,65700,0,23168,0,2816870682,63
o,1723549327.499316,172.16.5.2,59056,172.16.1.2,5102,10218,23240,2086,62848,65728,6,6,4,1460,131562,1,16778208,430000,49964,47068,65700,0,20272,0,2816870682,63
i,1723549327.499440,172.16.5.2,59056,172.16.1.2,5102,10218,23240,2086,62848,65728,6,6,4,1460,131562,1,16778208,430000,49964,47068,65700,0,23168,0,2816870682,63
o,1723549327.499457,172.16.5.2,59056,172.16.1.2,5102,10218,23240,2086,59968,65728,6,6,4,1460,127812,1,16778208,430000,49964,44172,65700,0,20272,0,2816870682,63
i,1723549327.530010,172.16.5.2,59056,172.16.1.2,5102,10218,23240,2086,59968,65728,6,6,4,1460,127812,1,16778208,430000,58156,58156,65700,0,23168,0,2816870682,63
o,1723549327.530061,172.16.5.2,59056,172.16.1.2,5102,10218,23240,2086,64256,65728,6,6,4,1460,129375,1,16778208,420000,58156,55260,65700,0,20272,0,2816870682,63
i,1723549327.530291,172.16.5.2,59056,172.16.1.2,5102,10218,23240,2086,64256,65728,6,6,4,1460,129375,1,16778208,420000,58156,55260,65700,0,23168,0,2816870682,63
o,1723549327.530310,172.16.5.2,59056,172.16.1.2,5102,10218,23240,2086,61376,65728,6,6,4,1460,130937,1,16778208,410000,58156,52364,65700,0,20272,0,2816870682,63
o,1723549327.530482,172.16.5.2,59056,172.16.1.2,5102,10218,23240,2086,61376,65728,6,6,4,1460,130937,1,16778208,410000,58156,52364,65700,0,21720,0,2816870682,63
i,1723549327.530644,172.16.5.2,59056,172.16.1.2,5102,10218,23240,2086,61376,65728,6,6,4,1460,130937,1,16778208,410000,58156,52364,65700,0,23168,0,2816870682,63
o,1723549327.530663,172.16.5.2,59056,172.16.1.2,5102,10218,23240,2086,62848,65728,6,6,4,1460,132187,1,16778208,400000,58156,49468,65700,0,20272,0,2816870682,63
i,1723549327.579952,172.16.5.2,59056,172.16.1.2,5102,10218,23240,2086,62848,65728,6,6,4,1460,132187,1,16778208,400000,58156,58156,65700,0,23168,0,2816870682,63
o,1723549327.580164,172.16.5.2,59056,172.16.1.2,5102,10218,23240,2086,64256,65728,6,6,4,1460,137187,1,16778208,430000,58156,55260,65700,0,20272,0,2816870682,63
i,1723549327.580505,172.16.5.2,59056,172.16.1.2,5102,10218,23240,2086,64256,65728,6,6,4,1460,137187,1,16778208,430000,58156,55260,65700,0,23168,0,2816870682,63
o,1723549327.580546,172.16.5.2,59056,172.16.1.2,5102,10218,23240,2086,61376,65728,6,6,4,1460,131562,1,16778208,450000,58156,52364,65700,0,20272,0,2816870682,63
i,1723549327.599334,172.16.5.2,59056,172.16.1.2,5102,10218,23240,2086,61376,65728,6,6,4,1460,131562,1,16778208,450000,58156,58156,65700,0,23168,0,2816870682,63
o,1723549327.599388,172.16.5.2,59056,172.16.1.2,5102,10218,24700,2086,64256,65728,6,6,4,1460,129062,1,16778208,430000,58156,55260,65700,0,20272,0,2816870682,63
i,1723549327.621386,172.16.5.2,59056,172.16.1.2,5102,10218,24700,2086,64256,65728,6,6,4,1460,129062,1,16778208,430000,58156,58156,65700,0,24616,0,2816870682,63
o,1723549327.621408,172.16.5.2,59056,172.16.1.2,5102,10218,24700,2086,62848,65728,6,6,4,1460,128125,1,16778208,410000,58156,55260,65700,0,21720,0,2816870682,63
i,1723549327.621689,172.16.5.2,59056,172.16.1.2,5102,10218,24700,2086,62848,65728,6,6,4,1460,128125,1,16778208,410000,58156,55260,65700,0,24616,0,2816870682,63
o,1723549327.621715,172.16.5.2,59056,172.16.1.2,5102,10218,24700,2086,62848,65728,6,6,4,1460,127187,1,16778208,400000,58156,52364,65700,0,21720,0,2816870682,63
i,1723549327.622062,172.16.5.2,59056,172.16.1.2,5102,10218,24700,2086,62848,65728,6,6,4,1460,127187,1,16778208,400000,58156,52364,65700,0,24616,0,2816870682,63
o,1723549327.622099,172.16.5.2,59056,172.16.1.2,5102,10218,24700,2086,59968,65728,6,6,4,1460,122812,1,16778208,410000,58156,49468,65700,0,21720,0,2816870682,63
i,1723549327.648412,172.16.5.2,59056,172.16.1.2,5102,10218,24700,2086,59968,65728,6,6,4,1460,122812,1,16778208,410000,58156,58156,65700,0,24616,0,2816870682,63
o,1723549327.648467,172.16.5.2,59056,172.16.1.2,5102,10218,24700,2086,62848,65728,6,6,4,1460,121250,1,16778208,400000,58156,55260,65700,0,21720,0,2816870682,63
o,1723549327.648631,172.16.5.2,59056,172.16.1.2,5102,10218,24700,2086,62848,65728,6,6,4,1460,121250,1,16778208,400000,58156,55260,65700,0,23168,0,2816870682,63
i,1723549327.648885,172.16.5.2,59056,172.16.1.2,5102,10218,24700,2086,62848,65728,6,6,4,1460,121250,1,16778208,400000,58156,55260,65700,0,24616,0,2816870682,63
o,1723549327.648923,172.16.5.2,59056,172.16.1.2,5102,10218,24700,2086,64256,65728,6,6,4,1460,120000,1,16778208,390000,58156,52364,65700,0,21720,0,2816870682,63
i,1723549327.680927,172.16.5.2,59056,172.16.1.2,5102,10218,24700,2086,64256,65728,6,6,4,1460,120000,1,16778208,390000,58156,58156,65700,0,24616,0,2816870682,63
o,1723549327.680978,172.16.5.2,59056,172.16.1.2,5102,10218,24700,2086,62848,65728,6,6,4,1460,117500,1,16778208,390000,58156,55260,65700,0,21720,0,2816870682,63
i,1723549327.681231,172.16.5.2,59056,172.16.1.2,5102,10218,24700,2086,62848,65728,6,6,4,1460,117500,1,16778208,390000,58156,55260,65700,0,24616,0,2816870682,63
o,1723549327.681268,172.16.5.2,59056,172.16.1.2,5102,10218,24700,2086,64256,65728,6,6,4,1460,115312,1,16778208,390000,58156,52364,65700,0,21720,0,2816870682,63
i,1723549327.718691,172.16.5.2,59056,172.16.1.2,5102,10218,24700,2086,64256,65728,6,6,4,1460,115312,1,16778208,390000,58156,58156,65700,0,24616,0,2816870682,63
o,1723549327.718784,172.16.5.2,59056,172.16.1.2,5102,10218,24700,2086,62848,65728,6,6,4,1460,115937,1,16778208,370000,58156,55260,65700,0,21720,0,2816870682,63
i,1723549327.748117,172.16.5.2,59056,172.16.1.2,5102,10218,24700,2086,62848,65728,6,6,4,1460,115937,1,16778208,370000,58156,58156,65700,0,24616,0,2816870682,63
o,1723549327.748210,172.16.5.2,59056,172.16.1.2,5102,10218,26160,2086,65728,65728,6,6,4,1460,120312,1,16778208,400000,58156,56708,65700,0,23168,0,2816870682,63
i,1723549327.762437,172.16.5.2,59056,172.16.1.2,5102,10218,26160,2086,65728,65728,6,6,4,1460,120312,1,16778208,400000,58156,56708,65700,0,26064,0,2816870682,63
o,1723549327.762514,172.16.5.2,59056,172.16.1.2,5102,10218,26160,2086,62848,65728,6,6,4,1460,122812,1,16778208,400000,58156,53812,65700,0,23168,0,2816870682,63
i,1723549327.762672,172.16.5.2,59056,172.16.1.2,5102,10218,26160,2086,62848,65728,6,6,4,1460,122812,1,16778208,400000,58156,53812,65700,0,26064,0,2816870682,63
o,1723549327.762688,172.16.5.2,59056,172.16.1.2,5102,10218,26160,2086,59968,65728,6,6,4,1460,125000,1,16778208,400000,58156,50916,65700,0,23168,0,2816870682,63
i,1723549327.762836,172.16.5.2,59056,172.16.1.2,5102,10218,26160,2086,59968,65728,6,6,4,1460,125000,1,16778208,400000,66348,50916,65700,0,26064,0,2816870682,63
o,1723549327.762852,172.16.5.2,59056,172.16.1.2,5102,10218,26160,2086,62848,65728,6,6,4,1460,126875,1,16778208,400000,66348,48020,65700,0,23168,0,2816870682,63
i,1723549327.777935,172.16.5.2,59056,172.16.1.2,5102,10218,26160,2086,62848,65728,6,6,4,1460,126875,1,16778208,400000,66348,66348,65700,0,26064,0,2816870682,63
o,1723549327.778216,172.16.5.2,59056,172.16.1.2,5102,10218,26160,2086,62848,65728,6,6,4,1460,127500,1,16778208,390000,66348,63452,65700,0,23168,0,2816870682,63
o,1723549327.778911,172.16.5.2,59056,172.16.1.2,5102,10218,26160,2086,62848,65728,6,6,4,1460,127500,1,16778208,390000,66348,63452,65700,0,24616,0,2816870682,63
i,1723549327.782648,172.16.5.2,59056,172.16.1.2,5102,10218,26160,2086,62848,65728,6,6,4,1460,127500,1,16778208,390000,66348,66348,65700,0,26064,0,2816870682,63
o,1723549327.782704,172.16.5.2,59056,172.16.1.2,5102,10218,26160,2086,64256,65728,6,6,4,1460,129062,1,16778208,380000,66348,63452,65700,0,23168,0,2816870682,63
i,1723549327.807387,172.16.5.2,59056,172.16.1.2,5102,10218,26160,2086,64256,65728,6,6,4,1460,129062,1,16778208,380000,66348,66348,65700,0,26064,0,2816870682,63
o,1723549327.807399,172.16.5.2,59056,172.16.1.2,5102,10218,26160,2086,62848,65728,6,6,4,1460,129375,1,16778208,370000,66348,63452,65700,0,23168,0,2816870682,63
i,1723549327.807399,172.16.5.2,59056,172.16.1.2,5102,10218,26160,2086,62848,65728,6,6,4,1460,129375,1,16778208,370000,66348,63452,65700,0,26064,0,2816870682,63
o,1723549327.807399,172.16.5.2,59056,172.16.1.2,5102,10218,26160,2086,64256,65728,6,6,4,1460,129687,1,16778208,360000,66348,60556,65700,0,23168,0,2816870682,63
i,1723549327.833243,172.16.5.2,59056,172.16.1.2,5102,10218,26160,2086,64256,65728,6,6,4,1460,129687,1,16778208,360000,66348,66348,65700,0,26064,0,2816870682,63
o,1723549327.833308,172.16.5.2,59056,172.16.1.2,5102,10218,26160,2086,62848,65728,6,6,4,1460,128750,1,16778208,360000,66348,63452,65700,0,23168,0,2816870682,63
i,1723549327.873061,172.16.5.2,59056,172.16.1.2,5102,10218,26160,2086,62848,65728,6,6,4,1460,128750,1,16778208,360000,66348,66348,65700,0,26064,0,2816870682,63
o,1723549327.873179,172.16.5.2,59056,172.16.1.2,5102,10218,27620,2086,62848,65728,6,6,4,1460,129062,1,16778208,360000,66348,63452,65700,0,23168,0,2816870682,63
i,1723549327.875554,172.16.5.2,59056,172.16.1.2,5102,10218,27620,2086,62848,65728,6,6,4,1460,129062,1,16778208,360000,66348,66348,65700,0,27512,0,2816870682,63
o,1723549327.875577,172.16.5.2,59056,172.16.1.2,5102,10218,27620,2086,62848,65728,6,6,4,1460,126875,1,16778208,360000,66348,63452,65700,0,24616,0,2816870682,63
i,1723549327.875737,172.16.5.2,59056,172.16.1.2,5102,10218,27620,2086,62848,65728,6,6,4,1460,126875,1,16778208,360000,66348,63452,65700,0,27512,0,2816870682,63
o,1723549327.875757,172.16.5.2,59056,172.16.1.2,5102,10218,27620,2086,64256,65728,6,6,4,1460,125000,1,16778208,370000,66348,60556,65700,0,24616,0,2816870682,63
i,1723549327.875926,172.16.5.2,59056,172.16.1.2,5102,10218,27620,2086,64256,65728,6,6,4,1460,125000,1,16778208,370000,66348,60556,65700,0,27512,0,2816870682,63
o,1723549327.875952,172.16.5.2,59056,172.16.1.2,5102,10218,27620,2086,64256,65728,6,6,4,1460,123125,1,16778208,370000,66348,57660,65700,0,24616,0,2816870682,63
i,1723549327.899082,172.16.5.2,59056,172.16.1.2,5102,10218,27620,2086,64256,65728,6,6,4,1460,123125,1,16778208,370000,66348,66348,65700,0,27512,0,2816870682,63
o,1723549327.899113,172.16.5.2,59056,172.16.1.2,5102,10218,27620,2086,62848,65728,6,6,4,1460,121562,1,16778208,370000,66348,63452,65700,0,24616,0,2816870682,63
o,1723549327.899260,172.16.5.2,59056,172.16.1.2,5102,10218,27620,2086,62848,65728,6,6,4,1460,121562,1,16778208,370000,66348,63452,65700,0,26064,0,2816870682,63
i,1723549327.901591,172.16.5.2,59056,172.16.1.2,5102,10218,27620,2086,62848,65728,6,6,4,1460,121562,1,16778208,370000,66348,66348,65700,0,27512,0,2816870682,63
o,1723549327.901675,172.16.5.2,59056,172.16.1.2,5102,10218,27620,2086,64256,65728,6,6,4,1460,120312,1,16778208,370000,66348,63452,65700,0,24616,0,2816870682,63
i,1723549327.943744,172.16.5.2,59056,172.16.1.2,5102,10218,27620,2086,64256,65728,6,6,4,1460,120312,1,16778208,370000,66348,66348,65700,0,27512,0,2816870682,63
o,1723549327.943771,172.16.5.2,59056,172.16.1.2,5102,10218,27620,2086,64256,65728,6,6,4,1460,122812,1,16778208,380000,66348,63452,65700,0,24616,0,2816870682,63
i,1723549327.943927,172.16.5.2,59056,172.16.1.2,5102,10218,27620,2086,64256,65728,6,6,4,1460,122812,1,16778208,380000,66348,63452,65700,0,27512,0,2816870682,63
o,1723549327.943943,172.16.5.2,59056,172.16.1.2,5102,10218,27620,2086,61376,65728,6,6,4,1460,125000,1,16778208,380000,66348,60556,65700,0,24616,0,2816870682,63
i,1723549327.946919,172.16.5.2,59056,172.16.1.2,5102,10218,27620,2086,61376,65728,6,6,4,1460,125000,1,16778208,380000,66348,66348,65700,0,27512,0,2816870682,63
o,1723549327.946942,172.16.5.2,59056,172.16.1.2,5102,10218,27620,2086,64256,65728,6,6,4,1460,123125,1,16778208,380000,66348,63452,65700,0,24616,0,2816870682,63
i,1723549328.018276,172.16.5.2,59056,172.16.1.2,5102,10218,27620,2086,64256,65728,6,6,4,1460,123125,1,16778208,380000,66348,66348,65700,0,27512,0,2816870682,63
o,1723549328.018301,172.16.5.2,59056,172.16.1.2,5102,10218,27620,2086,64256,65728,6,6,4,1460,125312,1,16778208,390000,66348,63452,65700,0,24616,0,2816870682,63
i,1723549328.018472,172.16.5.2,59056,172.16.1.2,5102,10218,27620,2086,64256,65728,6,6,4,1460,125312,1,16778208,390000,66348,63452,65700,0,27512,0,2816870682,63
o,1723549328.018501,172.16.5.2,59056,172.16.1.2,5102,10218,29080,2086,61376,65728,6,6,4,1460,127187,1,16778208,390000,66348,60556,65700,0,24616,0,2816870682,63
i,1723549328.021373,172.16.5.2,59056,172.16.1.2,5102,10218,29080,2086,61376,65728,6,6,4,1460,127187,1,16778208,390000,66348,66348,65700,0,28960,0,2816870682,63
o,1723549328.021399,172.16.5.2,59056,172.16.1.2,5102,10218,29080,2086,64256,65728,6,6,4,1460,129062,1,16778208,390000,66348,63452,65700,0,26064,0,2816870682,63
i,1723549328.021600,172.16.5.2,59056,172.16.1.2,5102,10218,29080,2086,64256,65728,6,6,4,1460,129062,1,16778208,390000,66348,63452,65700,0,28960,0,2816870682,63
o,1723549328.021619,172.16.5.2,59056,172.16.1.2,5102,10218,29080,2086,61376,65728,6,6,4,1460,130625,1,16778208,390000,66348,60556,65700,0,26064,0,2816870682,63
i,1723549328.022896,172.16.5.2,59056,172.16.1.2,5102,10218,29080,2086,61376,65728,6,6,4,1460,130625,1,16778208,390000,66348,66348,65700,0,28960,0,2816870682,63
o,1723549328.022917,172.16.5.2,59056,172.16.1.2,5102,10218,29080,2086,64256,65728,6,6,4,1460,131875,1,16778208,380000,66348,63452,65700,0,26064,0,2816870682,63
o,1723549328.023174,172.16.5.2,59056,172.16.1.2,5102,10218,29080,2086,64256,65728,6,6,4,1460,131875,1,16778208,380000,66348,63452,65700,0,27512,0,2816870682,63
i,1723549328.048147,172.16.5.2,59056,172.16.1.2,5102,10218,29080,2086,64256,65728,6,6,4,1460,131875,1,16778208,380000,66348,66348,65700,0,28960,0,2816870682,63
o,1723549328.048169,172.16.5.2,59056,172.16.1.2,5102,10218,29080,2086,64256,65728,6,6,4,1460,134375,1,16778208,390000,66348,63452,65700,0,26064,0,2816870682,63
i,1723549328.055512,172.16.5.2,59056,172.16.1.2,5102,10218,29080,2086,64256,65728,6,6,4,1460,134375,1,16778208,390000,66348,66348,65700,0,28960,0,2816870682,63
o,1723549328.055540,172.16.5.2,59056,172.16.1.2,5102,10218,29080,2086,65728,65728,6,6,4,1460,136562,1,16778208,400000,66348,64900,65700,0,27512,0,2816870682,63
i,1723549328.055711,172.16.5.2,59056,172.16.1.2,5102,10218,29080,2086,65728,65728,6,6,4,1460,136562,1,16778208,400000,66348,64900,65700,0,28960,0,2816870682,63
o,1723549328.055727,172.16.5.2,59056,172.16.1.2,5102,10218,29080,2086,62848,65728,6,6,4,1460,132187,1,16778208,410000,66348,62004,65700,0,26064,0,2816870682,63
i,1723549328.055896,172.16.5.2,59056,172.16.1.2,5102,10218,29080,2086,62848,65728,6,6,4,1460,132187,1,16778208,410000,66348,62004,65700,0,28960,0,2816870682,63
o,1723549328.055926,172.16.5.2,59056,172.16.1.2,5102,10218,29080,2086,64256,65728,6,6,4,1460,128437,1,16778208,420000,66348,59108,65700,0,26064,0,2816870682,63
i,1723549328.070653,172.16.5.2,59056,172.16.1.2,5102,10218,29080,2086,64256,65728,6,6,4,1460,128437,1,16778208,420000,66348,66348,65700,0,28960,0,2816870682,63
o,1723549328.070726,172.16.5.2,59056,172.16.1.2,5102,10218,29080,2086,62848,65728,6,6,4,1460,127500,1,16778208,410000,66348,63452,65700,0,26064,0,2816870682,63
i,1723549328.146341,172.16.5.2,59056,172.16.1.2,5102,10218,29080,2086,62848,65728,6,6,4,1460,127500,1,16778208,410000,66348,66348,65700,0,28960,0,2816870682,63
o,1723549328.146378,172.16.5.2,59056,172.16.1.2,5102,10218,29080,2086,64256,65728,6,6,4,1460,127812,1,16778208,390000,66348,63452,65700,0,26064,0,2816870682,63
i,1723549328.158433,172.16.5.2,59056,172.16.1.2,5102,10218,29080,2086,64256,65728,6,6,4,1460,127812,1,16778208,390000,66348,66348,65700,0,28960,0,2816870682,63
o,1723549328.158452,172.16.5.2,59056,172.16.1.2,5102,10218,30540,2086,64256,65728,6,6,4,1460,129375,1,16778208,390000,66348,63452,65700,0,26064,0,2816870682,63
i,1723549328.158614,172.16.5.2,59056,172.16.1.2,5102,10218,30540,2086,64256,65728,6,6,4,1460,129375,1,16778208,390000,66348,63452,65700,0,30408,0,2816870682,63
o,1723549328.158633,172.16.5.2,59056,172.16.1.2,5102,10218,30540,2086,61376,65728,6,6,4,1460,130937,1,16778208,390000,66348,60556,65700,0,27512,0,2816870682,63
i,1723549328.158808,172.16.5.2,59056,172.16.1.2,5102,10218,30540,2086,61376,65728,6,6,4,1460,130937,1,16778208,390000,74540,60556,65700,0,30408,0,2816870682,63
o,1723549328.158824,172.16.5.2,59056,172.16.1.2,5102,10218,30540,2086,62848,65728,6,6,4,1460,132187,1,16778208,380000,74540,57660,65700,0,27512,0,2816870682,63
i,1723549328.159001,172.16.5.2,59056,172.16.1.2,5102,10218,30540,2086,62848,65728,6,6,4,1460,132187,1,16778208,380000,74540,57660,65700,0,30408,0,2816870682,63
o,1723549328.159017,172.16.5.2,59056,172.16.1.2,5102,10218,30540,2086,59968,65728,6,6,4,1460,133437,1,16778208,380000,74540,54764,65700,0,27512,0,2816870682,63
o,1723549328.159149,172.16.5.2,59056,172.16.1.2,5102,10218,30540,2086,59968,65728,6,6,4,1460,133437,1,16778208,380000,74540,54764,65700,0,28960,0,2816870682,63
i,1723549328.159343,172.16.5.2,59056,172.16.1.2,5102,10218,30540,2086,59968,65728,6,6,4,1460,133437,1,16778208,380000,74540,54764,65700,0,30408,0,2816870682,63
o,1723549328.159358,172.16.5.2,59056,172.16.1.2,5102,10218,30540,2086,62848,65728,6,6,4,1460,133125,1,16778208,370000,74540,51868,65700,0,27512,0,2816870682,63
i,1723549328.160803,172.16.5.2,59056,172.16.1.2,5102,10218,30540,2086,62848,65728,6,6,4,1460,133125,1,16778208,370000,74540,74540,65700,0,30408,0,2816870682,63
o,1723549328.160870,172.16.5.2,59056,172.16.1.2,5102,10218,30540,2086,64256,65728,6,6,4,1460,130312,1,16778208,380000,74540,71644,65700,0,27512,0,2816870682,63
i,1723549328.161047,172.16.5.2,59056,172.16.1.2,5102,10218,30540,2086,64256,65728,6,6,4,1460,130312,1,16778208,380000,74540,71644,65700,0,30408,0,2816870682,63
o,1723549328.161063,172.16.5.2,59056,172.16.1.2,5102,10218,30540,2086,61376,65728,6,6,4,1460,126562,1,16778208,390000,74540,68748,65700,0,27512,0,2816870682,63
i,1723549328.162657,172.16.5.2,59056,172.16.1.2,5102,10218,30540,2086,61376,65728,6,6,4,1460,126562,1,16778208,390000,74540,74540,65700,0,30408,0,2816870682,63
o,1723549328.162676,172.16.5.2,59056,172.16.1.2,5102,10218,30540,2086,58496,65728,6,6,4,1460,124687,1,16778208,390000,74540,71644,65700,0,27512,0,2816870682,63
i,1723549328.191311,172.16.5.2,59056,172.16.1.2,5102,10218,30540,2086,58496,65728,6,6,4,1460,124687,1,16778208,390000,74540,74540,65700,0,30408,0,2816870682,63
o,1723549328.191383,172.16.5.2,59056,172.16.1.2,5102,10218,30540,2086,62848,65728,6,6,4,1460,124375,1,16778208,370000,74540,71644,65700,0,27512,0,2816870682,63
i,1723549328.278371,172.16.5.2,59056,172.16.1.2,5102,10218,30540,2086,62848,65728,6,6,4,1460,124375,1,16778208,370000,74540,74540,65700,0,30408,0,2816870682,63
o,1723549328.278448,172.16.5.2,59056,172.16.1.2,5102,10218,30540,2086,62848,65728,6,6,4,1460,125312,1,16778208,370000,74540,71644,65700,0,27512,0,2816870682,63
i,1723549328.294664,172.16.5.2,59056,172.16.1.2,5102,10218,30540,2086,62848,65728,6,6,4,1460,125312,1,16778208,370000,74540,74540,65700,0,30408,0,2816870682,63
o,1723549328.294686,172.16.5.2,59056,172.16.1.2,5102,10218,30540,2086,62848,65728,6,6,4,1460,125937,1,16778208,360000,74540,71644,65700,0,27512,0,2816870682,63
i,1723549328.294877,172.16.5.2,59056,172.16.1.2,5102,10218,30540,2086,62848,65728,6,6,4,1460,125937,1,16778208,360000,74540,71644,65700,0,30408,0,2816870682,63
o,1723549328.294894,172.16.5.2,59056,172.16.1.2,5102,10218,32000,2086,59968,65728,6,6,4,1460,126562,1,16778208,360000,74540,68748,65700,0,27512,0,2816870682,63
i,1723549328.308378,172.16.5.2,59056,172.16.1.2,5102,10218,32000,2086,59968,65728,6,6,4,1460,126562,1,16778208,360000,74540,74540,65700,0,31856,0,2816870682,63
o,1723549328.308399,172.16.5.2,59056,172.16.1.2,5102,10218,32000,2086,62848,65728,6,6,4,1460,128437,1,16778208,370000,74540,71644,65700,0,28960,0,2816870682,63
i,1723549328.308577,172.16.5.2,59056,172.16.1.2,5102,10218,32000,2086,62848,65728,6,6,4,1460,128437,1,16778208,370000,74540,71644,65700,0,31856,0,2816870682,63
o,1723549328.308602,172.16.5.2,59056,172.16.1.2,5102,10218,32000,2086,62848,65728,6,6,4,1460,130000,1,16778208,370000,74540,68748,65700,0,28960,0,2816870682,63
o,1723549328.308711,172.16.5.2,59056,172.16.1.2,5102,10218,32000,2086,62848,65728,6,6,4,1460,130000,1,16778208,370000,74540,68748,65700,0,30408,0,2816870682,63
i,1723549328.308889,172.16.5.2,59056,172.16.1.2,5102,10218,32000,2086,62848,65728,6,6,4,1460,130000,1,16778208,370000,74540,68748,65700,0,31856,0,2816870682,63
o,1723549328.308906,172.16.5.2,59056,172.16.1.2,5102,10218,32000,2086,64256,65728,6,6,4,1460,131250,1,16778208,370000,74540,65852,65700,0,28960,0,2816870682,63
i,1723549328.309077,172.16.5.2,59056,172.16.1.2,5102,10218,32000,2086,64256,65728,6,6,4,1460,131250,1,16778208,370000,74540,65852,65700,0,31856,0,2816870682,63
o,1723549328.309101,172.16.5.2,59056,172.16.1.2,5102,10218,32000,2086,64256,65728,6,6,4,1460,132500,1,16778208,380000,74540,62956,65700,0,28960,0,2816870682,63
i,1723549328.311743,172.16.5.2,59056,172.16.1.2,5102,10218,32000,2086,64256,65728,6,6,4,1460,132500,1,16778208,380000,74540,74540,65700,0,31856,0,2816870682,63
o,1723549328.311762,172.16.5.2,59056,172.16.1.2,5102,10218,32000,2086,64256,65728,6,6,4,1460,133437,1,16778208,370000,74540,71644,65700,0,28960,0,2816870682,63
i,1723549328.312064,172.16.5.2,59056,172.16.1.2,5102,10218,32000,2086,64256,65728,6,6,4,1460,133437,1,16778208,370000,74540,71644,65700,0,31856,0,2816870682,63
o,1723549328.312064,172.16.5.2,59056,172.16.1.2,5102,10218,32000,2086,61376,65728,6,6,4,1460,135625,1,16778208,380000,74540,68748,65700,0,28960,0,2816870682,63
i,1723549328.349950,172.16.5.2,59056,172.16.1.2,5102,10218,32000,2086,61376,65728,6,6,4,1460,135625,1,16778208,380000,74540,74540,65700,0,31856,0,2816870682,63
o,1723549328.350037,172.16.5.2,59056,172.16.1.2,5102,10218,32000,2086,97152,65728,6,6,4,1460,141250,1,16778208,420000,74540,71644,65700,0,28960,0,2816870682,63
i,1723549328.397653,172.16.5.2,59056,172.16.1.2,5102,10218,32000,2086,97152,65728,6,6,4,1460,141250,1,16778208,420000,74540,74540,65700,0,31856,0,2816870682,63
o,1723549328.397763,172.16.5.2,59056,172.16.1.2,5102,10218,32000,2086,98560,65728,6,6,4,1460,148750,1,16778208,470000,74540,73092,65700,0,30408,0,2816870682,63
i,1723549328.422042,172.16.5.2,59056,172.16.1.2,5102,10218,32000,2086,98560,65728,6,6,4,1460,148750,1,16778208,470000,74540,73092,65700,0,31856,0,2816870682,63
o,1723549328.422130,172.16.5.2,59056,172.16.1.2,5102,10218,32000,2086,95680,65728,6,6,4,1460,147812,1,16778208,450000,74540,70196,65700,0,28960,0,2816870682,63
i,1723549328.422280,172.16.5.2,59056,172.16.1.2,5102,10218,32000,2086,95680,65728,6,6,4,1460,147812,1,16778208,450000,74540,70196,65700,0,31856,0,2816870682,63
o,1723549328.422296,172.16.5.2,59056,172.16.1.2,5102,10218,32000,2086,97152,65728,6,6,4,1460,144375,1,16778208,440000,74540,67300,65700,0,28960,0,2816870682,63
i,1723549328.448028,172.16.5.2,59056,172.16.1.2,5102,10218,32000,2086,97152,65728,6,6,4,1460,144375,1,16778208,440000,74540,74540,65700,0,31856,0,2816870682,63
o,1723549328.448056,172.16.5.2,59056,172.16.1.2,5102,10218,33460,2086,97152,65728,6,6,4,1460,145312,1,16778208,430000,74540,71644,65700,0,28960,0,2816870682,63
i,1723549328.448377,172.16.5.2,59056,172.16.1.2,5102,10218,33460,2086,97152,65728,6,6,4,1460,145312,1,16778208,430000,74540,71644,65700,0,33304,0,2816870682,63
o,1723549328.448401,172.16.5.2,59056,172.16.1.2,5102,10218,33460,2086,97152,65728,6,6,4,1460,145937,1,16778208,410000,74540,68748,65700,0,30408,0,2816870682,63
i,1723549328.448559,172.16.5.2,59056,172.16.1.2,5102,10218,33460,2086,97152,65728,6,6,4,1460,145937,1,16778208,410000,74540,68748,65700,0,33304,0,2816870682,63
o,1723549328.448579,172.16.5.2,59056,172.16.1.2,5102,10218,33460,2086,94272,65728,6,6,4,1460,145312,1,16778208,400000,74540,65852,65700,0,30408,0,2816870682,63
o,1723549328.448697,172.16.5.2,59056,172.16.1.2,5102,10218,33460,2086,94272,65728,6,6,4,1460,145312,1,16778208,400000,74540,65852,65700,0,31856,0,2816870682,63
i,1723549328.448888,172.16.5.2,59056,172.16.1.2,5102,10218,33460,2086,94272,65728,6,6,4,1460,145312,1,16778208,400000,82732,65852,65700,0,33304,0,2816870682,63
o,1723549328.448904,172.16.5.2,59056,172.16.1.2,5102,10218,33460,2086,91392,65728,6,6,4,1460,144687,1,16778208,390000,82732,62956,65700,0,30408,0,2816870682,63
i,1723549328.449304,172.16.5.2,59056,172.16.1.2,5102,10218,33460,2086,91392,65728,6,6,4,1460,144687,1,16778208,390000,82732,81896,65700,0,33304,0,2816870682,63
o,1723549328.449320,172.16.5.2,59056,172.16.1.2,5102,10218,33460,2086,88512,65728,6,6,4,1460,144375,1,16778208,380000,82732,79000,65700,0,30408,0,2816870682,63
i,1723549328.478116,172.16.5.2,59056,172.16.1.2,5102,10218,33460,2086,88512,65728,6,6,4,1460,144375,1,16778208,380000,82732,82732,65700,0,33304,0,2816870682,63
o,1723549328.478192,172.16.5.2,59056,172.16.1.2,5102,10218,33460,2086,95680,65728,6,6,4,1460,147812,1,16778208,400000,82732,79836,65700,0,30408,0,2816870682,63
i,1723549328.479184,172.16.5.2,59056,172.16.1.2,5102,10218,33460,2086,95680,65728,6,6,4,1460,147812,1,16778208,400000,82732,82732,65700,0,33304,0,2816870682,63
o,1723549328.479203,172.16.5.2,59056,172.16.1.2,5102,10218,33460,2086,92800,65728,6,6,4,1460,150625,1,16778208,410000,82732,79836,65700,0,30408,0,2816870682,63
i,1723549328.479400,172.16.5.2,59056,172.16.1.2,5102,10218,33460,2086,92800,65728,6,6,4,1460,150625,1,16778208,410000,82732,79836,65700,0,33304,0,2816870682,63
o,1723549328.479429,172.16.5.2,59056,172.16.1.2,5102,10218,33460,2086,97152,65728,6,6,4,1460,151875,1,16778208,410000,82732,76940,65700,0,30408,0,2816870682,63
i,1723549328.509528,172.16.5.2,59056,172.16.1.2,5102,10218,33460,2086,97152,65728,6,6,4,1460,151875,1,16778208,410000,82732,82732,65700,0,33304,0,2816870682,63
o,1723549328.509552,172.16.5.2,59056,172.16.1.2,5102,10218,33460,2086,97152,65728,6,6,4,1460,153125,1,16778208,410000,82732,79836,65700,0,30408,0,2816870682,63
i,1723549328.560173,172.16.5.2,59056,172.16.1.2,5102,10218,33460,2086,97152,65728,6,6,4,1460,153125,1,16778208,410000,82732,82732,65700,0,33304,0,2816870682,63
o,1723549328.560206,172.16.5.2,59056,172.16.1.2,5102,10218,33460,2086,95680,65728,6,6,4,1460,150312,1,16778208,410000,82732,79836,65700,0,30408,0,2816870682,63
i,1723549328.569797,172.16.5.2,59056,172.16.1.2,5102,10218,33460,2086,95680,65728,6,6,4,1460,150312,1,16778208,410000,82732,82732,65700,0,33304,0,2816870682,63
o,1723549328.569920,172.16.5.2,59056,172.16.1.2,5102,10218,33460,2086,97152,65728,6,6,4,1460,149062,1,16778208,410000,82732,79836,65700,0,30408,0,2816870682,63
i,1723549328.570157,172.16.5.2,59056,172.16.1.2,5102,10218,33460,2086,97152,65728,6,6,4,1460,149062,1,16778208,410000,82732,79836,65700,0,33304,0,2816870682,63
o,1723549328.570177,172.16.5.2,59056,172.16.1.2,5102,10218,33460,2086,95680,65728,6,6,4,1460,145625,1,16778208,420000,82732,76940,65700,0,30408,0,2816870682,63
i,1723549328.590098,172.16.5.2,59056,172.16.1.2,5102,10218,33460,2086,95680,65728,6,6,4,1460,145625,1,16778208,420000,82732,82732,65700,0,33304,0,2816870682,63
o,1723549328.590119,172.16.5.2,59056,172.16.1.2,5102,10218,34920,2086,97152,65728,6,6,4,1460,145000,1,16778208,400000,82732,79836,65700,0,30408,0,2816870682,63
i,1723549328.590359,172.16.5.2,59056,172.16.1.2,5102,10218,34920,2086,97152,65728,6,6,4,1460,145000,1,16778208,400000,82732,79836,65700,0,34752,0,2816870682,63
o,1723549328.590375,172.16.5.2,59056,172.16.1.2,5102,10218,34920,2086,94272,65728,6,6,4,1460,144375,1,16778208,390000,82732,76940,65700,0,31856,0,2816870682,63
o,1723549328.590524,172.16.5.2,59056,172.16.1.2,5102,10218,34920,2086,94272,65728,6,6,4,1460,144375,1,16778208,390000,82732,76940,65700,0,33304,0,2816870682,63
i,1723549328.590661,172.16.5.2,59056,172.16.1.2,5102,10218,34920,2086,94272,65728,6,6,4,1460,144375,1,16778208,390000,82732,76940,65700,0,34752,0,2816870682,63
o,1723549328.590693,172.16.5.2,59056,172.16.1.2,5102,10218,34920,2086,91392,65728,6,6,4,1460,144062,1,16778208,380000,82732,74044,65700,0,31856,0,2816870682,63
i,1723549328.610498,172.16.5.2,59056,172.16.1.2,5102,10218,34920,2086,91392,65728,6,6,4,1460,144062,1,16778208,380000,82732,82732,65700,0,34752,0,2816870682,63
o,1723549328.610522,172.16.5.2,59056,172.16.1.2,5102,10218,34920,2086,97152,65728,6,6,4,1460,146250,1,16778208,390000,82732,79836,65700,0,31856,0,2816870682,63
i,1723549328.610692,172.16.5.2,59056,172.16.1.2,5102,10218,34920,2086,97152,65728,6,6,4,1460,146250,1,16778208,390000,82732,79836,65700,0,34752,0,2816870682,63
o,1723549328.610709,172.16.5.2,59056,172.16.1.2,5102,10218,34920,2086,97152,65728,6,6,4,1460,148125,1,16778208,400000,82732,76940,65700,0,31856,0,2816870682,63
i,1723549328.610887,172.16.5.2,59056,172.16.1.2,5102,10218,34920,2086,97152,65728,6,6,4,1460,148125,1,16778208,400000,82732,76940,65700,0,34752,0,2816870682,63
o,1723549328.610903,172.16.5.2,59056,172.16.1.2,5102,10218,34920,2086,95680,65728,6,6,4,1460,145937,1,16778208,400000,82732,74044,65700,0,31856,0,2816870682,63
i,1723549328.612232,172.16.5.2,59056,172.16.1.2,5102,10218,34920,2086,95680,65728,6,6,4,1460,145937,1,16778208,400000,82732,82732,65700,0,34752,0,2816870682,63
o,1723549328.612251,172.16.5.2,59056,172.16.1.2,5102,10218,34920,2086,97152,65728,6,6,4,1460,144062,1,16778208,400000,82732,79836,65700,0,31856,0,2816870682,63
i,1723549328.628840,172.16.5.2,59056,172.16.1.2,5102,10218,34920,2086,97152,65728,6,6,4,1460,144062,1,16778208,400000,82732,82732,65700,0,34752,0,2816870682,63
o,1723549328.628872,172.16.5.2,59056,172.16.1.2,5102,10218,34920,2086,97152,65728,6,6,4,1460,145000,1,16778208,390000,82732,79836,65700,0,31856,0,2816870682,63
i,1723549328.667350,172.16.5.2,59056,172.16.1.2,5102,10218,34920,2086,97152,65728,6,6,4,1460,145000,1,16778208,390000,82732,82732,65700,0,34752,0,2816870682,63
o,1723549328.667439,172.16.5.2,59056,172.16.1.2,5102,10218,34920,2086,97152,65728,6,6,4,1460,146875,1,16778208,400000,82732,79836,65700,0,31856,0,2816870682,63
i,1723549328.667670,172.16.5.2,59056,172.16.1.2,5102,10218,34920,2086,97152,65728,6,6,4,1460,146875,1,16778208,400000,82732,79836,65700,0,34752,0,2816870682,63
o,1723549328.667698,172.16.5.2,59056,172.16.1.2,5102,10218,34920,2086,94272,65728,6,6,4,1460,141250,1,16778208,420000,82732,76940,65700,0,31856,0,2816870682,63
i,1723549328.688419,172.16.5.2,59056,172.16.1.2,5102,10218,34920,2086,94272,65728,6,6,4,1460,141250,1,16778208,420000,82732,82732,65700,0,34752,0,2816870682,63
o,1723549328.688509,172.16.5.2,59056,172.16.1.2,5102,10218,34920,2086,97152,65728,6,6,4,1460,138750,1,16778208,420000,82732,79836,65700,0,31856,0,2816870682,63
i,1723549328.706046,172.16.5.2,59056,172.16.1.2,5102,10218,34920,2086,97152,65728,6,6,4,1460,138750,1,16778208,420000,82732,82732,65700,0,34752,0,2816870682,63
o,1723549328.706066,172.16.5.2,59056,172.16.1.2,5102,10218,34920,2086,97152,65728,6,6,4,1460,139062,1,16778208,400000,82732,79836,65700,0,31856,0,2816870682,63
i,1723549328.706252,172.16.5.2,59056,172.16.1.2,5102,10218,34920,2086,97152,65728,6,6,4,1460,139062,1,16778208,400000,82732,79836,65700,0,34752,0,2816870682,63
o,1723549328.706269,172.16.5.2,59056,172.16.1.2,5102,10218,36380,2086,97152,65728,6,6,4,1460,136875,1,16778208,400000,82732,76940,65700,0,31856,0,2816870682,63
