enable_time_secs=1723549147	enable_time_usecs=139699	siftrver=1.3.0	sysname=FreeBSD	sysver=1401000	ipmode=4
o,1723549147.140160,10.0.2.15,22,10.0.2.2,52246,1073725440,17746,1026,65535,65700,0,0,4,1460,312,0,16777220,240000,33580,172,65700,0,0,0,1794103386,63
o,1723549147.140344,10.0.2.15,22,10.0.2.2,52246,1073725440,17746,1026,65535,65700,0,0,4,1460,312,0,16777220,240000,33580,244,65700,0,172,0,1794103386,63
i,1723549147.141294,10.0.2.15,22,10.0.2.2,52246,1073725440,17746,1026,65535,65700,0,0,4,1460,312,0,16777220,240000,33580,244,65700,0,244,0,1794103386,63
i,1723549147.141314,10.0.2.15,22,10.0.2.2,52246,1073725440,17918,1026,65535,65700,0,0,4,1460,312,0,4,240000,33580,72,65700,0,72,0,1794103386,63
i,1723549147.141328,10.0.2.15,22,10.0.2.2,52246,1073725440,17990,1026,65535,65700,0,0,4,1460,312,0,4,240000,33580,0,65700,0,0,0,1794103386,63
i,1723549147.141344,10.0.2.15,22,10.0.2.2,52246,1073725440,17990,1026,65535,65700,0,0,4,1460,312,0,4,240000,33580,0,65700,96,0,0,1794103386,63
o,1723549147.141362,10.0.2.15,22,10.0.2.2,52246,1073725440,17990,1026,65535,65604,0,0,5,1460,312,0,5,240000,33580,0,65700,96,0,0,1794103386,63
o,1723549147.142314,10.0.2.15,22,10.0.2.2,52246,1073725440,17990,1026,65535,65604,0,0,8,1460,312,0,4,240000,33580,0,65700,0,0,0,1794103386,63
i,1723549147.142840,10.0.2.15,22,10.0.2.2,52246,1073725440,17990,1026,65535,65604,0,0,8,1460,312,0,67108884,240000,33580,0,65700,0,1,0,1794103386,63
i,1723549150.376724,10.0.2.15,22,10.0.2.2,52260,1073725440,14600,0,65535,65700,0,0,4,1460,312,0,16777216,270000,33580,0,65700,0,0,0,622111221,63
o,1723549150.387323,10.0.2.15,22,10.0.2.2,52260,1073725440,14600,1026,65535,65700,0,0,4,1460,312,0,16777216,270000,33580,38,65700,42,0,0,622111221,63
i,1723549150.388052,10.0.2.15,22,10.0.2.2,52260,1073725440,14600,1026,65535,65700,0,0,4,1460,312,0,16777216,270000,33580,38,65700,0,38,0,622111221,63
i,1723549150.388075,10.0.2.15,22,10.0.2.2,52260,1073725440,14638,1026,65535,65700,0,0,4,1460,312,0,0,240000,33580,0,65700,0,0,0,622111221,63
i,1723549150.388091,10.0.2.15,22,10.0.2.2,52260,1073725440,14638,1026,65535,65700,0,0,4,1460,312,0,0,240000,33580,0,65700,1460,0,0,622111221,63
o,1723549150.388110,10.0.2.15,22,10.0.2.2,52260,1073725440,14638,1026,65535,65700,0,0,4,1460,312,0,1,240000,33580,0,65700,1536,0,0,622111221,63
o,1723549150.389067,10.0.2.15,22,10.0.2.2,52260,1073725440,14638,1026,65535,65700,0,0,4,1460,312,0,16777216,240000,33580,1120,65700,1536,0,0,622111221,63
i,1723549150.390957,10.0.2.15,22,10.0.2.2,52260,1073725440,14638,1026,65535,65700,0,0,4,1460,312,0,16777216,240000,33580,1120,65700,0,1120,0,622111221,63
i,1723549150.392181,10.0.2.15,22,10.0.2.2,52260,1073725440,15758,1026,65535,65700,0,0,4,1460,312,0,0,240000,33580,0,65700,0,0,0,622111221,63
o,1723549150.395791,10.0.2.15,22,10.0.2.2,52260,1073725440,15758,1026,65535,65700,0,0,4,1460,312,0,16777216,240000,33580,492,65700,0,0,0,622111221,63
i,1723549150.396348,10.0.2.15,22,10.0.2.2,52260,1073725440,15758,1026,65535,65700,0,0,4,1460,312,0,16777216,240000,33580,492,65700,0,492,0,622111221,63
i,1723549150.400399,10.0.2.15,22,10.0.2.2,52260,1073725440,16250,1026,65535,65700,0,0,4,1460,312,0,0,240000,33580,0,65700,0,0,0,622111221,63
i,1723549150.400446,10.0.2.15,22,10.0.2.2,52260,1073725440,16250,1026,65535,65700,0,0,4,1460,312,0,0,240000,33580,0,65700,16,0,0,622111221,63
o,1723549150.400487,10.0.2.15,22,10.0.2.2,52260,1073725440,16250,1026,65535,65700,0,0,4,1460,312,0,1,240000,33580,0,65700,60,0,0,622111221,63
o,1723549150.400732,10.0.2.15,22,10.0.2.2,52260,1073725440,16250,1026,65535,65700,0,0,4,1460,312,0,16777216,240000,33580,44,65700,0,0,0,622111221,63
i,1723549150.401764,10.0.2.15,22,10.0.2.2,52260,1073725440,16250,1026,65535,65700,0,0,4,1460,312,0,16777216,240000,33580,44,65700,0,44,0,622111221,63
i,1723549150.401800,10.0.2.15,22,10.0.2.2,52260,1073725440,16294,1026,65535,65700,0,0,4,1460,312,0,0,240000,33580,0,65700,0,0,0,622111221,63
o,1723549150.403251,10.0.2.15,22,10.0.2.2,52260,1073725440,16294,1026,65535,65700,0,0,4,1460,312,0,16777216,240000,33580,68,65700,0,0,0,622111221,63
i,1723549150.404031,10.0.2.15,22,10.0.2.2,52260,1073725440,16294,1026,65535,65700,0,0,4,1460,312,0,16777216,240000,33580,68,65700,0,68,0,622111221,63
i,1723549150.404051,10.0.2.15,22,10.0.2.2,52260,1073725440,16362,1026,65535,65700,0,0,4,1460,312,0,0,240000,33580,0,65700,0,0,0,622111221,63
o,1723549150.405597,10.0.2.15,22,10.0.2.2,52260,1073725440,16362,1026,65535,65700,0,0,4,1460,312,0,16777216,240000,33580,332,65700,0,0,0,622111221,63
i,1723549150.405938,10.0.2.15,22,10.0.2.2,52260,1073725440,16362,1026,65535,65700,0,0,4,1460,312,0,16777216,240000,33580,332,65700,0,332,0,622111221,63
i,1723549150.408081,10.0.2.15,22,10.0.2.2,52260,1073725440,16694,1026,65535,65700,0,0,4,1460,312,0,0,240000,33580,0,65700,0,0,0,622111221,63
o,1723549150.425396,10.0.2.15,22,10.0.2.2,52260,1073725440,16694,1026,65535,65700,0,0,4,1460,312,0,16777216,240000,33580,28,65700,0,0,0,622111221,63
i,1723549150.426064,10.0.2.15,22,10.0.2.2,52260,1073725440,16694,1026,65535,65700,0,0,4,1460,312,0,16777216,240000,33580,28,65700,0,28,0,622111221,63
i,1723549150.426588,10.0.2.15,22,10.0.2.2,52260,1073725440,16722,1026,65535,65700,0,0,4,1460,312,0,0,240000,33580,0,65700,0,0,0,622111221,63
o,1723549150.426999,10.0.2.15,22,10.0.2.2,52260,1073725440,16722,1026,65535,65700,0,0,4,1460,312,0,16777216,240000,33580,768,65700,112,0,0,622111221,63
i,1723549150.427954,10.0.2.15,22,10.0.2.2,52260,1073725440,16722,1026,65535,65700,0,0,4,1460,312,0,16777216,240000,33580,908,65700,0,768,0,622111221,63
o,1723549150.427977,10.0.2.15,22,10.0.2.2,52260,1073725440,17490,1026,65535,65700,0,0,4,1460,312,0,16777216,240000,33580,140,65700,0,0,0,622111221,63
i,1723549150.428861,10.0.2.15,22,10.0.2.2,52260,1073725440,17490,1026,65535,65700,0,0,4,1460,312,0,16777216,240000,33580,184,65700,0,140,0,622111221,63
o,1723549150.428877,10.0.2.15,22,10.0.2.2,52260,1073725440,17630,1026,65535,65700,0,0,4,1460,312,0,16777216,240000,33580,44,65700,0,0,0,622111221,63
i,1723549150.429534,10.0.2.15,22,10.0.2.2,52260,1073725440,17630,1026,65535,65700,0,0,4,1460,312,0,16777216,240000,33580,44,65700,0,44,0,622111221,63
i,1723549150.430275,10.0.2.15,22,10.0.2.2,52260,1073725440,17674,1026,65535,65700,0,0,4,1460,312,0,0,240000,33580,0,65700,0,0,0,622111221,63
o,1723549150.430904,10.0.2.15,22,10.0.2.2,52260,1073725440,17674,1026,65535,65700,0,0,4,1460,312,0,16777220,240000,33580,72,65700,0,0,0,622111221,63
i,1723549150.431709,10.0.2.15,22,10.0.2.2,52260,1073725440,17674,1026,65535,65700,0,0,4,1460,312,0,16777220,240000,33580,72,65700,0,72,0,622111221,63
o,1723549150.435004,10.0.2.15,22,10.0.2.2,52260,1073725440,17746,1026,65535,65700,0,0,4,1460,312,0,16777220,240000,33580,104,65700,0,0,0,622111221,63
i,1723549150.435503,10.0.2.15,22,10.0.2.2,52260,1073725440,17746,1026,65535,65700,0,0,4,1460,312,0,16777220,240000,33580,104,65700,0,104,0,622111221,63
o,1723549150.444794,10.0.2.15,22,10.0.2.2,52260,1073725440,17850,1026,65535,65700,0,0,4,1460,312,0,16777220,240000,33580,72,65700,0,0,0,622111221,63
i,1723549150.446628,10.0.2.15,22,10.0.2.2,52260,1073725440,17850,1026,65535,65700,0,0,4,1460,312,0,16777220,240000,33580,72,65700,0,72,0,622111221,63
i,1723549150.446677,10.0.2.15,22,10.0.2.2,52260,1073725440,17922,1026,65535,65700,0,0,4,1460,312,0,4,240000,33580,0,65700,0,0,0,622111221,63
i,1723549150.446800,10.0.2.15,22,10.0.2.2,52260,1073725440,17922,1026,65535,65700,0,0,4,1460,312,0,4,240000,33580,0,65700,96,0,0,622111221,63
o,1723549150.446839,10.0.2.15,22,10.0.2.2,52260,1073725440,17922,1026,65535,65604,0,0,5,1460,312,0,5,240000,33580,0,65700,96,0,0,622111221,63
o,1723549150.447547,10.0.2.15,22,10.0.2.2,52260,1073725440,17922,1026,65535,65604,0,0,8,1460,312,0,4,240000,33580,0,65700,0,0,0,622111221,63
i,1723549150.448065,10.0.2.15,22,10.0.2.2,52260,1073725440,17922,1026,65535,65604,0,0,8,1460,312,0,67108884,240000,33580,0,65700,0,1,0,622111221,63
i,1723549151.532959,10.0.2.15,22,10.0.2.2,52268,1073725440,14600,0,65535,65700,0,0,4,1460,312,0,16777216,270000,33580,0,65700,0,0,0,4046360846,63
o,1723549151.552074,10.0.2.15,22,10.0.2.2,52268,1073725440,14600,1026,65535,65700,0,0,4,1460,312,0,16777216,270000,33580,38,65700,42,0,0,4046360846,63
i,1723549151.553683,10.0.2.15,22,10.0.2.2,52268,1073725440,14600,1026,65535,65700,0,0,4,1460,312,0,16777216,270000,33580,38,65700,0,38,0,4046360846,63
i,1723549151.553713,10.0.2.15,22,10.0.2.2,52268,1073725440,14638,1026,65535,65700,0,0,4,1460,312,0,0,240000,33580,0,65700,0,0,0,4046360846,63
i,1723549151.553731,10.0.2.15,22,10.0.2.2,52268,1073725440,14638,1026,65535,65700,0,0,4,1460,312,0,0,240000,33580,0,65700,1460,0,0,4046360846,63
o,1723549151.553764,10.0.2.15,22,10.0.2.2,52268,1073725440,14638,1026,65535,65700,0,0,4,1460,312,0,1,240000,33580,0,65700,1536,0,0,4046360846,63
o,1723549151.557358,10.0.2.15,22,10.0.2.2,52268,1073725440,14638,1026,65535,65700,0,0,4,1460,312,0,16777216,240000,33580,1120,65700,1536,0,0,4046360846,63
i,1723549151.558414,10.0.2.15,22,10.0.2.2,52268,1073725440,14638,1026,65535,65700,0,0,4,1460,312,0,16777216,240000,33580,1120,65700,0,1120,0,4046360846,63
i,1723549151.559470,10.0.2.15,22,10.0.2.2,52268,1073725440,15758,1026,65535,65700,0,0,4,1460,312,0,0,240000,33580,0,65700,0,0,0,4046360846,63
o,1723549151.563549,10.0.2.15,22,10.0.2.2,52268,1073725440,15758,1026,65535,65700,0,0,4,1460,312,0,16777216,240000,33580,492,65700,0,0,0,4046360846,63
i,1723549151.564309,10.0.2.15,22,10.0.2.2,52268,1073725440,15758,1026,65535,65700,0,0,4,1460,312,0,16777216,240000,33580,492,65700,0,492,0,4046360846,63
i,1723549151.569519,10.0.2.15,22,10.0.2.2,52268,1073725440,16250,1026,65535,65700,0,0,4,1460,312,0,0,240000,33580,0,65700,0,0,0,4046360846,63
i,1723549151.569558,10.0.2.15,22,10.0.2.2,52268,1073725440,16250,1026,65535,65700,0,0,4,1460,312,0,0,240000,33580,0,65700,16,0,0,4046360846,63
o,1723549151.569581,10.0.2.15,22,10.0.2.2,52268,1073725440,16250,1026,65535,65700,0,0,4,1460,312,0,1,240000,33580,0,65700,60,0,0,4046360846,63
o,1723549151.569894,10.0.2.15,22,10.0.2.2,52268,1073725440,16250,1026,65535,65700,0,0,4,1460,312,0,16777216,240000,33580,44,65700,0,0,0,4046360846,63
i,1723549151.570728,10.0.2.15,22,10.0.2.2,52268,1073725440,16250,1026,65535,65700,0,0,4,1460,312,0,16777216,240000,33580,44,65700,0,44,0,4046360846,63
i,1723549151.570750,10.0.2.15,22,10.0.2.2,52268,1073725440,16294,1026,65535,65700,0,0,4,1460,312,0,0,240000,33580,0,65700,0,0,0,4046360846,63
o,1723549151.572902,10.0.2.15,22,10.0.2.2,52268,1073725440,16294,1026,65535,65700,0,0,4,1460,312,0,16777216,240000,33580,68,65700,0,0,0,4046360846,63
i,1723549151.573799,10.0.2.15,22,10.0.2.2,52268,1073725440,16294,1026,65535,65700,0,0,4,1460,312,0,16777216,240000,33580,68,65700,0,68,0,4046360846,63
i,1723549151.573818,10.0.2.15,22,10.0.2.2,52268,1073725440,16362,1026,65535,65700,0,0,4,1460,312,0,0,240000,33580,0,65700,0,0,0,4046360846,63
o,1723549151.576807,10.0.2.15,22,10.0.2.2,52268,1073725440,16362,1026,65535,65700,0,0,4,1460,312,0,16777216,240000,33580,332,65700,0,0,0,4046360846,63
i,1723549151.577948,10.0.2.15,22,10.0.2.2,52268,1073725440,16362,1026,65535,65700,0,0,4,1460,312,0,16777216,240000,33580,332,65700,0,332,0,4046360846,63
i,1723549151.580795,10.0.2.15,22,10.0.2.2,52268,1073725440,16694,1026,65535,65700,0,0,4,1460,312,0,0,240000,33580,0,65700,0,0,0,4046360846,63
o,1723549151.598331,10.0.2.15,22,10.0.2.2,52268,1073725440,16694,1026,65535,65700,0,0,4,1460,312,0,16777216,240000,33580,28,65700,0,0,0,4046360846,63
i,1723549151.598992,10.0.2.15,22,10.0.2.2,52268,1073725440,16694,1026,65535,65700,0,0,4,1460,312,0,16777216,240000,33580,28,65700,0,28,0,4046360846,63
i,1723549151.599038,10.0.2.15,22,10.0.2.2,52268,1073725440,16722,1026,65535,65700,0,0,4,1460,312,0,0,240000,33580,0,65700,0,0,0,4046360846,63
o,1723549151.601433,10.0.2.15,22,10.0.2.2,52268,1073725440,16722,1026,65535,65700,0,0,4,1460,312,0,16777216,240000,33580,768,65700,112,0,0,4046360846,63
i,1723549151.602456,10.0.2.15,22,10.0.2.2,52268,1073725440,16722,1026,65535,65700,0,0,4,1460,312,0,16777216,240000,33580,908,65700,112,768,0,4046360846,63
o,1723549151.602480,10.0.2.15,22,10.0.2.2,52268,1073725440,17490,1026,65535,65700,0,0,4,1460,312,0,16777216,240000,33580,140,65700,112,0,0,4046360846,63
i,1723549151.602892,10.0.2.15,22,10.0.2.2,52268,1073725440,17490,1026,65535,65700,0,0,4,1460,312,0,16777216,240000,33580,140,65700,112,140,0,4046360846,63
o,1723549151.603832,10.0.2.15,22,10.0.2.2,52268,1073725440,17630,1026,65535,65700,0,0,4,1460,312,0,16777216,240000,33580,44,65700,0,0,0,4046360846,63
i,1723549151.604546,10.0.2.15,22,10.0.2.2,52268,1073725440,17630,1026,65535,65700,0,0,4,1460,312,0,16777216,240000,33580,44,65700,0,44,0,4046360846,63
i,1723549151.604566,10.0.2.15,22,10.0.2.2,52268,1073725440,17674,1026,65535,65700,0,0,4,1460,312,0,0,240000,33580,0,65700,0,0,0,4046360846,63
o,1723549151.605403,10.0.2.15,22,10.0.2.2,52268,1073725440,17674,1026,65535,65700,0,0,4,1460,312,0,16777220,240000,33580,72,65700,0,0,0,4046360846,63
i,1723549151.605904,10.0.2.15,22,10.0.2.2,52268,1073725440,17674,1026,65535,65700,0,0,4,1460,312,0,16777220,240000,33580,72,65700,0,72,0,4046360846,63
o,1723549151.727983,172.16.5.2,56517,172.16.1.2,5102,9375,14480,2082,65535,65700,6,6,4,1460,162187,1,16778209,560000,33580,0,65700,0,0,0,4214670512,63
o,1723549151.728444,172.16.5.2,56517,172.16.1.2,5102,9375,14480,2082,65535,65700,6,6,4,1460,162187,1,16778212,560000,33580,37,65700,0,0,0,4214670512,63
i,1723549151.848546,172.16.5.2,56517,172.16.1.2,5102,9375,14480,2082,65535,65700,6,6,4,1460,162187,1,16778212,560000,33580,37,65700,0,37,0,4214670512,63
o,1723549151.848901,172.16.5.2,56517,172.16.1.2,5102,9375,14480,3106,65728,65728,6,6,4,1460,157187,1,16778212,550000,33580,4,65700,0,0,0,4214670512,63
o,1723549151.849340,172.16.5.2,56517,172.16.1.2,5102,9375,14480,3106,65728,65728,6,6,4,1460,157187,1,16778212,550000,33580,130,65700,0,4,0,4214670512,63
i,1723549151.970440,172.16.5.2,56517,172.16.1.2,5102,9375,14480,3106,65728,65728,6,6,4,1460,157187,1,16778212,550000,33580,130,65700,0,130,0,4214670512,63
i,1723549151.970489,172.16.5.2,56517,172.16.1.2,5102,9375,14480,3106,65600,65728,6,6,4,1460,152812,1,996,530000,33580,0,65700,0,0,0,4214670512,63
o,1723549152.089964,172.16.5.2,56517,172.16.1.2,5102,9375,14480,3106,65728,65728,6,6,4,1460,152812,1,997,530000,33580,0,65700,0,0,0,4214670512,63
o,1723549152.092361,172.16.5.2,56667,172.16.1.2,5102,9375,14480,2082,65535,65700,6,6,4,1460,163437,1,16778209,560000,33580,0,65700,0,0,0,1226023401,63
o,1723549152.092533,172.16.5.2,56667,172.16.1.2,5102,9375,14480,2082,65535,65700,6,6,4,1460,163437,1,16778208,560000,33580,37,65700,0,0,0,1226023401,63
i,1723549152.209866,172.16.5.2,56517,172.16.1.2,5102,9375,14480,3106,65728,65728,6,6,4,1460,152812,1,996,530000,33580,0,65700,0,0,0,4214670512,63
i,1723549152.209995,172.16.5.2,56517,172.16.1.2,5102,9375,14480,3106,65728,65728,6,6,4,1460,152812,1,996,530000,33580,0,65700,1,0,0,4214670512,63
o,1723549152.210013,172.16.5.2,56517,172.16.1.2,5102,9375,14480,3106,65728,65728,6,6,4,1460,152812,1,997,530000,33580,0,65700,2,0,0,4214670512,63
o,1723549152.210611,172.16.5.2,56667,172.16.1.2,5102,9375,14480,2086,65535,65700,6,6,4,1460,163437,1,16778208,560000,33580,33580,65700,0,37,0,1226023401,63
i,1723549152.258090,172.16.5.2,56667,172.16.1.2,5102,9375,14480,2086,65535,65700,6,6,4,1460,163437,1,16778208,560000,33580,33580,65700,0,13069,0,1226023401,63
o,1723549152.258186,172.16.5.2,56667,172.16.1.2,5102,9375,14480,2082,65728,65728,6,6,4,1460,163125,1,16778208,510000,33580,33543,65700,0,13032,0,1226023401,63
o,1723549152.764875,172.16.5.2,56667,172.16.1.2,5102,7240,1448,2146,65728,65728,6,6,4,1460,163125,1,16786401,820000,33580,33543,65700,0,14480,0,1226023401,63
i,1723549152.918547,172.16.5.2,56667,172.16.1.2,5102,7240,1448,2146,65728,65728,6,6,4,1460,163125,1,16786400,820000,33580,33543,65700,0,14480,0,1226023401,63
o,1723549152.918884,172.16.5.2,56667,172.16.1.2,5102,9375,14480,2082,65728,65728,6,6,4,1460,231562,1,16778208,1090000,33580,32095,65700,0,13032,0,1226023401,63
i,1723549152.919647,172.16.5.2,56667,172.16.1.2,5102,9375,14480,2082,65728,65728,6,6,4,1460,231562,1,16778208,1090000,33580,32095,65700,0,14480,0,1226023401,63
o,1723549152.919736,172.16.5.2,56667,172.16.1.2,5102,9375,14480,2086,64256,65728,6,6,4,1460,291562,1,16778208,1460000,33580,29199,65700,0,11584,0,1226023401,63
i,1723549152.938632,172.16.5.2,56667,172.16.1.2,5102,9375,14480,2086,64256,65728,6,6,4,1460,291562,1,16778208,1460000,33580,33580,65700,0,14480,0,1226023401,63
o,1723549152.938716,172.16.5.2,56667,172.16.1.2,5102,9375,14480,2086,64256,65728,6,6,4,1460,345312,1,16778208,1710000,33580,30684,65700,0,11584,0,1226023401,63
i,1723549153.157772,172.16.5.2,56667,172.16.1.2,5102,9375,14480,2086,64256,65728,6,6,4,1460,345312,1,16778208,1710000,33580,33580,65700,0,14480,0,1226023401,63
o,1723549153.157825,172.16.5.2,56667,172.16.1.2,5102,9375,14480,2086,64256,65728,6,6,4,1460,419687,1,16778208,2080000,33580,30684,65700,0,11584,0,1226023401,63
i,1723549153.341732,172.16.5.2,56667,172.16.1.2,5102,9375,14480,2086,64256,65728,6,6,4,1460,419687,1,16778208,2080000,33580,33580,65700,0,14480,0,1226023401,63
o,1723549153.341815,172.16.5.2,56667,172.16.1.2,5102,9375,14480,2086,64256,65728,6,6,4,1460,507500,1,16778208,2510000,33580,30684,65700,0,11584,0,1226023401,63
i,1723549153.454945,172.16.5.2,56667,172.16.1.2,5102,9375,14480,2086,64256,65728,6,6,4,1460,507500,1,16778208,2510000,33580,33580,65700,0,14480,0,1226023401,63
o,1723549153.455025,172.16.5.2,56667,172.16.1.2,5102,9375,15940,2086,65728,65728,6,6,4,1460,594062,1,16778208,2840000,33580,32132,65700,0,13032,0,1226023401,63
o,1723549153.455151,172.16.5.2,56667,172.16.1.2,5102,9375,15940,2086,65728,65728,6,6,4,1460,594062,1,16778208,2840000,33580,32132,65700,0,14480,0,1226023401,63
i,1723549153.616674,172.16.5.2,56667,172.16.1.2,5102,9375,15940,2086,65728,65728,6,6,4,1460,594062,1,16778208,2840000,33580,32132,65700,0,15928,0,1226023401,63
o,1723549153.617049,172.16.5.2,56667,172.16.1.2,5102,9375,15940,2086,65728,65728,6,6,4,1460,607500,1,16778208,2450000,33580,30684,65700,0,14480,0,1226023401,63
i,1723549153.617872,172.16.5.2,56667,172.16.1.2,5102,9375,15940,2086,65728,65728,6,6,4,1460,607500,1,16778208,2450000,41772,30684,65700,0,15928,0,1226023401,63
o,1723549153.617970,172.16.5.2,56667,172.16.1.2,5102,9375,15940,2086,64256,65728,6,6,4,1460,616562,1,16778208,2120000,41772,24892,65700,0,10136,0,1226023401,63
i,1723549153.877349,172.16.5.2,56667,172.16.1.2,5102,9375,15940,2086,64256,65728,6,6,4,1460,616562,1,16778208,2120000,41772,41772,65700,0,15928,0,1226023401,63
o,1723549153.877427,172.16.5.2,56667,172.16.1.2,5102,9375,17400,2086,64256,65728,6,6,4,1460,570937,1,16778208,2110000,41772,27292,65700,0,1448,0,1226023401,63
o,1723549153.877543,172.16.5.2,56667,172.16.1.2,5102,9375,17400,2086,64256,65728,6,6,4,1460,570937,1,16778208,2110000,41772,27292,65700,0,2896,0,1226023401,63
i,1723549154.010100,172.16.5.2,56667,172.16.1.2,5102,9375,17400,2086,64256,65728,6,6,4,1460,570937,1,16778208,2110000,41772,41772,65700,0,17376,0,1226023401,63
o,1723549154.010188,172.16.5.2,56667,172.16.1.2,5102,9375,17400,2086,65728,65728,6,6,4,1460,547187,1,16778208,1940000,41772,40324,65700,0,15928,0,1226023401,63
i,1723549154.353927,172.16.5.2,56667,172.16.1.2,5102,9375,17400,2086,65728,65728,6,6,4,1460,547187,1,16778208,1940000,41772,40324,65700,0,17376,0,1226023401,63
o,1723549154.354006,172.16.5.2,56667,172.16.1.2,5102,9375,17400,2086,65728,65728,6,6,4,1460,539062,1,16778208,1700000,41772,38876,65700,0,15928,0,1226023401,63
i,1723549154.488682,172.16.5.2,56667,172.16.1.2,5102,9375,17400,2086,65728,65728,6,6,4,1460,539062,1,16778208,1700000,41772,41772,65700,0,17376,0,1226023401,63
o,1723549154.488711,172.16.5.2,56667,172.16.1.2,5102,9375,17400,2086,64256,65728,6,6,4,1460,548125,1,16778208,1540000,41772,38876,65700,0,14480,0,1226023401,63
i,1723549154.488887,172.16.5.2,56667,172.16.1.2,5102,9375,17400,2086,64256,65728,6,6,4,1460,548125,1,16778208,1540000,41772,38876,65700,0,17376,0,1226023401,63
o,1723549154.488906,172.16.5.2,56667,172.16.1.2,5102,9375,17400,2086,64256,65728,6,6,4,1460,555937,1,16778208,1410000,41772,35980,65700,0,14480,0,1226023401,63
i,1723549154.624813,172.16.5.2,56667,172.16.1.2,5102,9375,17400,2086,64256,65728,6,6,4,1460,555937,1,16778208,1410000,41772,41772,65700,0,17376,0,1226023401,63
o,1723549154.624964,172.16.5.2,56667,172.16.1.2,5102,9375,17400,2086,64256,65728,6,6,4,1460,580312,1,16778208,1470000,41772,38876,65700,0,14480,0,1226023401,63
i,1723549154.630425,172.16.5.2,56667,172.16.1.2,5102,9375,17400,2086,64256,65728,6,6,4,1460,580312,1,16778208,1470000,41772,41772,65700,0,17376,0,1226023401,63
o,1723549154.630490,172.16.5.2,56667,172.16.1.2,5102,9375,18860,2086,64256,65728,6,6,4,1460,601562,1,16778208,1490000,41772,38876,65700,0,14480,0,1226023401,63
i,1723549154.717782,172.16.5.2,56667,172.16.1.2,5102,9375,18860,2086,64256,65728,6,6,4,1460,601562,1,16778208,1490000,41772,41772,65700,0,18824,0,1226023401,63
o,1723549154.717853,172.16.5.2,56667,172.16.1.2,5102,9375,18860,2086,64256,65728,6,6,4,1460,631562,1,16778208,1580000,41772,38876,65700,0,15928,0,1226023401,63
i,1723549154.718014,172.16.5.2,56667,172.16.1.2,5102,9375,18860,2086,64256,65728,6,6,4,1460,631562,1,16778208,1580000,41772,38876,65700,0,18824,0,1226023401,63
o,1723549154.718037,172.16.5.2,56667,172.16.1.2,5102,9375,18860,2086,65728,65728,6,6,4,1460,641562,1,16778208,1490000,41772,37428,65700,0,17376,0,1226023401,63
i,1723549154.811728,172.16.5.2,56667,172.16.1.2,5102,9375,18860,2086,65728,65728,6,6,4,1460,641562,1,16778208,1490000,49964,49964,65700,0,18824,0,1226023401,63
o,1723549154.811822,172.16.5.2,56667,172.16.1.2,5102,9375,18860,2086,65728,65728,6,6,4,1460,617812,1,16778208,1490000,49964,48516,65700,0,17376,0,1226023401,63
i,1723549154.818470,172.16.5.2,56667,172.16.1.2,5102,9375,18860,2086,65728,65728,6,6,4,1460,617812,1,16778208,1490000,49964,48516,65700,0,18824,0,1226023401,63
o,1723549154.818543,172.16.5.2,56667,172.16.1.2,5102,9375,18860,2086,64256,65728,6,6,4,1460,580625,1,16778208,1580000,49964,45620,65700,0,15928,0,1226023401,63
i,1723549154.937969,172.16.5.2,56667,172.16.1.2,5102,9375,18860,2086,64256,65728,6,6,4,1460,580625,1,16778208,1580000,49964,49964,65700,0,18824,0,1226023401,63
o,1723549154.938079,172.16.5.2,56667,172.16.1.2,5102,9375,18860,2086,64256,65728,6,6,4,1460,564375,1,16778208,1500000,49964,47068,65700,0,15928,0,1226023401,63
i,1723549155.072353,172.16.5.2,56667,172.16.1.2,5102,9375,18860,2086,64256,65728,6,6,4,1460,564375,1,16778208,1500000,49964,49964,65700,0,18824,0,1226023401,63
o,1723549155.072435,172.16.5.2,56667,172.16.1.2,5102,9375,18860,2086,64256,65728,6,6,4,1460,549062,1,16778208,1420000,49964,47068,65700,0,15928,0,1226023401,63
i,1723549155.384234,172.16.5.2,56667,172.16.1.2,5102,9375,18860,2086,64256,65728,6,6,4,1460,549062,1,16778208,1420000,49964,49964,65700,0,18824,0,1226023401,63
o,1723549155.384234,172.16.5.2,56667,172.16.1.2,5102,9375,20320,2086,64256,65728,6,6,4,1460,563125,1,16778208,1380000,49964,42724,65700,0,11584,0,1226023401,63
i,1723549155.519147,172.16.5.2,56667,172.16.1.2,5102,9375,20320,2086,64256,65728,6,6,4,1460,563125,1,16778208,1380000,49964,49964,65700,0,20272,0,1226023401,63
o,1723549155.519179,172.16.5.2,56667,172.16.1.2,5102,9375,20320,2086,64256,65728,6,6,4,1460,581562,1,16778208,1390000,49964,45620,65700,0,15928,0,1226023401,63
o,1723549155.519293,172.16.5.2,56667,172.16.1.2,5102,9375,20320,2086,64256,65728,6,6,4,1460,581562,1,16778208,1390000,49964,45620,65700,0,17376,0,1226023401,63
i,1723549155.568943,172.16.5.2,56667,172.16.1.2,5102,9375,20320,2086,64256,65728,6,6,4,1460,581562,1,16778208,1390000,49964,49964,65700,0,20272,0,1226023401,63
o,1723549155.569036,172.16.5.2,56667,172.16.1.2,5102,9375,20320,2086,65728,65728,6,6,4,1460,602812,1,16778208,1430000,49964,48516,65700,0,18824,0,1226023401,63
i,1723549155.634420,172.16.5.2,56667,172.16.1.2,5102,9375,20320,2086,65728,65728,6,6,4,1460,602812,1,16778208,1430000,49964,48516,65700,0,20272,0,1226023401,63
o,1723549155.634517,172.16.5.2,56667,172.16.1.2,5102,9375,20320,2086,64256,65728,6,6,4,1460,615000,1,16778208,1380000,49964,45620,65700,0,17376,0,1226023401,63
i,1723549155.765363,172.16.5.2,56667,172.16.1.2,5102,9375,20320,2086,64256,65728,6,6,4,1460,615000,1,16778208,1380000,49964,49964,65700,0,20272,0,1226023401,63
o,1723549155.765461,172.16.5.2,56667,172.16.1.2,5102,9375,20320,2086,65728,65728,6,6,4,1460,624375,1,16778208,1320000,49964,48516,65700,0,18824,0,1226023401,63
i,1723549155.780791,172.16.5.2,56667,172.16.1.2,5102,9375,20320,2086,65728,65728,6,6,4,1460,624375,1,16778208,1320000,49964,48536,65700,0,20272,0,1226023401,63
o,1723549155.780828,172.16.5.2,56667,172.16.1.2,5102,10160,1448,2146,65728,65728,6,6,4,1460,624375,1,554697696,1320000,49964,48536,65700,0,20272,0,1226023401,63
i,1723549155.801057,172.16.5.2,56667,172.16.1.2,5102,10160,1448,2146,65728,65728,6,6,4,1460,624375,1,554697696,1320000,49964,48536,65700,0,20272,0,1226023401,63
o,1723549155.801085,172.16.5.2,56667,172.16.1.2,5102,10160,4344,2086,65728,65728,6,6,4,1460,624375,1,554697696,1320000,49964,48536,65700,0,20272,0,1226023401,63
i,1723549155.887824,172.16.5.2,56667,172.16.1.2,5102,10160,4344,2086,65728,65728,6,6,4,1460,624375,1,554697696,1320000,49964,48536,65700,0,23168,0,1226023401,63
i,1723549155.915727,172.16.5.2,56667,172.16.1.2,5102,10160,4344,2086,65728,65728,6,6,4,1460,624375,1,537920480,1320000,49964,48536,65700,0,23168,0,1226023401,63
o,1723549155.915757,172.16.5.2,56667,172.16.1.2,5102,10160,5792,2082,65728,65728,6,6,4,1460,624375,1,554697696,1320000,49964,48536,65700,0,23168,0,1226023401,63
i,1723549155.987327,172.16.5.2,56667,172.16.1.2,5102,10160,5792,2082,65728,65728,6,6,4,1460,624375,1,554697696,1320000,49964,48536,65700,0,24616,0,1226023401,63
i,1723549156.009459,172.16.5.2,56667,172.16.1.2,5102,10160,5792,2082,65728,65728,6,6,4,1460,624375,1,554697696,1320000,49964,48536,65700,0,24616,0,1226023401,63
o,1723549156.009495,172.16.5.2,56667,172.16.1.2,5102,10160,7240,2082,65728,65728,6,6,4,1460,624375,1,554697696,1320000,49964,48536,65700,0,24616,0,1226023401,63
i,1723549156.009683,172.16.5.2,56667,172.16.1.2,5102,10160,7240,2082,65728,65728,6,6,4,1460,624375,1,554697696,1320000,49964,48536,65700,0,26064,0,1226023401,63
i,1723549156.009715,172.16.5.2,56667,172.16.1.2,5102,10160,7240,2082,65728,65728,6,6,4,1460,624375,1,554697696,1320000,49964,48536,65700,0,26064,0,1226023401,63
o,1723549156.009734,172.16.5.2,56667,172.16.1.2,5102,10160,8688,2082,65728,65728,6,6,4,1460,624375,1,554697697,1320000,49964,48536,65700,0,26064,0,1226023401,63
o,1723549156.009869,172.16.5.2,56667,172.16.1.2,5102,10160,8688,2082,65728,65728,6,6,4,1460,624375,1,554697696,1320000,49964,48536,65700,0,26064,0,1226023401,63
i,1723549156.010299,172.16.5.2,56667,172.16.1.2,5102,10160,8688,2082,48384,65728,6,6,4,1460,574062,1,554697696,1550000,49964,31160,65700,0,10136,0,1226023401,63
i,1723549156.045355,172.16.5.2,56667,172.16.1.2,5102,10160,8688,2082,65728,65728,6,6,4,1460,574062,1,554697696,1550000,49964,49964,65700,0,10136,0,1226023401,63
i,1723549156.081983,172.16.5.2,56667,172.16.1.2,5102,10160,8688,2082,65728,65728,6,6,4,1460,574062,1,554697696,1550000,49964,49964,65700,0,10136,0,1226023401,63
i,1723549156.287914,172.16.5.2,56667,172.16.1.2,5102,10160,8688,2082,65728,65728,6,6,4,1460,574062,1,554697696,1550000,49964,49964,65700,0,10136,0,1226023401,63
o,1723549156.287950,172.16.5.2,56667,172.16.1.2,5102,10160,8688,2086,65728,65728,6,6,4,1460,574062,1,554697696,1550000,49964,49964,65700,0,10136,0,1226023401,63
o,1723549156.288095,172.16.5.2,56667,172.16.1.2,5102,10160,8688,2082,65728,65728,6,6,4,1460,574062,1,554697696,1550000,49964,49964,65700,0,10136,0,1226023401,63
i,1723549156.288270,172.16.5.2,56667,172.16.1.2,5102,10160,8688,2082,65728,65728,6,6,4,1460,574062,1,554697696,1550000,49964,49964,65700,0,10136,0,1226023401,63
i,1723549156.298308,172.16.5.2,56667,172.16.1.2,5102,10160,11584,2082,65728,65728,6,6,4,1460,574062,1,554697696,1550000,49964,49964,65700,0,10136,0,1226023401,63
o,1723549156.298327,172.16.5.2,56667,172.16.1.2,5102,10160,11584,2082,65728,65728,6,6,4,1460,574062,1,554697696,1550000,49964,49964,65700,0,10136,0,1226023401,63
i,1723549156.320983,172.16.5.2,56667,172.16.1.2,5102,10160,11584,2082,65728,65728,6,6,4,1460,574062,1,554697696,1550000,49964,49964,65700,0,11584,0,1226023401,63
o,1723549156.321007,172.16.5.2,56667,172.16.1.2,5102,10160,13032,2082,65728,65728,6,6,4,1460,574062,1,554697696,1550000,49964,49964,65700,0,11584,0,1226023401,63
i,1723549156.321210,172.16.5.2,56667,172.16.1.2,5102,10160,13032,2082,65728,65728,6,6,4,1460,574062,1,554697696,1550000,49964,49964,65700,0,13032,0,1226023401,63
o,1723549156.321226,172.16.5.2,56667,172.16.1.2,5102,10160,14480,2082,65728,65728,6,6,4,1460,574062,1,554697696,1550000,49964,49964,65700,0,13032,0,1226023401,63
i,1723549156.321452,172.16.5.2,56667,172.16.1.2,5102,10160,14480,2082,65728,65728,6,6,4,1460,574062,1,554697696,1550000,49964,49964,65700,0,14480,0,1226023401,63
o,1723549156.321472,172.16.5.2,56667,172.16.1.2,5102,10160,15928,2082,65728,65728,6,6,4,1460,574062,1,554697696,1550000,49964,49964,65700,0,14480,0,1226023401,63
i,1723549156.569604,172.16.5.2,56667,172.16.1.2,5102,10160,15928,2082,65728,65728,6,6,4,1460,574062,1,554697696,1550000,49964,49964,65700,0,15928,0,1226023401,63
o,1723549156.569695,172.16.5.2,56667,172.16.1.2,5102,10160,8700,2086,55616,65728,6,6,4,1460,536250,1,16778208,1620000,49964,39828,65700,0,5792,0,1226023401,63
i,1723549156.570003,172.16.5.2,56667,172.16.1.2,5102,10160,8700,2086,55616,65728,6,6,4,1460,536250,1,16778208,1620000,49964,39828,65700,0,8688,0,1226023401,63
i,1723549156.570070,172.16.5.2,56667,172.16.1.2,5102,10160,8700,2086,65728,65728,6,6,4,1460,536250,1,16778208,1620000,49964,39828,65700,0,8688,0,1226023401,63
o,1723549156.570122,172.16.5.2,56667,172.16.1.2,5102,10160,10148,2086,65728,65728,6,6,4,1460,503125,1,16778208,1630000,49964,38380,65700,0,7240,0,1226023401,63
i,1723549156.570303,172.16.5.2,56667,172.16.1.2,5102,10160,10148,2086,65728,65728,6,6,4,1460,503125,1,16778208,1630000,49964,38380,65700,0,10136,0,1226023401,63
o,1723549156.570329,172.16.5.2,56667,172.16.1.2,5102,10160,13044,2086,64256,65728,6,6,4,1460,471562,1,16778208,1620000,49964,35484,65700,0,7240,0,1226023401,63
o,1723549156.570481,172.16.5.2,56667,172.16.1.2,5102,10160,13044,2086,64256,65728,6,6,4,1460,471562,1,16778208,1620000,49964,35484,65700,0,8688,0,1226023401,63
i,1723549156.610527,172.16.5.2,56667,172.16.1.2,5102,10160,13044,2086,64256,65728,6,6,4,1460,471562,1,16778208,1620000,49964,49964,65700,0,13032,0,1226023401,63
o,1723549156.610617,172.16.5.2,56667,172.16.1.2,5102,10160,13044,2086,65728,65728,6,6,4,1460,449062,1,16778208,1540000,49964,48516,65700,0,11584,0,1226023401,63
i,1723549156.998744,172.16.5.2,56667,172.16.1.2,5102,10160,13044,2086,65728,65728,6,6,4,1460,449062,1,16778208,1540000,49964,48516,65700,0,13032,0,1226023401,63
o,1723549156.998810,172.16.5.2,56667,172.16.1.2,5102,10160,13044,2086,64256,65728,6,6,4,1460,446875,1,16778208,1330000,49964,45620,65700,0,10136,0,1226023401,63
i,1723549157.044650,172.16.5.2,56667,172.16.1.2,5102,10160,13044,2086,64256,65728,6,6,4,1460,446875,1,16778208,1330000,49964,49964,65700,0,13032,0,1226023401,63
o,1723549157.044682,172.16.5.2,56667,172.16.1.2,5102,10160,13044,2086,64256,65728,6,6,4,1460,451250,1,16778208,1200000,49964,47068,65700,0,10136,0,1226023401,63
i,1723549157.133840,172.16.5.2,56667,172.16.1.2,5102,10160,13044,2086,64256,65728,6,6,4,1460,451250,1,16778208,1200000,49964,49964,65700,0,13032,0,1226023401,63
o,1723549157.133874,172.16.5.2,56667,172.16.1.2,5102,10160,13044,2086,65728,65728,6,6,4,1460,466250,1,16778208,1200000,49964,48516,65700,0,11584,0,1226023401,63
i,1723549157.228147,172.16.5.2,56667,172.16.1.2,5102,10160,13044,2086,65728,65728,6,6,4,1460,466250,1,16778208,1200000,49964,48516,65700,0,13032,0,1226023401,63
o,1723549157.228179,172.16.5.2,56667,172.16.1.2,5102,10160,13044,2086,64256,65728,6,6,4,1460,490625,1,16778208,1280000,49964,45620,65700,0,10136,0,1226023401,63
i,1723549157.228312,172.16.5.2,56667,172.16.1.2,5102,10160,13044,2086,64256,65728,6,6,4,1460,490625,1,16778208,1280000,49964,45620,65700,0,13032,0,1226023401,63
o,1723549157.228328,172.16.5.2,56667,172.16.1.2,5102,10160,14504,2086,64256,65728,6,6,4,1460,511875,1,16778208,1330000,49964,42724,65700,0,10136,0,1226023401,63
i,1723549157.262900,172.16.5.2,56667,172.16.1.2,5102,10160,14504,2086,64256,65728,6,6,4,1460,511875,1,16778208,1330000,49964,49964,65700,0,14480,0,1226023401,63
o,1723549157.262925,172.16.5.2,56667,172.16.1.2,5102,10160,14504,2086,64256,65728,6,6,4,1460,481875,1,16778208,1380000,49964,47068,65700,0,11584,0,1226023401,63
i,1723549157.294903,172.16.5.2,56667,172.16.1.2,5102,10160,14504,2086,64256,65728,6,6,4,1460,481875,1,16778208,1380000,49964,49964,65700,0,14480,0,1226023401,63
o,1723549157.294926,172.16.5.2,56667,172.16.1.2,5102,10160,14504,2086,64256,65728,6,6,4,1460,453125,1,16778208,1410000,49964,47068,65700,0,11584,0,1226023401,63
i,1723549157.449531,172.16.5.2,56667,172.16.1.2,5102,10160,14504,2086,64256,65728,6,6,4,1460,453125,1,16778208,1410000,49964,49964,65700,0,14480,0,1226023401,63
o,1723549157.449650,172.16.5.2,56667,172.16.1.2,5102,10160,14504,2086,65728,65728,6,6,4,1460,435312,1,16778208,1340000,49964,48516,65700,0,13032,0,1226023401,63
i,1723549157.600604,172.16.5.2,56667,172.16.1.2,5102,10160,14504,2086,65728,65728,6,6,4,1460,435312,1,16778208,1340000,49964,48516,65700,0,14480,0,1226023401,63
o,1723549157.600710,172.16.5.2,56667,172.16.1.2,5102,10160,14504,2086,65728,65728,6,6,4,1460,427187,1,16778208,1220000,49964,47068,65700,0,13032,0,1226023401,63
i,1723549157.648286,172.16.5.2,56667,172.16.1.2,5102,10160,14504,2086,65728,65728,6,6,4,1460,427187,1,16778208,1220000,49964,49964,65700,0,14480,0,1226023401,63
o,1723549157.648362,172.16.5.2,56667,172.16.1.2,5102,10160,14504,2086,65728,65728,6,6,4,1460,426562,1,16778208,1080000,49964,48516,65700,0,13032,0,1226023401,63
i,1723549157.721204,172.16.5.2,56667,172.16.1.2,5102,10160,14504,2086,65728,65728,6,6,4,1460,426562,1,16778208,1080000,49964,48516,65700,0,14480,0,1226023401,63
o,1723549157.721256,172.16.5.2,56667,172.16.1.2,5102,10160,14504,2086,64256,65728,6,6,4,1460,434687,1,16778208,1040000,49964,45620,65700,0,11584,0,1226023401,63
i,1723549157.747449,172.16.5.2,56667,172.16.1.2,5102,10160,14504,2086,64256,65728,6,6,4,1460,434687,1,16778208,1040000,49964,49964,65700,0,14480,0,1226023401,63
o,1723549157.747523,172.16.5.2,56667,172.16.1.2,5102,10160,15964,2086,64256,65728,6,6,4,1460,445625,1,16778208,1040000,49964,47068,65700,0,11584,0,1226023401,63
i,1723549157.879181,172.16.5.2,56667,172.16.1.2,5102,10160,15964,2086,64256,65728,6,6,4,1460,445625,1,16778208,1040000,49964,49964,65700,0,15928,0,1226023401,63
o,1723549157.879258,172.16.5.2,56667,172.16.1.2,5102,10160,15964,2086,65728,65728,6,6,4,1460,466250,1,16778208,1120000,49964,48516,65700,0,14480,0,1226023401,63
i,1723549157.902344,172.16.5.2,56667,172.16.1.2,5102,10160,15964,2086,65728,65728,6,6,4,1460,466250,1,16778208,1120000,49964,48516,65700,0,15928,0,1226023401,63
o,1723549157.902380,172.16.5.2,56667,172.16.1.2,5102,10160,15964,2086,64256,65728,6,6,4,1460,484375,1,16778208,1170000,49964,45620,65700,0,13032,0,1226023401,63
i,1723549157.988476,172.16.5.2,56667,172.16.1.2,5102,10160,15964,2086,64256,65728,6,6,4,1460,484375,1,16778208,1170000,49964,49964,65700,0,15928,0,1226023401,63
o,1723549157.988580,172.16.5.2,56667,172.16.1.2,5102,10160,15964,2086,65728,65728,6,6,4,1460,491562,1,16778208,1110000,49964,48516,65700,0,14480,0,1226023401,63
i,1723549158.039007,172.16.5.2,56667,172.16.1.2,5102,10160,15964,2086,65728,65728,6,6,4,1460,491562,1,16778208,1110000,49964,48516,65700,0,15928,0,1226023401,63
o,1723549158.039083,172.16.5.2,56667,172.16.1.2,5102,10160,15964,2086,65728,65728,6,6,4,1460,485312,1,16778208,1050000,49964,47068,65700,0,14480,0,1226023401,63
i,1723549158.193943,172.16.5.2,56667,172.16.1.2,5102,10160,15964,2086,65728,65728,6,6,4,1460,485312,1,16778208,1050000,49964,49964,65700,0,15928,0,1226023401,63
o,1723549158.194085,172.16.5.2,56667,172.16.1.2,5102,10160,15964,2086,64256,65728,6,6,4,1460,493437,1,16778208,1030000,49964,47068,65700,0,13032,0,1226023401,63
i,1723549158.272003,172.16.5.2,56667,172.16.1.2,5102,10160,15964,2086,64256,65728,6,6,4,1460,493437,1,16778208,1030000,49964,49964,65700,0,15928,0,1226023401,63
o,1723549158.272053,172.16.5.2,56667,172.16.1.2,5102,10160,15964,2086,65728,65728,6,6,4,1460,500625,1,16778208,1010000,49964,48516,65700,0,14480,0,1226023401,63
i,1723549158.338399,172.16.5.2,56667,172.16.1.2,5102,10160,15964,2086,65728,65728,6,6,4,1460,500625,1,16778208,1010000,49964,48516,65700,0,15928,0,1226023401,63
o,1723549158.338517,172.16.5.2,56667,172.16.1.2,5102,10160,15964,2086,65728,65728,6,6,4,1460,511875,1,16778208,1040000,49964,47068,65700,0,14480,0,1226023401,63
i,1723549158.362007,172.16.5.2,56667,172.16.1.2,5102,10160,15964,2086,65728,65728,6,6,4,1460,511875,1,16778208,1040000,49964,49964,65700,0,15928,0,1226023401,63
o,1723549158.362026,172.16.5.2,56667,172.16.1.2,5102,10160,17376,2082,65728,65728,6,6,4,1460,511875,1,16778208,1040000,49964,49964,65700,0,15928,0,1226023401,63
i,1723549158.454995,172.16.5.2,56667,172.16.1.2,5102,10160,15964,2082,65728,65728,6,6,4,1460,511875,1,16778208,1040000,49964,49964,65700,0,17376,0,1226023401,63
o,1723549158.455033,172.16.5.2,56667,172.16.1.2,5102,10160,18824,2082,65728,65728,6,6,4,1460,511875,1,16778208,1040000,49964,49964,65700,0,17376,0,1226023401,63
i,1723549158.455208,172.16.5.2,56667,172.16.1.2,5102,10160,15964,2082,65728,65728,6,6,4,1460,511875,1,16778208,1040000,49964,49964,65700,0,18824,0,1226023401,63
i,1723549158.455247,172.16.5.2,56667,172.16.1.2,5102,7982,1448,2146,65728,65728,6,6,4,1460,511875,1,554697696,1040000,49964,49964,65700,0,18824,0,1226023401,63
o,1723549158.455267,172.16.5.2,56667,172.16.1.2,5102,7982,2896,2146,65728,65728,6,6,4,1460,511875,1,554697696,1040000,49964,49964,65700,0,18824,0,1226023401,63
i,1723549158.517086,172.16.5.2,56667,172.16.1.2,5102,7982,2896,2146,65728,65728,6,6,4,1460,511875,1,554697696,1040000,49964,49964,65700,0,18824,0,1226023401,63
o,1723549158.517122,172.16.5.2,56667,172.16.1.2,5102,7982,4344,2146,65728,65728,6,6,4,1460,511875,1,554697696,1040000,49964,49964,65700,0,18824,0,1226023401,63
i,1723549158.600147,172.16.5.2,56667,172.16.1.2,5102,7982,4344,2146,65728,65728,6,6,4,1460,511875,1,554697696,1040000,49964,49964,65700,0,18824,0,1226023401,63
i,1723549158.638015,172.16.5.2,56667,172.16.1.2,5102,7982,4344,2146,65728,65728,6,6,4,1460,511875,1,554697696,1040000,49964,49964,65700,0,18824,0,1226023401,63
o,1723549158.638045,172.16.5.2,56667,172.16.1.2,5102,7982,5792,2082,65728,65728,6,6,4,1460,511875,1,554697696,1040000,49964,49964,65700,0,18824,0,1226023401,63
i,1723549158.638177,172.16.5.2,56667,172.16.1.2,5102,7982,5792,2082,65728,65728,6,6,4,1460,511875,1,554697696,1040000,49964,49964,65700,0,20272,0,1226023401,63
i,1723549158.685744,172.16.5.2,56667,172.16.1.2,5102,7982,5792,2082,65728,65728,6,6,4,1460,511875,1,554697696,1040000,49964,49964,65700,0,20272,0,1226023401,63
o,1723549158.685764,172.16.5.2,56667,172.16.1.2,5102,7982,5792,2082,65728,65728,6,6,4,1460,511875,1,554697696,1040000,49964,49964,65700,0,20272,0,1226023401,63
i,1723549158.738401,172.16.5.2,56667,172.16.1.2,5102,7982,5792,2082,65728,65728,6,6,4,1460,511875,1,554697696,1040000,49964,49964,65700,0,20272,0,1226023401,63
i,1723549158.738463,172.16.5.2,56667,172.16.1.2,5102,7982,7240,2082,65728,65728,6,6,4,1460,511875,1,554697696,1040000,49964,49964,65700,0,20272,0,1226023401,63
o,1723549158.738479,172.16.5.2,56667,172.16.1.2,5102,7982,5792,2082,65728,65728,6,6,4,1460,511875,1,537920481,1040000,49964,49964,65700,0,20272,0,1226023401,63
i,1723549158.738651,172.16.5.2,56667,172.16.1.2,5102,7982,5792,2082,59968,65728,6,6,4,1460,483125,1,537920480,1160000,49964,44172,65700,0,14480,0,1226023401,63
o,1723549158.738667,172.16.5.2,56667,172.16.1.2,5102,7982,5792,2082,59968,65728,6,6,4,1460,483125,1,554697697,1160000,49964,44172,65700,0,14480,0,1226023401,63
i,1723549158.908996,172.16.5.2,56667,172.16.1.2,5102,7982,5792,2082,57024,65728,6,6,4,1460,450312,1,554697696,1270000,49964,49964,65700,0,7240,0,1226023401,63
o,1723549158.909027,172.16.5.2,56667,172.16.1.2,5102,7982,7240,2082,57024,65728,6,6,4,1460,450312,1,554697696,1270000,49964,49964,65700,0,7240,0,1226023401,63
i,1723549158.949573,172.16.5.2,56667,172.16.1.2,5102,7982,7240,2082,57024,65728,6,6,4,1460,450312,1,554697696,1270000,49964,49964,65700,0,8688,0,1226023401,63
o,1723549158.949606,172.16.5.2,56667,172.16.1.2,5102,7982,5804,2086,59968,65728,6,6,4,1460,426562,1,16778208,1280000,49964,44172,65700,0,2896,0,1226023401,63
i,1723549159.069169,172.16.5.2,56667,172.16.1.2,5102,7982,5804,2086,59968,65728,6,6,4,1460,426562,1,16778208,1280000,49964,49964,65700,0,5792,0,1226023401,63
o,1723549159.069260,172.16.5.2,56667,172.16.1.2,5102,7982,7252,2086,65728,65728,6,6,4,1460,413437,1,16778208,1210000,49964,48516,65700,0,4344,0,1226023401,63
o,1723549159.069395,172.16.5.2,56667,172.16.1.2,5102,7982,7252,2086,65728,65728,6,6,4,1460,413437,1,16778208,1210000,49964,48516,65700,0,5792,0,1226023401,63
i,1723549159.245504,172.16.5.2,56667,172.16.1.2,5102,7982,7252,2086,65728,65728,6,6,4,1460,413437,1,16778208,1210000,49964,48516,65700,0,7240,0,1226023401,63
o,1723549159.245573,172.16.5.2,56667,172.16.1.2,5102,7982,8700,2086,65728,65728,6,6,4,1460,404375,1,16778208,1120000,49964,47068,65700,0,5792,0,1226023401,63
i,1723549159.256118,172.16.5.2,56667,172.16.1.2,5102,7982,8700,2086,65728,65728,6,6,4,1460,404375,1,16778208,1120000,49964,49964,65700,0,8688,0,1226023401,63
o,1723549159.256197,172.16.5.2,56667,172.16.1.2,5102,7982,8700,2086,64256,65728,6,6,4,1460,391562,1,16778208,1080000,49964,47068,65700,0,5792,0,1226023401,63
i,1723549159.358261,172.16.5.2,56667,172.16.1.2,5102,7982,8700,2086,64256,65728,6,6,4,1460,391562,1,16778208,1080000,49964,49964,65700,0,8688,0,1226023401,63
o,1723549159.358474,172.16.5.2,56667,172.16.1.2,5102,7982,8700,2086,64256,65728,6,6,4,1460,379062,1,16778208,1050000,49964,47068,65700,0,5792,0,1226023401,63
o,1723549159.358894,172.16.5.2,56667,172.16.1.2,5102,7982,8700,2086,64256,65728,6,6,4,1460,379062,1,16778208,1050000,49964,47068,65700,0,7240,0,1226023401,63
i,1723549159.673513,172.16.5.2,56667,172.16.1.2,5102,7982,8700,2086,64256,65728,6,6,4,1460,379062,1,16778208,1050000,49964,49964,65700,0,8688,0,1226023401,63
o,1723549159.673612,172.16.5.2,56667,172.16.1.2,5102,7982,8700,2086,64256,65728,6,6,4,1460,384375,1,16778208,980000,49964,47068,65700,0,5792,0,1226023401,63
i,1723549159.673796,172.16.5.2,56667,172.16.1.2,5102,7982,8700,2086,64256,65728,6,6,4,1460,384375,1,16778208,980000,49964,47068,65700,0,8688,0,1226023401,63
o,1723549159.673820,172.16.5.2,56667,172.16.1.2,5102,7982,10160,2086,64256,65728,6,6,4,1460,389062,1,16778208,920000,49964,44172,65700,0,5792,0,1226023401,63
i,1723549159.728087,172.16.5.2,56667,172.16.1.2,5102,7982,10160,2086,64256,65728,6,6,4,1460,389062,1,16778208,920000,49964,49964,65700,0,10136,0,1226023401,63
o,1723549159.728186,172.16.5.2,56667,172.16.1.2,5102,7982,10160,2086,64256,65728,6,6,4,1460,385625,1,16778208,860000,49964,47068,65700,0,7240,0,1226023401,63
o,1723549159.728363,172.16.5.2,56667,172.16.1.2,5102,7982,10160,2086,64256,65728,6,6,4,1460,385625,1,16778208,860000,49964,47068,65700,0,8688,0,1226023401,63
i,1723549160.152768,172.16.5.2,56667,172.16.1.2,5102,7982,10160,2086,64256,65728,6,6,4,1460,385625,1,16778208,860000,49964,49964,65700,0,10136,0,1226023401,63
o,1723549160.152801,172.16.5.2,56667,172.16.1.2,5102,7982,10160,2086,64256,65728,6,6,4,1460,397500,1,16778208,900000,49964,47068,65700,0,7240,0,1226023401,63
i,1723549160.175218,172.16.5.2,56667,172.16.1.2,5102,7982,10160,2086,64256,65728,6,6,4,1460,397500,1,16778208,900000,49964,49964,65700,0,10136,0,1226023401,63
o,1723549160.175340,172.16.5.2,56667,172.16.1.2,5102,7982,10160,2086,65728,65728,6,6,4,1460,410312,1,16778208,940000,49964,48516,65700,0,8688,0,1226023401,63
i,1723549160.289833,172.16.5.2,56667,172.16.1.2,5102,7982,10160,2086,65728,65728,6,6,4,1460,410312,1,16778208,940000,49964,48516,65700,0,10136,0,1226023401,63
o,1723549160.290033,172.16.5.2,56667,172.16.1.2,5102,7982,11620,2086,64256,65728,6,6,4,1460,435312,1,16778208,1080000,49964,45620,65700,0,7240,0,1226023401,63
i,1723549160.698984,172.16.5.2,56667,172.16.1.2,5102,7982,11620,2086,64256,65728,6,6,4,1460,435312,1,16778208,1080000,49964,49964,65700,0,11584,0,1226023401,63
o,1723549160.699067,172.16.5.2,56667,172.16.1.2,5102,7982,11620,2086,65728,65728,6,6,4,1460,448437,1,16778208,1090000,49964,45620,65700,0,7240,0,1226023401,63
o,1723549160.699179,172.16.5.2,56667,172.16.1.2,5102,7982,11620,2086,65728,65728,6,6,4,1460,448437,1,16778208,1090000,49964,45620,65700,0,8688,0,1226023401,63
i,1723549160.699312,172.16.5.2,56667,172.16.1.2,5102,7982,11620,2086,65728,65728,6,6,4,1460,448437,1,16778208,1090000,49964,45620,65700,0,11584,0,1226023401,63
o,1723549160.699328,172.16.5.2,56667,172.16.1.2,5102,7982,11620,2086,62848,65728,6,6,4,1460,460000,1,16778208,1080000,49964,42724,65700,0,8688,0,1226023401,63
i,1723549161.194516,172.16.5.2,56667,172.16.1.2,5102,7982,11620,2086,62848,65728,6,6,4,1460,460000,1,16778208,1080000,49964,49964,65700,0,11584,0,1226023401,63
o,1723549161.194687,172.16.5.2,56667,172.16.1.2,5102,7982,13080,2086,64256,65728,6,6,4,1460,465000,1,16778208,1020000,49964,42724,65700,0,4344,0,1226023401,63
o,1723549161.194896,172.16.5.2,56667,172.16.1.2,5102,7982,13080,2086,64256,65728,6,6,4,1460,465000,1,16778208,1020000,49964,42724,65700,0,5792,0,1226023401,63
i,1723549161.315665,172.16.5.2,56667,172.16.1.2,5102,7982,13080,2086,64256,65728,6,6,4,1460,465000,1,16778208,1020000,49964,49964,65700,0,13032,0,1226023401,63
o,1723549161.315708,172.16.5.2,56667,172.16.1.2,5102,7982,13080,2086,65728,65728,6,6,4,1460,484375,1,16778208,1110000,49964,45620,65700,0,8688,0,1226023401,63
i,1723549161.463241,172.16.5.2,56667,172.16.1.2,5102,7982,13080,2086,65728,65728,6,6,4,1460,484375,1,16778208,1110000,49964,49964,65700,0,13032,0,1226023401,63
o,1723549161.463368,172.16.5.2,56667,172.16.1.2,5102,7982,13080,2086,64256,65728,6,6,4,1460,457812,1,16778208,1190000,49964,47068,65700,0,10136,0,1226023401,63
o,1723549161.463714,172.16.5.2,56667,172.16.1.2,5102,7982,13080,2086,64256,65728,6,6,4,1460,457812,1,16778208,1190000,49964,47068,65700,0,11584,0,1226023401,63
i,1723549161.588745,172.16.5.2,56667,172.16.1.2,5102,7982,13080,2086,64256,65728,6,6,4,1460,457812,1,16778208,1190000,49964,49964,65700,0,13032,0,1226023401,63
o,1723549161.588786,172.16.5.2,56667,172.16.1.2,5102,7982,14540,2086,64256,65728,6,6,4,1460,449375,1,16778208,1110000,49964,47068,65700,0,10136,0,1226023401,63
i,1723549161.689053,172.16.5.2,56667,172.16.1.2,5102,7982,14540,2086,64256,65728,6,6,4,1460,449375,1,16778208,1110000,49964,49964,65700,0,14480,0,1226023401,63
o,1723549161.689084,172.16.5.2,56667,172.16.1.2,5102,7982,14540,2086,65728,65728,6,6,4,1460,454687,1,16778208,1040000,49964,48516,65700,0,13032,0,1226023401,63
i,1723549161.841789,172.16.5.2,56667,172.16.1.2,5102,7982,14540,2086,65728,65728,6,6,4,1460,454687,1,16778208,1040000,49964,48516,65700,0,14480,0,1226023401,63
o,1723549161.841966,172.16.5.2,56667,172.16.1.2,5102,7982,14540,2086,64256,65728,6,6,4,1460,478125,1,16778208,1160000,49964,45620,65700,0,11584,0,1226023401,63
i,1723549162.027709,172.16.5.2,56667,172.16.1.2,5102,7982,14540,2086,64256,65728,6,6,4,1460,478125,1,16778208,1160000,49964,49964,65700,0,14480,0,1226023401,63
o,1723549162.027744,172.16.5.2,56667,172.16.1.2,5102,7982,14540,2086,64256,65728,6,6,4,1460,505937,1,16778208,1290000,49964,47068,65700,0,11584,0,1226023401,63
i,1723549162.027888,172.16.5.2,56667,172.16.1.2,5102,7982,14540,2086,64256,65728,6,6,4,1460,505937,1,16778208,1290000,49964,47068,65700,0,14480,0,1226023401,63
o,1723549162.027905,172.16.5.2,56667,172.16.1.2,5102,7982,14540,2086,65728,65728,6,6,4,1460,512812,1,16778208,1210000,49964,45620,65700,0,13032,0,1226023401,63
i,1723549162.164322,172.16.5.2,56667,172.16.1.2,5102,7982,14540,2086,65728,65728,6,6,4,1460,512812,1,16778208,1210000,49964,49964,65700,0,14480,0,1226023401,63
o,1723549162.164420,172.16.5.2,56667,172.16.1.2,5102,7982,14540,2086,65728,65728,6,6,4,1460,536250,1,16778208,1290000,49964,48516,65700,0,13032,0,1226023401,63
i,1723549162.219542,172.16.5.2,56667,172.16.1.2,5102,7982,14540,2086,65728,65728,6,6,4,1460,536250,1,16778208,1290000,49964,48516,65700,0,14480,0,1226023401,63
o,1723549162.219584,172.16.5.2,56667,172.16.1.2,5102,7982,16000,2086,64256,65728,6,6,4,1460,546875,1,16778208,1250000,49964,45620,65700,0,11584,0,1226023401,63
i,1723549162.219735,172.16.5.2,56667,172.16.1.2,5102,7982,16000,2086,64256,65728,6,6,4,1460,546875,1,16778208,1250000,49964,45620,65700,0,15928,0,1226023401,63
o,1723549162.219754,172.16.5.2,56667,172.16.1.2,5102,7982,16000,2086,64256,65728,6,6,4,1460,556250,1,16778208,1210000,49964,42724,65700,0,13032,0,1226023401,63
i,1723549162.353557,172.16.5.2,56667,172.16.1.2,5102,7982,16000,2086,64256,65728,6,6,4,1460,556250,1,16778208,1210000,49964,49964,65700,0,15928,0,1226023401,63
o,1723549162.353594,172.16.5.2,56667,172.16.1.2,5102,7982,16000,2086,64256,65728,6,6,4,1460,550625,1,16778208,1140000,49964,47068,65700,0,13032,0,1226023401,63
i,1723549162.568352,172.16.5.2,56667,172.16.1.2,5102,7982,16000,2086,64256,65728,6,6,4,1460,550625,1,16778208,1140000,49964,49964,65700,0,15928,0,1226023401,63
o,1723549162.568470,172.16.5.2,56667,172.16.1.2,5102,7982,16000,2086,64256,65728,6,6,4,1460,549375,1,16778208,1050000,49964,47068,65700,0,13032,0,1226023401,63
i,1723549162.638922,172.16.5.2,56667,172.16.1.2,5102,7982,16000,2086,64256,65728,6,6,4,1460,549375,1,16778208,1050000,49964,49964,65700,0,15928,0,1226023401,63
o,1723549162.639020,172.16.5.2,56667,172.16.1.2,5102,7982,16000,2086,65728,65728,6,6,4,1460,557187,1,16778208,1040000,49964,48516,65700,0,14480,0,1226023401,63
i,1723549162.688128,172.16.5.2,56667,172.16.1.2,5102,7982,16000,2086,65728,65728,6,6,4,1460,557187,1,16778208,1040000,49964,48516,65700,0,15928,0,1226023401,63
o,1723549162.688159,172.16.5.2,56667,172.16.1.2,5102,7982,16000,2086,65728,65728,6,6,4,1460,552812,1,16778208,1000000,49964,47068,65700,0,14480,0,1226023401,63
i,1723549162.753889,172.16.5.2,56667,172.16.1.2,5102,7982,16000,2086,65728,65728,6,6,4,1460,552812,1,16778208,1000000,49964,49964,65700,0,15928,0,1226023401,63
o,1723549162.753960,172.16.5.2,56667,172.16.1.2,5102,7982,17460,2086,64256,65728,6,6,4,1460,551250,1,16778208,950000,49964,44172,65700,0,10136,0,1226023401,63
i,1723549162.831155,172.16.5.2,56667,172.16.1.2,5102,7982,17460,2086,64256,65728,6,6,4,1460,551250,1,16778208,950000,49964,49964,65700,0,17376,0,1226023401,63
o,1723549162.831224,172.16.5.2,56667,172.16.1.2,5102,7982,17460,2086,65728,65728,6,6,4,1460,558750,1,16778208,970000,49964,48516,65700,0,15928,0,1226023401,63
i,1723549162.897947,172.16.5.2,56667,172.16.1.2,5102,7982,17460,2086,65728,65728,6,6,4,1460,558750,1,16778208,970000,49964,48516,65700,0,17376,0,1226023401,63
o,1723549162.898021,172.16.5.2,56667,172.16.1.2,5102,7982,17460,2086,65728,65728,6,6,4,1460,556562,1,16778208,930000,49964,47068,65700,0,15928,0,1226023401,63
i,1723549163.127167,172.16.5.2,56667,172.16.1.2,5102,7982,17460,2086,65728,65728,6,6,4,1460,556562,1,16778208,930000,49964,49964,65700,0,17376,0,1226023401,63
o,1723549163.127586,172.16.5.2,56667,172.16.1.2,5102,7982,17460,2086,65728,65728,6,6,4,1460,548437,1,16778208,940000,49964,44172,65700,0,11584,0,1226023401,63
o,1723549163.128136,172.16.5.2,56667,172.16.1.2,5102,7982,17460,2086,65728,65728,6,6,4,1460,548437,1,16778208,940000,49964,44172,65700,0,13032,0,1226023401,63
i,1723549163.137793,172.16.5.2,56667,172.16.1.2,5102,7982,17460,2086,65728,65728,6,6,4,1460,548437,1,16778208,940000,49964,49964,65700,0,17376,0,1226023401,63
o,1723549163.137873,172.16.5.2,56667,172.16.1.2,5102,7982,17460,2086,64256,65728,6,6,4,1460,527500,1,16778208,1040000,49964,45620,65700,0,13032,0,1226023401,63
i,1723549163.153362,172.16.5.2,56667,172.16.1.2,5102,7982,17460,2086,64256,65728,6,6,4,1460,527500,1,16778208,1040000,49964,49964,65700,0,17376,0,1226023401,63
o,1723549163.153450,172.16.5.2,56667,172.16.1.2,5102,7982,18920,2086,64256,65728,6,6,4,1460,511562,1,16778208,1070000,49964,45620,65700,0,13032,0,1226023401,63
i,1723549163.197359,172.16.5.2,56667,172.16.1.2,5102,7982,18920,2086,64256,65728,6,6,4,1460,511562,1,16778208,1070000,49964,49964,65700,0,18824,0,1226023401,63
o,1723549163.197504,172.16.5.2,56667,172.16.1.2,5102,7982,18920,2086,64256,65728,6,6,4,1460,494062,1,16778208,1110000,49964,47068,65700,0,15928,0,1226023401,63
i,1723549163.414710,172.16.5.2,56667,172.16.1.2,5102,7982,18920,2086,64256,65728,6,6,4,1460,494062,1,16778208,1110000,49964,49964,65700,0,18824,0,1226023401,63
o,1723549163.414767,172.16.5.2,56667,172.16.1.2,5102,7982,18920,2086,65728,65728,6,6,4,1460,467500,1,16778208,1190000,49964,48516,65700,0,17376,0,1226023401,63
i,1723549163.437844,172.16.5.2,56667,172.16.1.2,5102,7982,18920,2086,65728,65728,6,6,4,1460,467500,1,16778208,1190000,49964,48516,65700,0,18824,0,1226023401,63
o,1723549163.437873,172.16.5.2,56667,172.16.1.2,5102,7982,18920,2086,62848,65728,6,6,4,1460,446562,1,16778208,1210000,49964,45620,65700,0,15928,0,1226023401,63
i,1723549163.465830,172.16.5.2,56667,172.16.1.2,5102,7982,18920,2086,62848,65728,6,6,4,1460,446562,1,16778208,1210000,49964,49964,65700,0,18824,0,1226023401,63
o,1723549163.466038,172.16.5.2,56667,172.16.1.2,5102,7982,18920,2086,62848,65728,6,6,4,1460,433437,1,16778208,1160000,49964,47068,65700,0,15928,0,1226023401,63
i,1723549163.488341,172.16.5.2,56667,172.16.1.2,5102,7982,18920,2086,62848,65728,6,6,4,1460,433437,1,16778208,1160000,49964,49964,65700,0,18824,0,1226023401,63
o,1723549163.488421,172.16.5.2,56667,172.16.1.2,5102,7982,18920,2086,64256,65728,6,6,4,1460,423125,1,16778208,1100000,49964,47068,65700,0,15928,0,1226023401,63
i,1723549163.548405,172.16.5.2,56667,172.16.1.2,5102,7982,18920,2086,64256,65728,6,6,4,1460,423125,1,16778208,1100000,49964,49964,65700,0,18824,0,1226023401,63
o,1723549163.548503,172.16.5.2,56667,172.16.1.2,5102,7982,18920,2086,64256,65728,6,6,4,1460,419062,1,16778208,1010000,49964,47068,65700,0,15928,0,1226023401,63
i,1723549163.548706,172.16.5.2,56667,172.16.1.2,5102,7982,18920,2086,64256,65728,6,6,4,1460,419062,1,16778208,1010000,49964,47068,65700,0,18824,0,1226023401,63
o,1723549163.548745,172.16.5.2,56667,172.16.1.2,5102,7982,20380,2086,64256,65728,6,6,4,1460,415625,1,16778208,930000,49964,44172,65700,0,15928,0,1226023401,63
i,1723549163.598846,172.16.5.2,56667,172.16.1.2,5102,7982,20380,2086,64256,65728,6,6,4,1460,415625,1,16778208,930000,49964,49964,65700,0,20272,0,1226023401,63
o,1723549163.598920,172.16.5.2,56667,172.16.1.2,5102,7982,20380,2086,64256,65728,6,6,4,1460,413750,1,16778208,870000,49964,47068,65700,0,17376,0,1226023401,63
i,1723549163.708260,172.16.5.2,56667,172.16.1.2,5102,7982,20380,2086,64256,65728,6,6,4,1460,413750,1,16778208,870000,49964,49964,65700,0,20272,0,1226023401,63
o,1723549163.708316,172.16.5.2,56667,172.16.1.2,5102,7982,20380,2086,64256,65728,6,6,4,1460,398437,1,16778208,910000,49964,47068,65700,0,17376,0,1226023401,63
o,1723549163.708455,172.16.5.2,56667,172.16.1.2,5102,7982,20380,2086,64256,65728,6,6,4,1460,398437,1,16778208,910000,49964,47068,65700,0,18824,0,1226023401,63
i,1723549163.837964,172.16.5.2,56667,172.16.1.2,5102,7982,20380,2086,64256,65728,6,6,4,1460,398437,1,16778208,910000,49964,49964,65700,0,20272,0,1226023401,63
o,1723549163.838005,172.16.5.2,56667,172.16.1.2,5102,7982,20380,2086,64256,65728,6,6,4,1460,398750,1,16778208,840000,49964,47068,65700,0,17376,0,1226023401,63
i,1723549163.938274,172.16.5.2,56667,172.16.1.2,5102,7982,20380,2086,64256,65728,6,6,4,1460,398750,1,16778208,840000,49964,49964,65700,0,20272,0,1226023401,63
o,1723549163.938303,172.16.5.2,56667,172.16.1.2,5102,18141,21720,2082,64256,65728,6,6,4,1460,398750,1,553649120,840000,49964,49964,65700,0,20272,0,1226023401,63
o,1723549163.938486,172.16.5.2,56667,172.16.1.2,5102,18141,21720,2086,64256,65728,6,6,4,1460,406562,1,553649120,850000,49964,47068,65700,0,18824,0,1226023401,63
i,1723549164.045564,172.16.5.2,56667,172.16.1.2,5102,18141,21720,2086,64256,65728,6,6,4,1460,406562,1,553649120,850000,49964,49964,65700,0,21720,0,1226023401,63
o,1723549164.045674,172.16.5.2,56667,172.16.1.2,5102,18141,21720,2086,64256,65728,6,6,4,1460,425937,1,553649120,960000,49964,47068,65700,0,18824,0,1226023401,63
i,1723549164.045864,172.16.5.2,56667,172.16.1.2,5102,18141,21720,2086,64256,65728,6,6,4,1460,425937,1,553649120,960000,49964,47068,65700,0,21720,0,1226023401,63
o,1723549164.045886,172.16.5.2,56667,172.16.1.2,5102,18141,21720,2086,64256,65728,6,6,4,1460,435312,1,553649120,960000,49964,44172,65700,0,18824,0,1226023401,63
i,1723549164.077997,172.16.5.2,56667,172.16.1.2,5102,18141,21720,2086,64256,65728,6,6,4,1460,435312,1,553649120,960000,49964,49964,65700,0,21720,0,1226023401,63
o,1723549164.078076,172.16.5.2,56667,172.16.1.2,5102,18141,21720,2082,65728,65728,6,6,4,1460,447187,1,553649120,980000,49964,48516,65700,0,20272,0,1226023401,63
i,1723549164.078700,172.16.5.2,56667,172.16.1.2,5102,18141,21720,2082,65728,65728,6,6,4,1460,447187,1,553649120,980000,49964,48516,65700,0,21720,0,1226023401,63
o,1723549164.078746,172.16.5.2,56667,172.16.1.2,5102,18141,23168,2082,65728,65728,6,6,4,1460,447187,1,553649120,980000,49964,48516,65700,0,21720,0,1226023401,63
i,1723549164.078981,172.16.5.2,56667,172.16.1.2,5102,18141,21720,2082,65728,65728,6,6,4,1460,447187,1,553649120,980000,49964,48516,65700,0,23168,0,1226023401,63
o,1723549164.079018,172.16.5.2,56667,172.16.1.2,5102,18141,24616,2082,65728,65728,6,6,4,1460,447187,1,553649120,980000,49964,48516,65700,0,23168,0,1226023401,63
i,1723549164.166283,172.16.5.2,56667,172.16.1.2,5102,18141,21720,2082,65728,65728,6,6,4,1460,447187,1,553649120,980000,49964,48516,65700,0,24616,0,1226023401,63
i,1723549164.233898,172.16.5.2,56667,172.16.1.2,5102,10860,1448,2146,65728,65728,6,6,4,1460,447187,1,537920480,980000,49964,48516,65700,0,24616,0,1226023401,63
i,1723549164.233936,172.16.5.2,56667,172.16.1.2,5102,10860,1448,2146,65728,65728,6,6,4,1460,447187,1,537920480,980000,49964,48516,65700,0,24616,0,1226023401,63
i,1723549164.319178,172.16.5.2,56667,172.16.1.2,5102,10860,1448,2146,65728,65728,6,6,4,1460,447187,1,537920480,980000,49964,48516,65700,0,24616,0,1226023401,63
i,1723549164.377790,172.16.5.2,56667,172.16.1.2,5102,10860,1448,2146,65728,65728,6,6,4,1460,447187,1,537920480,980000,49964,48516,65700,0,24616,0,1226023401,63
i,1723549164.427379,172.16.5.2,56667,172.16.1.2,5102,10860,1448,2146,65728,65728,6,6,4,1460,447187,1,537920480,980000,49964,48516,65700,0,24616,0,1226023401,63
i,1723549164.427437,172.16.5.2,56667,172.16.1.2,5102,10860,1448,2146,65728,65728,6,6,4,1460,447187,1,537920480,980000,49964,48516,65700,0,24616,0,1226023401,63
i,1723549164.448123,172.16.5.2,56667,172.16.1.2,5102,10860,1448,2146,65728,65728,6,6,4,1460,447187,1,537920480,980000,49964,48516,65700,0,24616,0,1226023401,63
i,1723549164.463317,172.16.5.2,56667,172.16.1.2,5102,10860,1448,2146,65728,65728,6,6,4,1460,447187,1,537920480,980000,49964,48516,65700,0,24616,0,1226023401,63
o,1723549165.188600,172.16.5.2,56667,172.16.1.2,5102,2896,1448,2146,65728,65728,6,6,4,1460,447187,1,1092625377,1760000,49964,48516,65700,0,24616,0,1226023401,63
i,1723549165.358984,172.16.5.2,56667,172.16.1.2,5102,2896,1448,2146,65728,65728,6,6,4,1460,447187,1,1092625376,1760000,49964,48516,65700,0,24616,0,1226023401,63
o,1723549165.359075,172.16.5.2,56667,172.16.1.2,5102,2896,2896,2150,57088,65728,6,6,4,1460,412812,1,1092625376,1140000,49964,39828,65700,0,15928,0,1226023401,63
i,1723549165.498121,172.16.5.2,56667,172.16.1.2,5102,2896,2896,2150,57088,65728,6,6,4,1460,412812,1,1092625376,1140000,49964,49964,65700,0,15928,0,1226023401,63
